id,name,type,typecode,address,location,tel,pcode,pname,citycode,cityname,adcode,adname,gridcode,distance,business_area,timestamp,biz_ext,行业大类,行业中类,行业小类,Unnamed: 21,X,Y,wgs84_经度,wgs84_纬度
be796587-bd42-3776-89aa-19f389932fbe,报刊亭,公共设施;报刊亭;报刊亭,200100,锁金东路与锁金北路交叉口东南20米,"118.817915,32.074294",[],320000,江苏省,25,南京市,320102,玄武区,4818068521,1650,板仓村,2022-09-07 01:38:00,"{""rating"": [], ""cost"": []}",公共设施,报刊亭,报刊亭,,118.817915,32.074294,118.81277077566044,32.07640860509086
d0fbd34a-8fcc-38ac-a022-fb2cf053f229,公共厕所,公共设施;公共厕所;公共厕所,200300,正兰浴室(中平巷),"118.835720,31.956775",[],320000,江苏省,25,南京市,320115,江宁区,4718764622,839,[],2022-11-22 21:25:00,"{""rating"": [], ""cost"": []}",公共设施,公共厕所,公共厕所,,118.83572,31.956775,118.83062423399156,31.95889624855945
f97473a7-3738-3b79-96b2-bb246a804537,公共厕所,公共设施;公共厕所;公共厕所,200300,金箔路与上元路交叉口西北140米,"118.856884,31.951386",[],320000,江苏省,25,南京市,320115,江宁区,4718764801,1794,竹山路沿线,2022-08-15 22:05:00,"{""rating"": [], ""cost"": []}",公共设施,公共厕所,公共厕所,,118.856884,31.951386,118.85183005087502,31.95354282993252
9dc007b6-3bee-3bee-ae1f-558185ac109b,公共厕所,公共设施;公共厕所;公共厕所,200300,金燕路与象山路交叉口南80米,"118.761897,32.103989",[],320000,江苏省,25,南京市,320106,鼓楼区,4818162012,1828,幕府西路,2023-05-06 11:30:00,"{""rating"": [], ""cost"": []}",公共设施,公共厕所,公共厕所,,118.761897,32.103989,118.75666951010083,32.10603838956507
b7db6e0e-d3a6-35ae-95e6-dcfc02064aea,公共厕所,公共设施;公共厕所;公共厕所,200300,清江路28附近,"118.730205,32.041098",[],320000,江苏省,25,南京市,320106,鼓楼区,4818054821,709,江东,2022-09-05 19:36:00,"{""rating"": [], ""cost"": []}",公共设施,公共厕所,公共厕所,,118.730205,32.041098,118.72499044110748,32.04313898712577
29b791f1-79f5-3440-9fb5-2f69e18dfe5d,公共厕所,公共设施;公共厕所;公共厕所,200300,虎踞北路32号,"118.756354,32.066689",[],320000,江苏省,25,南京市,320106,鼓楼区,4818068001,1003,虎踞北路,2023-03-01 07:14:00,"{""rating"": [], ""cost"": []}",公共设施,公共厕所,公共厕所,,118.756354,32.066689,118.75112805916297,32.068728680874706
51ddb291-c6c1-31f1-a2a3-a303e77be3a5,报刊亭,公共设施;报刊亭;报刊亭,200100,花园路与玄武大道辅路交叉口东南60米,"118.820834,32.084521",[],320000,江苏省,25,南京市,320102,玄武区,4818160502,253,[],2022-06-29 22:12:00,"{""rating"": [], ""cost"": []}",公共设施,报刊亭,报刊亭,,118.820834,32.084521,118.81569496827476,32.086643202441984
5c9ce230-a066-335f-b994-0d0b6b7982ff,公共厕所,公共设施;公共厕所;公共厕所,200300,和燕路274-18附近,"118.807255,32.091861",[],320000,江苏省,25,南京市,320102,玄武区,4818161401,926,红山,2022-09-13 21:29:00,"{""rating"": [], ""cost"": []}",公共设施,公共厕所,公共厕所,,118.807255,32.091861,118.80208756971348,32.093960290253605
1b7a9614-fafc-366d-b20c-13aa4cf0097c,中国邮政报刊亭,公共设施;报刊亭;报刊亭,200100,秦虹路与乔虹巷交叉口南20米,"118.806319,32.013667",[],320000,江苏省,25,南京市,320104,秦淮区,4818061411,1557,秦虹,2022-10-27 09:52:00,"{""rating"": [], ""cost"": []}",公共设施,报刊亭,报刊亭,,118.806319,32.013667,118.80115694850534,32.01574738250777
7100c22f-ba93-3a4c-9c41-0006d0b9c5e8,大胜关大桥服务区公共厕所,公共设施;公共厕所;公共厕所,200300,江浦街道西江路南京三桥服务区,"118.608995,31.985160",[],320000,江苏省,25,南京市,320111,浦口区,4718748802,481,江北新区,2022-11-18 05:13:00,"{""rating"": [], ""cost"": []}",公共设施,公共厕所,公共厕所,,118.608995,31.98516,118.6039896507951,31.98736520297193
a14ed2c6-6c19-340e-89df-ffea391bf79a,大胜关大桥服务区公共厕所,公共设施;公共厕所;公共厕所,200300,南京绕城高速公路南京三桥服务区,"118.600645,31.987432",[],320000,江苏省,25,南京市,320111,浦口区,4718748810,1309,江北新区,2023-03-27 04:50:00,"{""rating"": [], ""cost"": []}",公共设施,公共厕所,公共厕所,,118.600645,31.987432,118.59564172154384,31.989640319807407
9beda3a6-84cc-3d12-914f-0339b47fb707,八卦洲服务区公共厕所,公共设施;公共厕所;公共厕所,200300,G36宁洛高速东50米八卦洲服务区警务室附近,"118.833314,32.174623",[],320000,江苏省,25,南京市,320113,栖霞区,4818260621,178,江北新区,2023-03-06 00:17:00,"{""rating"": [], ""cost"": []}",公共设施,公共厕所,公共厕所,,118.833314,32.174623,118.82819324295824,32.17678568935753
19f4dfa8-32e0-33ee-816f-34bb9ec5ac0e,公共厕所,公共设施;公共厕所;公共厕所,200300,南京天后化纤厂西侧210米,"118.667538,31.959130",[],320000,江苏省,25,南京市,320114,雨花台区,4718755301,936,[],2023-04-05 14:37:00,"{""rating"": [], ""cost"": []}",公共设施,公共厕所,公共厕所,,118.667538,31.95913,118.6624434935314,31.961248261103016
724e604b-1bfd-338f-b996-9499856adab2,公共厕所,公共设施;公共厕所;公共厕所,200300,成元路金宝天印山农副产品批发大市场,"118.859383,31.941921",[],320000,江苏省,25,南京市,320115,江宁区,4718763802,787,竹山路沿线,2022-11-22 21:26:00,"{""rating"": [], ""cost"": []}",公共设施,公共厕所,公共厕所,,118.859383,31.941921,118.85433417092544,31.944079500932432
851fd6a0-00b2-36bb-a1c6-bdf750cd8350,公共厕所,公共设施;公共厕所;公共厕所,200300,东沟巷南京市江宁区图书馆,"118.843746,31.955403",[],320000,江苏省,25,南京市,320115,江宁区,4718764711,1747,[],2023-05-04 13:11:00,"{""rating"": [], ""cost"": []}",公共设施,公共厕所,公共厕所,,118.843746,31.955403,118.83866688969168,31.957538610385605
8c72bcf0-6feb-3c6c-b796-e132cbae3eaa,公共厕所,公共设施;公共厕所;公共厕所,200300,上元路与上元大街交叉口东南220米,"118.854876,31.954857",[],320000,江苏省,25,南京市,320115,江宁区,4718764811,1405,竹山路沿线,2022-11-26 11:18:00,"{""rating"": [], ""cost"": []}",公共设施,公共厕所,公共厕所,,118.854876,31.954857,118.84981819141046,31.95701144678021
82e8a826-5d0d-32ef-a4c7-5f2aab71c369,公共厕所,公共设施;公共厕所;公共厕所,200300,长塘巷玉靖花园,"118.855768,31.960249",[],320000,江苏省,25,南京市,320115,江宁区,4718765801,803,[],2023-03-11 13:01:00,"{""rating"": [], ""cost"": []}",公共设施,公共厕所,公共厕所,,118.855768,31.960249,118.85071129032455,31.962406107592543
7d8e2ed2-6cde-3185-9238-b3eea2279946,公共厕所,公共设施;公共厕所;公共厕所,200300,东善桥镇东虹路209号健生堂大药房附近,"118.773488,31.867257",[],320000,江苏省,25,南京市,320115,江宁区,4718664102,936,东善桥,2023-04-26 19:51:00,"{""rating"": [], ""cost"": []}",公共设施,公共厕所,公共厕所,,118.773488,31.867257,118.76829052058171,31.86926124470975
8528d822-273b-3c07-9d69-e389d13f9ba1,公共厕所,公共设施;公共厕所;公共厕所,200300,东霞路与天印大道交叉口东80米,"118.871218,31.911528",[],320000,江苏省,25,南京市,320115,江宁区,4718669912,1262,[],2023-03-17 13:54:00,"{""rating"": [], ""cost"": []}",公共设施,公共厕所,公共厕所,,118.871218,31.911528,118.86618950195276,31.91369563409928
162d027d-f5ea-3398-a1ea-4bd725b9735f,报刊亭,公共设施;报刊亭;报刊亭,200100,珍珠南路与绿村巷交叉口南20米,"119.031526,31.646303",[],320000,江苏省,25,南京市,320117,溧水区,4719307211,1840,永阳,2023-03-09 15:34:00,"{""rating"": [], ""cost"": []}",公共设施,报刊亭,报刊亭,,119.031526,31.646303,119.02620223441984,31.648174178683696
72d5d18c-1ce6-3d25-82c8-6fd689828bed,傅家边农业科技园-公共厕所,公共设施;公共厕所;公共厕所,200300,105县道东150米,"119.029099,31.563604",[],320000,江苏省,25,南京市,320117,溧水区,4719207210,1726,[],2022-09-13 21:29:00,"{""rating"": [], ""cost"": []}",公共设施,公共厕所,公共厕所,,119.029099,31.563604,119.02379066445624,31.56548353479248
5406a3ef-5bcb-3a90-97c7-865a69882246,报刊亭,公共设施;报刊亭;报刊亭,200100,白果路与泰山路交叉口北80米,"118.851072,32.340929",[],320000,江苏省,25,南京市,320116,六合区,4818460820,868,江北新区,2023-04-05 15:01:00,"{""rating"": [], ""cost"": []}",公共设施,报刊亭,报刊亭,,118.851072,32.340929,118.84597193786718,32.34313805357637
35b1c437-2bf3-376d-9f25-a4c2ffcc3ab5,报刊亭,公共设施;报刊亭;报刊亭,200100,园林东路与延安路交叉口东南60米,"118.847174,32.350230",[],320000,江苏省,25,南京市,320116,六合区,4818462702,480,江北新区,2023-04-30 13:10:00,"{""rating"": [], ""cost"": []}",公共设施,报刊亭,报刊亭,,118.847174,32.35023,118.84206557797744,32.35243233510192
720bb350-ba3b-304f-bb96-59e98dbc33cd,公共厕所,公共设施;公共厕所;公共厕所,200300,新华西路与育英路交叉口西南360米,"118.739144,32.211044",[],320000,江苏省,25,南京市,320116,六合区,4818255900,1560,江北新区,2023-05-13 04:09:00,"{""rating"": [], ""cost"": []}",公共设施,公共厕所,公共厕所,,118.739144,32.211044,118.7339072819076,32.21311168897477
2843625b-4b0c-3a87-b459-97bc6a5a9c5e,公共厕所,公共设施;公共厕所;公共厕所,200300,杨新路与旭东路交叉口东160米,"118.744323,32.208604",[],320000,江苏省,25,南京市,320116,六合区,4818255901,1167,江北新区,2023-04-26 13:39:00,"{""rating"": [], ""cost"": []}",公共设施,公共厕所,公共厕所,,118.744323,32.208604,118.73908435492612,32.2106696622464
b157a91a-b783-373d-91e7-7c56c8fd9d24,公共厕所,公共设施;公共厕所;公共厕所,200300,太子山路太子山路小区,"118.757125,32.214557",[],320000,江苏省,25,南京市,320116,六合区,4818265021,624,西厂门,2022-11-22 00:54:00,"{""rating"": [], ""cost"": []}",公共设施,公共厕所,公共厕所,,118.757125,32.214557,118.75188551058488,32.21662360124964
f2157333-1d70-3364-b1b4-61a62a8733ad,公共厕所,公共设施;公共厕所;公共厕所,200300,兴浦路10号,"118.719594,32.096199",[],320000,江苏省,25,南京市,320111,浦口区,4818151711,522,江北新区,2022-11-22 22:23:00,"{""rating"": [], ""cost"": []}",公共设施,公共厕所,公共厕所,,118.719594,32.096199,118.71438609746946,32.09826180318709
1a57a030-569b-3587-8e7f-75c725f38c42,公共厕所,公共设施;公共厕所;公共厕所,200300,油坊巷18号附近,"118.702894,32.140077",[],320000,江苏省,25,南京市,320111,浦口区,4818156620,278,江北新区,2022-08-06 14:49:00,"{""rating"": [], ""cost"": []}",公共设施,公共厕所,公共厕所,,118.702894,32.140077,118.69770844273104,32.14217079484293
37311bec-2da3-3413-96d1-5ead31e58ca6,公共厕所(装修中),公共设施;公共厕所;公共厕所,200300,盐仓桥东街2-3附近,"118.750758,32.089290",[],320000,江苏省,25,南京市,320106,鼓楼区,4818160020,754,建宁路,2022-08-05 21:13:00,"{""rating"": [], ""cost"": []}",公共设施,公共厕所,公共厕所,,118.750758,32.08929,118.74552939569888,32.09133385842147
15ee9f3c-8a15-37cc-970a-e324d9ae580a,公共厕所,公共设施;公共厕所;公共厕所,200300,兴安西路与兴安路交叉口西80米,"118.741611,32.097324",[],320000,江苏省,25,南京市,320106,鼓楼区,4818151920,1698,[],2022-12-03 17:36:00,"{""rating"": [], ""cost"": []}",公共设施,公共厕所,公共厕所,,118.741611,32.097324,118.73638367550171,32.099370998089256
6124abde-4b71-3ee7-a3b5-bbbf37b2216a,大桥公园-公共厕所,公共设施;公共厕所;公共厕所,200300,大桥公园(北侧),"118.752018,32.110585",[],320000,江苏省,25,南京市,320106,鼓楼区,4818163000,1896,宝塔桥,2023-03-01 18:03:00,"{""rating"": [], ""cost"": []}",公共设施,公共厕所,公共厕所,,118.752018,32.110585,118.74678742933594,32.11263327967184
65626c16-7dd8-31d6-af4c-57e81e531f07,公共厕所,公共设施;公共厕所;公共厕所,200300,五百村路附近,"118.781969,32.105135",[],320000,江苏省,25,南京市,320106,鼓楼区,4818162211,1793,小市,2022-10-27 12:42:00,"{""rating"": [], ""cost"": []}",公共设施,公共厕所,公共厕所,,118.781969,32.105135,118.776758922411,32.107200394022584
e8b78467-9533-3ab6-8966-3bc608ab82d8,报刊亭,公共设施;报刊亭;报刊亭,200100,和燕路与黄家圩路交叉口西160米,"118.794486,32.095010",[],320000,江苏省,25,南京市,320106,鼓楼区,4818161311,597,小市,2023-03-09 10:11:00,"{""rating"": [], ""cost"": []}",公共设施,报刊亭,报刊亭,,118.794486,32.09501,118.78929517168343,32.097089544417535
b758e4d8-9669-3b28-a901-880a48c56340,公共厕所,公共设施;公共厕所;公共厕所,200300,红枫街14-1号,"118.945980,32.137056",[],320000,江苏省,25,南京市,320113,栖霞区,4818176512,1960,[],2023-04-28 13:57:00,"{""rating"": [], ""cost"": []}",公共设施,公共厕所,公共厕所,,118.94598,32.137056,118.94089453787213,32.13924865967297
ebcbde83-22b7-34d7-8685-9ac8aca38e43,报刊亭,公共设施;报刊亭;报刊亭,200100,兴隆大街与云锦路交叉口东南40米,"118.738857,32.012614",[],320000,江苏省,25,南京市,320105,建邺区,4818051910,840,奥体,2023-03-11 11:42:00,"{""rating"": [], ""cost"": []}",公共设施,报刊亭,报刊亭,,118.738857,32.012614,118.7336388356181,32.01464336500389
31a33aca-3629-3676-9f79-d6dfc1764eda,公共厕所,公共设施;公共厕所;公共厕所,200300,清凉门大街金信花园,"118.746249,32.046737",[],320000,江苏省,25,南京市,320106,鼓楼区,4818055912,961,草场门,2023-02-11 23:48:00,"{""rating"": [], ""cost"": []}",公共设施,公共厕所,公共厕所,,118.746249,32.046737,118.7410248770907,32.04877192563045
1025c55b-faf7-3020-8e2b-503ec7537b21,公共厕所,公共设施;公共厕所;公共厕所,200300,银城花园南区(闽江路南),"118.731189,32.051881",[],320000,江苏省,25,南京市,320106,鼓楼区,4818056801,1091,江东,2022-11-22 22:26:00,"{""rating"": [], ""cost"": []}",公共设施,公共厕所,公共厕所,,118.731189,32.051881,118.72597257878633,32.05392368344027
8f980d3b-ef5e-346e-9fda-31b98249f206,公共厕所,公共设施;公共厕所;公共厕所,200300,定淮门大街11-1号,"118.741131,32.064947",[],320000,江苏省,25,南京市,320106,鼓楼区,4818057920,460,龙江,2023-01-13 20:05:00,"{""rating"": [], ""cost"": []}",公共设施,公共厕所,公共厕所,,118.741131,32.064947,118.73590688165554,32.06698726216677
92310310-fff5-3001-836a-a0feb8c695e7,公共厕所(装修中),公共设施;公共厕所;公共厕所,200300,玉塘东街4-25号附近,"118.754627,32.029131",[],320000,江苏省,25,南京市,320105,建邺区,4818063011,1102,茶南,2023-02-02 11:20:00,"{""rating"": [], ""cost"": []}",公共设施,公共厕所,公共厕所,,118.754627,32.029131,118.74940421323092,32.03116195728918
5ed0061c-f7ff-35fe-b8c3-7eef7a61b344,公共厕所,公共设施;公共厕所;公共厕所,200300,仙鹤街104号,"118.776350,32.024807",[],320000,江苏省,25,南京市,320104,秦淮区,4818062220,1507,升州路,2023-02-09 13:55:00,"{""rating"": [], ""cost"": []}",公共设施,公共厕所,公共厕所,,118.77635,32.024807,118.77114086002558,32.026849111419736
eadd5f8e-f1f1-3344-8d5d-6874cfbd5c94,报刊亭,公共设施;报刊亭;报刊亭,200100,雨花西路与钱家巷交叉口东北80米,"118.770720,32.003381",[],320000,江苏省,25,南京市,320114,雨花台区,4818060111,1577,赛虹桥,2022-07-19 11:58:00,"{""rating"": [], ""cost"": []}",公共设施,报刊亭,报刊亭,,118.77072,32.003381,118.765507540818,32.005413430912014
7392641e-b9c4-3f1d-ab61-66da07679847,报刊亭,公共设施;报刊亭;报刊亭,200100,雨花西路与钱家巷交叉口东北160米,"118.771790,32.003650",[],320000,江苏省,25,南京市,320114,雨花台区,4818060112,1628,赛虹桥,2023-03-27 14:41:00,"{""rating"": [], ""cost"": []}",公共设施,报刊亭,报刊亭,,118.77179,32.00365,118.7665784266578,32.005683314488905
b2e24328-840a-3fa4-82c7-42093bf1b363,秦淮河-公共厕所,公共设施;公共厕所;公共厕所,200300,贡院街111号,"118.790236,32.020074",[],320000,江苏省,25,南京市,320104,秦淮区,4818062310,1455,夫子庙,2023-04-22 12:35:00,"{""rating"": [], ""cost"": []}",公共设施,公共厕所,公共厕所,,118.790236,32.020074,118.78504532005036,32.02213106176426
c191f110-b017-39a3-a779-304c7ec64cd0,公共厕所,公共设施;公共厕所;公共厕所,200300,磊功巷136号,"118.790460,32.015139",[],320000,江苏省,25,南京市,320104,秦淮区,4818061320,210,夫子庙,2022-11-22 22:24:00,"{""rating"": [], ""cost"": []}",公共设施,公共厕所,公共厕所,,118.79046,32.015139,118.78527011783112,32.01719523425628
1da6e39f-9cb9-320a-81e7-aa22e604f277,公共厕所,公共设施;公共厕所;公共厕所,200300,双桥门东北侧,"118.795189,32.006652",[],320000,江苏省,25,南京市,320104,秦淮区,4818060321,1984,[],2023-05-02 12:41:00,"{""rating"": [], ""cost"": []}",公共设施,公共厕所,公共厕所,,118.795189,32.006652,118.7900074850646,32.00871299840956
6814751f-7bb5-322e-9378-4c348616f16b,公共厕所,公共设施;公共厕所;公共厕所,200300,[],"118.778514,32.051516",[],320000,江苏省,25,南京市,320106,鼓楼区,4818066200,1479,南大,2022-09-04 23:31:00,"{""rating"": [], ""cost"": []}",公共设施,公共厕所,公共厕所,,118.778514,32.051516,118.77330475363476,32.0535662508286
81f7f655-6d69-37c0-aa10-13a64474646f,报刊亭,公共设施;报刊亭;报刊亭,200100,铁路南街8-1号附近,"118.772828,32.074571",[],320000,江苏省,25,南京市,320106,鼓楼区,4818068122,1618,湖南路,2022-07-11 23:21:00,"{""rating"": [], ""cost"": []}",公共设施,报刊亭,报刊亭,,118.772828,32.074571,118.76761079837652,32.0766210941892
38e5f030-37f0-3bbf-bdcb-8cae32f82d85,白马公园-公共厕所,公共设施;公共厕所;公共厕所,200300,白马山庄1号白马公园内(西南角),"118.815385,32.058834",[],320000,江苏省,25,南京市,320102,玄武区,4818067500,1912,九华山,2022-09-13 21:29:00,"{""rating"": [], ""cost"": []}",公共设施,公共厕所,公共厕所,,118.815385,32.058834,118.8102369414761,32.060940595336405
c10e168e-3785-3ade-96a4-36331b8d8721,公共厕所,公共设施;公共厕所;公共厕所,200300,锁金东路锁金二小,"118.817925,32.073748",[],320000,江苏省,25,南京市,320102,玄武区,4818068521,1642,板仓村,2023-02-02 11:34:00,"{""rating"": [], ""cost"": []}",公共设施,公共厕所,公共厕所,,118.817925,32.073748,118.8127808466771,32.07586250570237
b7aa533f-3496-37e0-83fc-b13d07f22a69,公用电话,公共设施;公用电话;公用电话,200200,中山门外石象路7号中山陵园风景区,"118.852112,32.056537",[],320000,江苏省,25,南京市,320102,玄武区,4818066820,811,[],2022-12-29 19:42:00,"{""rating"": [], ""cost"": []}",公共设施,公用电话,公用电话,,118.852112,32.056537,118.84703991479076,32.058710194338644
75d85db2-8176-3efc-b80c-fa72e51e3691,公共厕所,公共设施;公共厕所;公共厕所,200300,四方城西路南京国际会议大酒店,"118.844783,32.052200",[],320000,江苏省,25,南京市,320102,玄武区,4818066701,1894,[],2022-12-09 16:16:00,"{""rating"": [], ""cost"": []}",公共设施,公共厕所,公共厕所,,118.844783,32.0522,118.83969715973367,32.054359628351605
fa4225ac-66c2-30f8-a234-a786290a7fb3,报刊亭,公共设施;报刊亭;报刊亭,200100,秦虹路361-2号附近,"118.807997,32.013957",[],320000,江苏省,25,南京市,320104,秦淮区,4818061421,1752,秦虹,2023-03-09 12:11:00,"{""rating"": [], ""cost"": []}",公共设施,报刊亭,报刊亭,,118.807997,32.013957,118.8028381811033,32.0160403268315
3f600716-3290-36ac-8703-8017817fe8c0,公共厕所,公共设施;公共厕所;公共厕所,200300,中山东路与前半山园交叉口东南100米,"118.826386,32.038228",[],320000,江苏省,25,南京市,320104,秦淮区,4818064610,1720,后标营,2023-04-24 11:55:00,"{""rating"": [], ""cost"": []}",公共设施,公共厕所,公共厕所,,118.826386,32.038228,118.82126299792225,32.04035044803589
01d7415c-54ca-3cdc-a425-daf6fb24ef58,公共厕所(装修中),公共设施;公共厕所;公共厕所,200300,江苏省南京市秦淮区紫金路23号,"118.835054,32.024552",[],320000,江苏省,25,南京市,320104,秦淮区,4818062622,1832,苜蓿园,2022-09-07 15:50:00,"{""rating"": [], ""cost"": []}",公共设施,公共厕所,公共厕所,,118.835054,32.024552,118.82995065712446,32.02668762699263
37d2260e-5e53-3469-811c-caed456b4fcb,公共厕所,公共设施;公共厕所;公共厕所,200300,太平桥南4号-102室,"118.801386,32.046139",[],320000,江苏省,25,南京市,320102,玄武区,4818065410,208,梅园,2023-02-02 11:36:00,"{""rating"": [], ""cost"": []}",公共设施,公共厕所,公共厕所,,118.801386,32.046139,118.79621169897165,32.048218580616755
a9ddf8c2-8c61-30c1-8746-5960125b3ded,报刊亭,公共设施;报刊亭;报刊亭,200100,珠江路650-652号附近,"118.802698,32.047059",[],320000,江苏省,25,南京市,320102,玄武区,4818065410,1906,梅园,2022-07-12 12:20:00,"{""rating"": [], ""cost"": []}",公共设施,报刊亭,报刊亭,,118.802698,32.047059,118.79752602877208,32.04914091888231
99c1c1af-1ae6-380b-9f1f-b50f73eb8fb5,江宁服务区公共厕所,公共设施;公共厕所;公共厕所,200300,侯焦路与华林路交叉口南380米,"118.918775,31.916962",[],320000,江苏省,25,南京市,320115,江宁区,4718770301,1734,[],2023-04-26 13:41:00,"{""rating"": [], ""cost"": []}",公共设施,公共厕所,公共厕所,,118.918775,31.916962,118.91375572809174,31.91914320989556
e79ee35f-6dfa-3ef4-9693-151d6d325bcf,江宁服务区公共厕所,公共设施;公共厕所;公共厕所,200300,江宁服务区东南50米(宁杭高速公路北),"118.922192,31.917176",[],320000,江苏省,25,南京市,320115,江宁区,4718770302,1740,[],2023-05-05 13:25:00,"{""rating"": [], ""cost"": []}",公共设施,公共厕所,公共厕所,,118.922192,31.917176,118.91716898057884,31.919354381833305
f31c60d9-e0ac-3e26-b87b-c97b5551c290,公共厕所,公共设施;公共厕所;公共厕所,200300,雨花街道机场连接线仁恒玉兰山庄北,"118.782747,31.991893",[],320000,江苏省,25,南京市,320114,雨花台区,4718769201,1446,宁南,2023-02-02 11:21:00,"{""rating"": [], ""cost"": []}",公共设施,公共厕所,公共厕所,,118.782747,31.991893,118.77754836972842,31.99393420493245
cb46e2cd-05ee-3a06-b22f-c686075a4586,南京雨花台风景区-公共厕所,公共设施;公共厕所;公共厕所,200300,雨花东路54附近,"118.787442,31.996145",[],320000,江苏省,25,南京市,320114,雨花台区,4718769212,1712,[],2023-04-20 11:47:00,"{""rating"": [], ""cost"": []}",公共设施,公共厕所,公共厕所,,118.787442,31.996145,118.7822493761364,31.99819287389582
45779f87-75c5-3271-b513-3fa5fb5bdbc0,南京雨花台风景区-公共厕所,公共设施;公共厕所;公共厕所,200300,雨花路215号南京雨花台风景区生态密林区,"118.782663,31.997917",[],320000,江苏省,25,南京市,320114,雨花台区,4718769221,1641,[],2023-05-02 13:10:00,"{""rating"": [], ""cost"": []}",公共设施,公共厕所,公共厕所,,118.782663,31.997917,118.7774637068794,31.99995950156148
e7188775-0049-3208-9ba2-ba224588525e,牛首山风景区-公共厕所,公共设施;公共厕所;公共厕所,200300,幽栖路附近,"118.744067,31.890077",[],320000,江苏省,25,南京市,320115,江宁区,4718656921,1042,[],2023-04-05 13:04:00,"{""rating"": [], ""cost"": []}",公共设施,公共厕所,公共厕所,,118.744067,31.890077,118.7388579088914,31.892076843690685
934b8ee8-cb71-318c-acf5-f73b223825db,报刊亭,公共设施;报刊亭;报刊亭,200100,长江路与小北门路交叉口西北40米,"118.841544,32.342758",[],320000,江苏省,25,南京市,320116,六合区,4818461700,506,江北新区,2023-03-25 14:15:00,"{""rating"": [], ""cost"": []}",公共设施,报刊亭,报刊亭,,118.841544,32.342758,118.83642496284824,32.34495037328553
e0609a7d-6e96-393e-a949-9e405654a097,龙池服务区第一公共厕所,公共设施;公共厕所;公共厕所,200300,与G40沪陕高速交叉口西北100米,"118.818845,32.304127",[],320000,江苏省,25,南京市,320116,六合区,4818366511,699,江北新区,2023-04-26 12:41:00,"{""rating"": [], ""cost"": []}",公共设施,公共厕所,公共厕所,,118.818845,32.304127,118.81368153077796,32.306276269155326
c569d9c1-6dfc-333e-adae-4beff0cf243e,龙池服务区公共厕所,公共设施;公共厕所;公共厕所,200300,沪陕高速公路龙池服务区,"118.819809,32.302481",[],320000,江苏省,25,南京市,320116,六合区,4818366501,768,江北新区,2023-04-01 14:28:00,"{""rating"": [], ""cost"": []}",公共设施,公共厕所,公共厕所,,118.819809,32.302481,118.81464771276671,32.30463198514212
551eacda-4e00-3a76-a881-1877b209e619,老山服务区公共厕所,公共设施;公共厕所;公共厕所,200300,南京绕城高速老山服务区,"118.564430,32.112736",[],320000,江苏省,25,南京市,320111,浦口区,4818143510,1025,江北新区,2022-09-08 21:28:00,"{'rating': [], 'cost': []}",公共设施,公共厕所,公共厕所,,118.56443,32.112736,118.55938266738433,32.11494761604662
6efa3ee0-307f-30d8-b341-04c8793938d0,玄武湖公园-公共厕所,公共设施;公共厕所;公共厕所,200300,中央路与四川路交叉口东360米,"118.787991,32.084721",[],320000,江苏省,25,南京市,320102,玄武区,4818160300,1955,中央门,2023-04-20 12:10:00,"{""rating"": [], ""cost"": []}",公共设施,公共厕所,公共厕所,,118.787991,32.084721,118.78279100022728,32.08678942662758
f9fb656d-5ca7-3dc8-a69f-ae93065494f1,神策门公园-公共厕所,公共设施;公共厕所;公共厕所,200300,龙蟠路9号6,"118.786315,32.089034",[],320000,江苏省,25,南京市,320102,玄武区,4818160222,1757,中央门,2022-09-13 21:29:00,"{""rating"": [], ""cost"": []}",公共设施,公共厕所,公共厕所,,118.786315,32.089034,118.78111220092536,32.091101207891526
75ebbad7-60c7-360d-85ce-f48e9d67b4c2,公共厕所(装修中),公共设施;公共厕所;公共厕所,200300,福建路厚德苑,"118.765633,32.084910",[],320000,江苏省,25,南京市,320106,鼓楼区,4818160100,1191,新民路,2023-04-23 21:27:00,"{""rating"": [], ""cost"": []}",公共设施,公共厕所,公共厕所,,118.765633,32.08491,118.76040930627224,32.08695729388817
67c02837-8c3f-372e-8867-f7d0d8087dca,公共厕所,公共设施;公共厕所;公共厕所,200300,栖霞南街与红枫路交叉口东北240米,"118.951125,32.145711",[],320000,江苏省,25,南京市,320113,栖霞区,4818177610,1378,[],2022-09-07 15:43:00,"{""rating"": [], ""cost"": []}",公共设施,公共厕所,公共厕所,,118.951125,32.145711,118.94602603009824,32.14789488959728
7b41e54f-eaee-3868-83ba-0b3841fd49ba,报刊亭,公共设施;报刊亭;报刊亭,200100,长虹路与长虹后街交叉口东南40米,"118.766917,32.029761",[],320000,江苏省,25,南京市,320105,建邺区,4818063111,1181,止马营,2023-05-10 11:24:00,"{""rating"": [], ""cost"": []}",公共设施,报刊亭,报刊亭,,118.766917,32.029761,118.76169924209329,32.031796885654444
95bc0fd2-367d-3941-96af-68ccf7bdc74a,中国邮政报刊亭,公共设施;报刊亭;报刊亭,200100,文体路与云河北路交叉口西南100米,"118.758706,32.024076",[],320000,江苏省,25,南京市,320105,建邺区,4818062022,1645,集庆门,2023-05-02 13:00:00,"{""rating"": [], ""cost"": []}",公共设施,报刊亭,报刊亭,,118.758706,32.024076,118.7534846495648,32.02610677038451
aebe613f-37b8-35c1-a82b-638352cb84a6,公共厕所,公共设施;公共厕所;公共厕所,200300,二楼南书房东北侧,"118.779702,32.035978",[],320000,江苏省,25,南京市,320104,秦淮区,4818064201,1177,新街口,2023-03-22 12:53:00,"{""rating"": [], ""cost"": []}",公共设施,公共厕所,公共厕所,,118.779702,32.035978,118.77449555928423,32.03802598375446
d662d4b4-e462-3361-9d62-a2ef875ec285,报刊亭,公共设施;报刊亭;报刊亭,200100,中山南路与羊皮巷交叉口西20米,"118.783897,32.036757",[],320000,江苏省,25,南京市,320104,秦淮区,4818064212,1573,新街口,2023-04-01 14:18:00,"{""rating"": [], ""cost"": []}",公共设施,报刊亭,报刊亭,,118.783897,32.036757,118.77869573077764,32.03880982797675
51e5a240-c01c-389d-ac79-180c1af4782b,公共厕所,公共设施;公共厕所;公共厕所,200300,朝天宫街道明瓦廊富民坊北区西门,"118.782312,32.034429",[],320000,江苏省,25,南京市,320104,秦淮区,4818064201,853,新街口,2022-11-12 15:40:00,"{""rating"": [], ""cost"": []}",公共设施,公共厕所,公共厕所,,118.782312,32.034429,118.77710889163164,32.03647947410363
00f677b8-26f6-38f8-9c5a-7d17bcc0d3b7,公共厕所,公共设施;公共厕所;公共厕所,200300,张府园南京市建邺路小学,"118.781995,32.031822",[],320000,江苏省,25,南京市,320104,秦淮区,4818063221,1094,新街口,2023-03-18 13:22:00,"{""rating"": [], ""cost"": []}",公共设施,公共厕所,公共厕所,,118.781995,32.031822,118.77679173199073,32.033871526436506
fcdb3270-37f3-360a-adac-1bcad77e82c5,朝天宫-公共厕所,公共设施;公共厕所;公共厕所,200300,朝天宫检票口旁,"118.774861,32.032993",[],320000,江苏省,25,南京市,320104,秦淮区,4818063122,748,止马营,2023-04-07 12:50:00,"{""rating"": [], ""cost"": []}",公共设施,公共厕所,公共厕所,,118.774861,32.032993,118.76964958248467,32.03503561175636
708319de-e44f-3b57-98f2-b1831d85c7f5,报刊亭,公共设施;报刊亭;报刊亭,200100,文津桥与西止马营交叉口东150米,"118.774076,32.034087",[],320000,江苏省,25,南京市,320104,秦淮区,4818064102,606,止马营,2023-04-12 14:13:00,"{""rating"": [], ""cost"": []}",公共设施,报刊亭,报刊亭,,118.774076,32.034087,118.76886371365728,32.03612917111801
74b8d010-57e4-3659-b19e-45c84f738317,公共厕所,公共设施;公共厕所;公共厕所,200300,朝天宫街道绒庄街福祥大厦旁(熙南里北),"118.781212,32.027275",[],320000,江苏省,25,南京市,320104,秦淮区,4818063201,592,升州路,2023-04-28 12:43:00,"{""rating"": [], ""cost"": []}",公共设施,公共厕所,公共厕所,,118.781212,32.027275,118.77600817821278,32.029322625178715
111ab63c-d2ed-3503-b798-94d584480d35,报刊亭,公共设施;报刊亭;报刊亭,200100,王府大街与石鼓路交叉口北40米,"118.780206,32.040018",[],320000,江苏省,25,南京市,320104,秦淮区,4818064221,1186,新街口,2023-04-22 11:37:00,"{""rating"": [], ""cost"": []}",公共设施,报刊亭,报刊亭,,118.780206,32.040018,118.77499978301574,32.04206742844621
d867ccb6-da33-3327-9ea7-1edbce69ecf4,公共厕所,公共设施;公共厕所;公共厕所,200300,城墙南路与凤游寺交叉口西160米,"118.768244,32.014224",[],320000,江苏省,25,南京市,320104,秦淮区,4818061121,1132,[],2023-04-22 14:00:00,"{""rating"": [], ""cost"": []}",公共设施,公共厕所,公共厕所,,118.768244,32.014224,118.7630286092606,32.01625717996279
7fc094ec-e159-34ab-9a04-af98fad4c070,公共厕所,公共设施;公共厕所;公共厕所,200300,来凤街2-3号附近,"118.770422,32.020385",[],320000,江苏省,25,南京市,320104,秦淮区,4818062111,1941,双塘,2023-05-10 20:51:00,"{""rating"": [], ""cost"": []}",公共设施,公共厕所,公共厕所,,118.770422,32.020385,118.76520772499858,32.022421118851945
5ec1d03d-ab1a-3cbe-b536-b13b043968eb,报刊亭,公共设施;报刊亭;报刊亭,200100,平江府路166号27中学旁,"118.792807,32.017329",[],320000,江苏省,25,南京市,320104,秦淮区,4818062301,1486,夫子庙,2022-09-13 21:29:00,"{""rating"": [], ""cost"": []}",公共设施,报刊亭,报刊亭,,118.792807,32.017329,118.78762060080966,32.01938900036482
1baae635-6eb4-3088-b987-e93bbe3a8cd2,厕所,公共设施;公共厕所;公共厕所,200300,江苏省南京市秦淮区东市9号,"118.788710,32.021179",[],320000,江苏省,25,南京市,320104,秦淮区,4818062310,1441,夫子庙,2023-04-22 12:48:00,"{""rating"": [], ""cost"": []}",公共设施,公共厕所,公共厕所,,118.78871,32.021179,118.78351692187752,32.02323427913011
4c58032d-714b-3570-9551-72bd2b36f097,南京夫子庙-秦淮风光带-公共厕所,公共设施;公共厕所;公共厕所,200300,转龙巷,"118.791166,32.011356",[],320000,江苏省,25,南京市,320104,秦淮区,4818061310,633,[],2023-04-22 14:11:00,"{""rating"": [], ""cost"": []}",公共设施,公共厕所,公共厕所,,118.791166,32.011356,118.78597755749314,32.01341233172704
5cb9f5ca-d6d4-3487-abf3-e04f2a74c0d1,公共厕所(暂停营业),公共设施;公共厕所;公共厕所,200300,长江后街8号南京1912街区1F层,"118.796166,32.046301",[],320000,江苏省,25,南京市,320102,玄武区,4818065312,475,梅园,2023-03-27 07:25:00,"{""rating"": [], ""cost"": []}",公共设施,公共厕所,公共厕所,,118.796166,32.046301,118.79098247960351,32.048372483469
8fbd3a6b-bce3-36fd-b0f7-35ca2394ffeb,报刊亭,公共设施;报刊亭;报刊亭,200100,龙蟠里南京水利科学研究院,"118.765382,32.047201",133****6967,320000,江苏省,25,南京市,320106,鼓楼区,4818065110,1235,汉中门,2022-11-22 22:26:00,"{""rating"": [], ""cost"": []}",公共设施,报刊亭,报刊亭,,118.765382,32.047201,118.76016164278629,32.04923992138255
0f8c89e0-b77d-3680-909a-5b89a7fad2fb,公共厕所,公共设施;公共厕所;公共厕所,200300,太平北路39-1附近,"118.795199,32.045820",[],320000,江苏省,25,南京市,320102,玄武区,4818065311,539,梅园,2023-05-12 02:50:00,"{""rating"": [], ""cost"": []}",公共设施,公共厕所,公共厕所,,118.795199,32.04582,118.7900138948548,32.04788993513641
0385b5da-4573-3eaf-9201-66aaaba47b39,公共厕所,公共设施;公共厕所;公共厕所,200300,天创大厦(唱经楼西街北),"118.786725,32.053430",[],320000,江苏省,25,南京市,320102,玄武区,4818066212,1464,南大,2022-11-22 21:56:00,"{""rating"": [], ""cost"": []}",公共设施,公共厕所,公共厕所,,118.786725,32.05343,118.78152606901004,32.055490010337785
af1353da-b1bf-3ef1-9af0-33c5f8a38013,公共厕所,公共设施;公共厕所;公共厕所,200300,工人新村108-115号,"118.779847,32.080916",[],320000,江苏省,25,南京市,320106,鼓楼区,4818069221,950,中央路,2023-05-11 00:30:00,"{""rating"": [], ""cost"": []}",公共设施,公共厕所,公共厕所,,118.779847,32.080916,118.7746365765268,32.08297404362588
d54a7d82-4c71-3b25-9e65-e1e18253cd99,公共厕所,公共设施;公共厕所;公共厕所,200300,丹凤街石婆婆巷小区,"118.787372,32.055136",[],320000,江苏省,25,南京市,320102,玄武区,4818066212,1768,南大,2023-03-24 11:55:00,"{""rating"": [], ""cost"": []}",公共设施,公共厕所,公共厕所,,118.787372,32.055136,118.7821738357952,32.05719720896137
a7fe7326-ca21-3e06-86f7-827962f46fe0,公共厕所,公共设施;公共厕所;公共厕所,200300,中山北路230-12号附近,"118.760586,32.079733",[],320000,江苏省,25,南京市,320106,鼓楼区,4818069012,1634,挹江门,2023-02-27 10:36:00,"{""rating"": [], ""cost"": []}",公共设施,公共厕所,公共厕所,,118.760586,32.079733,118.75536018765054,32.08177678797441
c5a3f90e-c1ec-3220-8a61-bb1ac74326af,公共厕所,公共设施;公共厕所;公共厕所,200300,清溪路与后宰门街交叉口南160米,"118.822812,32.043555",[],320000,江苏省,25,南京市,320102,玄武区,4818065502,1314,月牙湖,2022-11-19 00:10:00,"{""rating"": [], ""cost"": []}",公共设施,公共厕所,公共厕所,,118.822812,32.043555,118.81768091005566,32.04567193394528
6bc396c0-90b9-3679-ad09-ce6a9eae84b1,公共厕所,公共设施;公共厕所;公共厕所,200300,中山东路311-3号,"118.821488,32.038923",[],320000,江苏省,25,南京市,320104,秦淮区,4818064522,1144,月牙湖,2022-11-09 16:47:00,"{""rating"": [], ""cost"": []}",公共设施,公共厕所,公共厕所,,118.821488,32.038923,118.8163545309563,32.04103641555668
55309c47-cbc5-3350-ac29-7c465e915c28,公共厕所,公共设施;公共厕所;公共厕所,200300,红土桥42号,"118.778775,32.029579",[],320000,江苏省,25,南京市,320104,秦淮区,4818063210,1410,升州路,2022-11-12 13:46:00,"{""rating"": [], ""cost"": []}",公共设施,公共厕所,公共厕所,,118.778775,32.029579,118.77356807668504,32.03162457396552
fa14a161-261f-3975-a4b6-74c056c5ffeb,公共厕所(装修中),公共设施;公共厕所;公共厕所,200300,华侨路附近,"118.782048,32.046166",[],320000,江苏省,25,南京市,320106,鼓楼区,4818065211,746,汉中路,2022-09-05 08:25:00,"{""rating"": [], ""cost"": []}",公共设施,公共厕所,公共厕所,,118.782048,32.046166,118.77684347427454,32.04821882235547
c7407d44-dce8-3bfd-8884-2d4d8de9f5b8,公共厕所,公共设施;公共厕所;公共厕所,200300,安仁街鼓楼广场,"118.786196,32.059268",[],320000,江苏省,25,南京市,320102,玄武区,4818067202,1575,中央路,2023-02-25 17:01:00,"{""rating"": [], ""cost"": []}",公共设施,公共厕所,公共厕所,,118.786196,32.059268,118.78099578437576,32.061328641173425
c7e5f7ba-3b04-3974-8ad6-31f6eefbfe6e,公共厕所,公共设施;公共厕所;公共厕所,200300,中央路43号,"118.785100,32.062468",[],320000,江苏省,25,南京市,320102,玄武区,4818067212,1709,湖北路,2023-02-02 11:34:00,"{""rating"": [], ""cost"": []}",公共设施,公共厕所,公共厕所,,118.7851,32.062468,118.77989797342693,32.06452800016659
41028dab-2aff-342b-934c-d1aaae06c122,公共厕所,公共设施;公共厕所;公共厕所,200300,厚载巷52-70号,"118.781246,32.063544",[],320000,江苏省,25,南京市,320106,鼓楼区,4818067211,1728,湖南路,2022-08-19 19:00:00,"{""rating"": [], ""cost"": []}",公共设施,公共厕所,公共厕所,,118.781246,32.063544,118.7760388700815,32.065599787243656
66583501-3689-367f-b3b2-207008cb9d4f,公共厕所,公共设施;公共厕所;公共厕所,200300,模范中路与水佐岗路交叉口西80米,"118.762863,32.072306",[],320000,江苏省,25,南京市,320106,鼓楼区,4818068120,459,水佐岗,2022-11-24 17:27:00,"{""rating"": [], ""cost"": []}",公共设施,公共厕所,公共厕所,,118.762863,32.072306,118.75763891395604,32.07434915912945
830fe66c-3f69-38c5-ad08-a997c432d98d,公共厕所(玄武湖杉林氧吧1号),公共设施;公共厕所;公共厕所,200300,玄武门路与神武路交叉口东北100米,"118.787647,32.071115",[],320000,江苏省,25,南京市,320102,玄武区,4818068310,564,中央路,2023-04-20 11:34:00,"{""rating"": [], ""cost"": []}",公共设施,公共厕所,公共厕所,,118.787647,32.071115,118.78244775723,32.073180066156176
29a81918-4cb3-3903-8bab-a4dffc233b4f,公共厕所(装修中),公共设施;公共厕所;公共厕所,200300,青云巷小学对面小巷子往北,"118.781348,32.066638",[],320000,江苏省,25,南京市,320106,鼓楼区,4818067221,1932,湖北路,2023-04-23 21:28:00,"{""rating"": [], ""cost"": []}",公共设施,公共厕所,公共厕所,,118.781348,32.066638,118.77614070983871,32.06869457614979
0b1e8289-ba34-3291-b278-d45c0141d961,南京雨花台风景区-公共厕所,公共设施;公共厕所;公共厕所,200300,雨花路215号雨花台风景名胜区名胜古迹区内,"118.780923,32.002549",[],320000,江苏省,25,南京市,320114,雨花台区,4818060201,1920,[],2023-04-30 12:04:00,"{""rating"": [], ""cost"": []}",公共设施,公共厕所,公共厕所,,118.780923,32.002549,118.7757211056068,32.00459063471382
820126ca-3abd-3c57-83eb-5712c61ef14e,南京雨花台风景区-公共厕所,公共设施;公共厕所;公共厕所,200300,共青团路与军转干路交叉口东南40米,"118.776484,32.000665",[],320000,江苏省,25,南京市,320114,雨花台区,4818060200,1726,赛虹桥,2023-05-02 11:48:00,"{""rating"": [], ""cost"": []}",公共设施,公共厕所,公共厕所,,118.776484,32.000665,118.77127722941204,32.0027016903018
0e1e8f78-1802-3081-94d1-a9ac33bbbdaf,公共厕所,公共设施;公共厕所;公共厕所,200300,马府街45-2号附近,"118.793117,32.029739",[],320000,江苏省,25,南京市,320104,秦淮区,4818063311,740,夫子庙,2023-04-04 11:47:00,"{""rating"": [], ""cost"": []}",公共设施,公共厕所,公共厕所,,118.793117,32.029739,118.78792995640048,32.031802276805514
c34ac409-d7de-3a39-8370-7f413d3e06af,公共厕所,公共设施;公共厕所;公共厕所,200300,四条巷25号附近,"118.796330,32.032634",[],320000,江苏省,25,南京市,320104,秦淮区,4818063322,667,大行宫,2022-09-07 15:43:00,"{""rating"": [], ""cost"": []}",公共设施,公共厕所,公共厕所,,118.79633,32.032634,118.79114801731258,32.0347026476746
178dbe1f-c451-32f8-9e1b-7462ec0c3666,黄栗墅服务区公共厕所,公共设施;公共厕所;公共厕所,200300,汤山街道沪蓉高速公路黄栗墅服务区,"119.030863,32.058707",[],320000,江苏省,25,南京市,320115,江宁区,4819007201,375,[],2023-05-02 12:28:00,"{""rating"": [], ""cost"": []}",公共设施,公共厕所,公共厕所,,119.030863,32.058707,119.02550274251148,32.06065063234662
a92f7fdf-3156-3dd5-8202-8addfcb75df9,黄栗墅服务区公共厕所,公共设施;公共厕所;公共厕所,200300,G42沪蓉高速南100米,"119.030790,32.056784",[],320000,江苏省,25,南京市,320115,江宁区,4819006221,167,[],2023-04-20 12:13:00,"{""rating"": [], ""cost"": []}",公共设施,公共厕所,公共厕所,,119.03079,32.056784,119.02543015763278,32.058727401315366
f44dad6a-f3d2-314c-9478-fbd17061c9d8,公共厕所,公共设施;公共厕所;公共厕所,200300,老山服务区东侧,"118.566931,32.112735",[],320000,江苏省,25,南京市,320111,浦口区,4818143511,928,江北新区,2022-08-17 12:53:00,"{'rating': [], 'cost': []}",公共设施,公共厕所,公共厕所,,118.566931,32.112735,118.56188816192656,32.1149501588097
5ae55884-30ee-36d0-8d30-9bee588670cf,公共厕所,公共设施;公共厕所;公共厕所,200300,九华山20号九华山公园,"118.807025,32.059462",[],320000,江苏省,25,南京市,320102,玄武区,4818067401,1502,九华山,2023-03-30 16:03:00,"{""rating"": [], ""cost"": []}",公共设施,公共厕所,公共厕所,,118.807025,32.059462,118.80186010481808,32.06155392843442
5800c2d0-cefd-3a11-8f00-9c8564c1fccf,公共厕所,公共设施;公共厕所;公共厕所,200300,龙蟠中路216号西北方向100米,"118.803271,32.037304",[],320000,江苏省,25,南京市,320104,秦淮区,4818064410,824,梅园,2023-01-06 08:25:00,"{""rating"": [], ""cost"": []}",公共设施,公共厕所,公共厕所,,118.803271,32.037304,118.79810099247403,32.03938466611309
bd0869d1-52d7-3a76-b06c-f427d432061c,公共厕所,公共设施;公共厕所;公共厕所,200300,丰富路与南台巷东交叉口南40米,"118.781227,32.036083",[],320000,江苏省,25,南京市,320104,秦淮区,4818064201,855,新街口,2023-04-15 20:50:00,"{""rating"": [], ""cost"": []}",公共设施,公共厕所,公共厕所,,118.781227,32.036083,118.77602238354754,32.038132641957176
b18eb55e-d74b-3a54-b6da-78b5e0780592,公共厕所,公共设施;公共厕所;公共厕所,200300,光华东街1号东8附近,"118.824906,32.025755",[],320000,江苏省,25,南京市,320104,秦淮区,4818063502,320,后标营,2023-04-24 13:25:00,"{""rating"": [], ""cost"": []}",公共设施,公共厕所,公共厕所,,118.824906,32.025755,118.81978098793368,32.027871832490455
2ba78723-e36c-34b4-975c-a884cc13fdce,清修服务区公共厕所(建设中),公共设施;公共厕所;公共厕所,200300,江宁街道宁芜高速公路清修服务区,"118.594058,31.818763",[],320000,江苏省,25,南京市,320115,江宁区,4718548701,1888,[],2023-03-17 11:40:00,"{""rating"": [], ""cost"": []}",公共设施,公共厕所,公共厕所,,118.594058,31.818763,118.58906908227884,31.82093524119554
faaccfd7-d9cd-391e-8976-5a25ae73e2dd,八卦洲服务区公共厕所,公共设施;公共厕所;公共厕所,200300,二桥连线八卦洲服务区附近,"118.831702,32.172694",[],320000,江苏省,25,南京市,320113,栖霞区,4818260621,430,江北新区,2022-11-22 01:53:00,"{""rating"": [], ""cost"": []}",公共设施,公共厕所,公共厕所,,118.831702,32.172694,118.826577997457,32.17485335232779
8db48807-425a-302e-afb1-710aa8c689ca,公共厕所,公共设施;公共厕所;公共厕所,200300,广东路附近,"118.766070,32.082294",[],320000,江苏省,25,南京市,320106,鼓楼区,4818069120,1782,挹江门,2023-01-31 12:26:00,"{""rating"": [], ""cost"": []}",公共设施,公共厕所,公共厕所,,118.76607,32.082294,118.76084682416509,32.08434099035646
5488ede0-f105-3f38-bea3-51a4127438ec,南京夫子庙-秦淮风光带-公共厕所,公共设施;公共厕所;公共厕所,200300,建康路152-154号附近,"118.792185,32.023412",[],320000,江苏省,25,南京市,320104,秦淮区,4818062321,552,夫子庙,2023-04-22 11:58:00,"{""rating"": [], ""cost"": []}",公共设施,公共厕所,公共厕所,,118.792185,32.023412,118.78699704815328,32.02547251424766
bde5af4f-46f6-378b-b1f1-33adeca38ed2,公共厕所(装修中),公共设施;公共厕所;公共厕所,200300,珠江路205号,"118.789776,32.049867",[],320000,江苏省,25,南京市,320102,玄武区,4818065320,1195,梅园,2023-02-28 11:13:00,"{""rating"": [], ""cost"": []}",公共设施,公共厕所,公共厕所,,118.789776,32.049867,118.7845818731274,32.05193018491028
e2c79b37-6e39-399c-bb4d-8409a49a2300,公共厕所,公共设施;公共厕所;公共厕所,200300,进香河路16号,"118.791223,32.051362",[],320000,江苏省,25,南京市,320102,玄武区,4818066300,1182,梅园,2022-11-22 22:20:00,"{""rating"": [], ""cost"": []}",公共设施,公共厕所,公共厕所,,118.791223,32.051362,118.78603095879583,32.0534274877688
772b1b55-e8b7-3847-a8f4-e18252c754d1,公共厕所,公共设施;公共厕所;公共厕所,200300,后标营路11-6号附近,"118.818188,32.032016",[],320000,江苏省,25,南京市,320104,秦淮区,4818063521,769,后标营,2023-05-13 21:10:00,"{""rating"": [], ""cost"": []}",公共设施,公共厕所,公共厕所,,118.818188,32.032016,118.81304822438514,32.03412172540267
b0f82035-4263-3a02-9ff3-d79de62bc8d5,长江观音景区-公共厕所,公共设施;公共厕所;公共厕所,200300,佛灵门路与和燕路交叉口南50米,"118.816807,32.145866",[],320000,江苏省,25,南京市,320113,栖霞区,4818167511,567,燕子矶,2022-09-13 21:29:00,"{""rating"": [], ""cost"": []}",公共设施,公共厕所,公共厕所,,118.816807,32.145866,118.81165388492198,32.147992873266745
721e9695-41c2-3efc-a21a-0b94a11c6e85,公共厕所,公共设施;公共厕所;公共厕所,200300,宝塔桥街道幕府西路方家营70号北门,"118.755475,32.099413",[],320000,江苏省,25,南京市,320106,鼓楼区,4818161021,634,[],2023-02-13 17:54:00,"{""rating"": [], ""cost"": []}",公共设施,公共厕所,公共厕所,,118.755475,32.099413,118.75024584632732,32.10145944714899
63ecc03a-e168-3194-983b-e2ceef21bf5a,公共厕所,公共设施;公共厕所;公共厕所,200300,军师巷58号、60、62号,"118.783501,32.016534",[],320000,江苏省,25,南京市,320104,秦淮区,4818061222,456,夫子庙,2023-04-22 13:15:00,"{""rating"": [], ""cost"": []}",公共设施,公共厕所,公共厕所,,118.783501,32.016534,118.77830107537758,32.01858175527285
8c6795f9-1104-334a-ab30-ab5d191653a9,公共厕所,公共设施;公共厕所;公共厕所,200300,朝天宫街道莫愁路388号4东60米,"118.776225,32.038669",[],320000,江苏省,25,南京市,320104,秦淮区,4818064210,1932,汉中路,2023-05-11 16:09:00,"{""rating"": [], ""cost"": []}",公共设施,公共厕所,公共厕所,,118.776225,32.038669,118.77101444859557,32.04071414199345
ed605492-af80-3886-ba76-605d3957b0e2,公共厕所,公共设施;公共厕所;公共厕所,200300,网巾市17附近,"118.790265,32.046097",[],320000,江苏省,25,南京市,320102,玄武区,4818065310,1913,新街口,2022-08-05 20:21:00,"{""rating"": [], ""cost"": []}",公共设施,公共厕所,公共厕所,,118.790265,32.046097,118.78507196522924,32.04816000138959
f43536ff-1188-31e0-bd89-88e2491c7b8c,公共厕所,公共设施;公共厕所;公共厕所,200300,太平南路591号附近,"118.789938,32.023910",[],320000,江苏省,25,南京市,320104,秦淮区,4818062320,444,夫子庙,2023-04-20 12:22:00,"{""rating"": [], ""cost"": []}",公共设施,公共厕所,公共厕所,,118.789938,32.02391,118.78474651245952,32.02596753663063
4b2839ec-08e3-3d3c-98a0-963c0a4a0183,公共厕所,公共设施;公共厕所;公共厕所,200300,龙蟠中路101号,"118.804811,32.045565",[],320000,江苏省,25,南京市,320102,玄武区,4818065411,1748,梅园,2022-11-23 04:16:00,"{""rating"": [], ""cost"": []}",公共设施,公共厕所,公共厕所,,118.804811,32.045565,118.79964313211242,32.047650085774706
1f1d3b2a-baf1-3c07-82a7-2c941cb91340,公共厕所,公共设施;公共厕所;公共厕所,200300,汉西门大街与石鼓路交叉口西北120米,"118.767473,32.042338",[],320000,江苏省,25,南京市,320104,秦淮区,4818065101,1085,汉中门,2023-05-06 14:25:00,"{""rating"": [], ""cost"": []}",公共设施,公共厕所,公共厕所,,118.767473,32.042338,118.7622544606446,32.04437707879841
4d2c3fef-3564-381a-b790-aa9f72320343,公共厕所,公共设施;公共厕所;公共厕所,200300,芦席营40号,"118.782174,32.077816",[],320000,江苏省,25,南京市,320106,鼓楼区,4818069211,1797,中央路,2022-11-22 21:26:00,"{""rating"": [], ""cost"": []}",公共设施,公共厕所,公共厕所,,118.782174,32.077816,118.77696670837254,32.07987591378527
6154e890-3980-357e-915f-dad027cc6b47,公共厕所,公共设施;公共厕所;公共厕所,200300,莫愁路南京市博物馆,"118.774067,32.033920",[],320000,江苏省,25,南京市,320104,秦淮区,4818064102,603,止马营,2023-04-12 15:11:00,"{""rating"": [], ""cost"": []}",公共设施,公共厕所,公共厕所,,118.774067,32.03392,118.7688547204248,32.035962125484545
1d706175-f820-3e38-9dc3-76ea071d2e68,公共厕所,公共设施;公共厕所;公共厕所,200300,梅家塘路与热河南路交叉口西40米,"118.741373,32.082643",[],320000,江苏省,25,南京市,320106,鼓楼区,4818059920,411,热河南路,2023-03-24 23:31:00,"{""rating"": [], ""cost"": []}",公共设施,公共厕所,公共厕所,,118.741373,32.082643,118.7361471373157,32.08468699888522
48a270cf-4c75-387a-8d92-8082458aa48e,公共厕所,公共设施;公共厕所;公共厕所,200300,湖南路街道童家巷9号,"118.781925,32.071674",[],320000,江苏省,25,南京市,320106,鼓楼区,4818068211,1767,中央路,2023-05-02 13:23:00,"{""rating"": [], ""cost"": []}",公共设施,公共厕所,公共厕所,,118.781925,32.071674,118.77671796261616,32.07373231071758
7e829f0d-8dba-37ff-ae74-e7afad97e835,公共厕所,公共设施;公共厕所;公共厕所,200300,环湖路附近,"118.796496,32.062081",[],320000,江苏省,25,南京市,320102,玄武区,4818067312,1505,九华山,2022-11-22 21:37:00,"{""rating"": [], ""cost"": []}",公共设施,公共厕所,公共厕所,,118.796496,32.062081,118.7913115868555,32.06415648219267
e33d2199-ec69-3788-8ef1-8a8e2b91972f,公共厕所,公共设施;公共厕所;公共厕所,200300,中山东路321号1楼(近南京博物院),"118.826867,32.039896",[],320000,江苏省,25,南京市,320102,玄武区,4818064620,1677,月牙湖,2023-03-26 13:08:00,"{""rating"": [], ""cost"": []}",公共设施,公共厕所,公共厕所,,118.826867,32.039896,118.82174487020276,32.04201973003151
5a5cf900-61b8-3edb-9229-38812182de76,公共厕所,公共设施;公共厕所;公共厕所,200300,建康路建康新村,"118.795492,32.025083",[],320000,江苏省,25,南京市,320104,秦淮区,4818063301,571,大光路,2022-11-22 21:37:00,"{""rating"": [], ""cost"": []}",公共设施,公共厕所,公共厕所,,118.795492,32.025083,118.79030929602894,32.02714867626339
60cbbc02-3651-324a-83df-6308f753bac3,公共厕所,公共设施;公共厕所;公共厕所,200300,清凉山路与虎踞路交叉口西南200米,"118.759806,32.046078",[],320000,江苏省,25,南京市,320106,鼓楼区,4818065012,1341,汉中门,2022-09-13 21:29:00,"{""rating"": [], ""cost"": []}",公共设施,公共厕所,公共厕所,,118.759806,32.046078,118.7545829993235,32.04811411929351
70604811-5f0e-3d16-bfca-47621df91875,钟山风景区-公共厕所,公共设施;公共厕所;公共厕所,200300,中山门外石象路7号钟山风景名胜区头陀岭景区内(西侧),"118.843334,32.070117",[],320000,江苏省,25,南京市,320102,玄武区,4818068711,1997,[],2023-03-19 14:03:00,"{""rating"": [], ""cost"": []}",公共设施,公共厕所,公共厕所,,118.843334,32.070117,118.83824361684415,32.07227798338085
05fc95d7-6f9c-30b4-97a5-8ae9460d9bec,公共厕所,公共设施;公共厕所;公共厕所,200300,幕府西路辅路与幕府南路交叉口西60米,"118.767354,32.101955",[],320000,江苏省,25,南京市,320106,鼓楼区,4818162101,1539,幕府西路,2022-08-18 12:42:00,"{""rating"": [], ""cost"": []}",公共设施,公共厕所,公共厕所,,118.767354,32.101955,118.76212985786916,32.10400687577424
f6dc7fd7-8217-3c2a-b34d-11132a8c58aa,中山陵园风景区公共厕所,公共设施;公共厕所;公共厕所,200300,中山陵园风景区明孝陵景区南门附近,"118.836781,32.041808",[],320000,江苏省,25,南京市,320102,玄武区,4818065602,441,[],2023-03-01 17:42:00,"{""rating"": [], ""cost"": []}",公共设施,公共厕所,公共厕所,,118.836781,32.041808,118.83167970798188,32.04395075120183
7f648302-98ee-3bbf-b691-9d7a8c92094c,钟山风景区-公共厕所,公共设施;公共厕所;公共厕所,200300,石象路7号中山陵园风景区,"118.843786,32.044860",[],320000,江苏省,25,南京市,320102,玄武区,4818065711,1245,[],2023-03-18 12:17:00,"{""rating"": [], ""cost"": []}",公共设施,公共厕所,公共厕所,,118.843786,32.04486,118.83869883084404,32.04701621314979
2ed24bc4-3100-3a8d-99e6-2bf76309e786,钟山风景区公共厕所,公共设施;公共厕所;公共厕所,200300,中山门外石象路7号中山陵园风景区中山陵商业街8号附近,"118.851889,32.055293",[],320000,江苏省,25,南京市,320102,玄武区,4818066810,1952,[],2023-03-12 12:43:00,"{""rating"": [], ""cost"": []}",公共设施,公共厕所,公共厕所,,118.851889,32.055293,118.84681661331346,32.057465548632514
63caebac-78bd-30ae-943f-b19b921f9fe1,钟山风景区-公共厕所,公共设施;公共厕所;公共厕所,200300,中山陵园风景区中山陵商业街13附近,"118.853117,32.054870",[],320000,江苏省,25,南京市,320102,玄武区,4818066810,1952,[],2022-09-13 21:29:00,"{""rating"": [], ""cost"": []}",公共设施,公共厕所,公共厕所,,118.853117,32.05487,118.84804692160375,32.057044482066175
a9db3024-98ea-32d3-8ede-1369308a3878,刘伯承广场-公共厕所,公共设施;公共厕所;公共厕所,200300,郑和北路附近,"118.755170,32.095154",[],320000,江苏省,25,南京市,320106,鼓楼区,4818161011,208,建宁路,2023-05-11 18:02:00,"{""rating"": [], ""cost"": []}",公共设施,公共厕所,公共厕所,,118.75517,32.095154,118.74994118662669,32.09719951017593
84889e65-836f-3cd6-8634-80d4c208f37b,公共厕所,公共设施;公共厕所;公共厕所,200300,莫愁湖东路建邺大厦,"118.766232,32.031870",[],320000,江苏省,25,南京市,320105,建邺区,4818063120,1189,汉中门,2023-04-12 12:08:00,"{""rating"": [], ""cost"": []}",公共设施,公共厕所,公共厕所,,118.766232,32.03187,118.76101359480164,32.033905952302426
c37bae24-8d2c-355e-aa07-882bfdd0136a,公共厕所,公共设施;公共厕所;公共厕所,200300,狮子桥步行街裴家桥小区,"118.778579,32.068141",[],320000,江苏省,25,南京市,320106,鼓楼区,4818068200,1324,中央路,2022-11-22 21:26:00,"{""rating"": [], ""cost"": []}",公共设施,公共厕所,公共厕所,,118.778579,32.068141,118.7733682903294,32.070194979977785
d2be3d5b-783a-35ae-b4c8-f903c9ff732c,公共厕所,公共设施;公共厕所;公共厕所,200300,紫燕百味鸡附近,"118.735516,32.068585",[],320000,江苏省,25,南京市,320106,鼓楼区,4818058802,1474,江东,2023-05-13 03:50:00,"{""rating"": [], ""cost"": []}",公共设施,公共厕所,公共厕所,,118.735516,32.068585,118.73029469842348,32.07062861034161
7a4376a1-544e-354f-8824-811026df3c26,公共厕所,公共设施;公共厕所;公共厕所,200300,金箔路468号苏宁易购F1,"118.852414,31.947764",[],320000,江苏省,25,南京市,320115,江宁区,4718763820,1361,竹山路沿线,2022-11-12 14:28:00,"{""rating"": [], ""cost"": []}",公共设施,公共厕所,公共厕所,,118.852414,31.947764,118.84735235340764,31.949912813441912
6489aed9-8c7f-3063-96a2-322340a72440,公共厕所,公共设施;公共厕所;公共厕所,200300,龙蟠中路408号东水关遗址公园内,"118.801345,32.027948",[],320000,江苏省,25,南京市,320104,秦淮区,4818063410,620,大光路,2023-03-03 14:16:00,"{""rating"": [], ""cost"": []}",公共设施,公共厕所,公共厕所,,118.801345,32.027948,118.79617229801282,32.03002340330685
6cd41837-fcd8-369e-ba8f-375086b535ad,公共厕所,公共设施;公共厕所;公共厕所,200300,东沟巷62-66附近,"118.838900,31.955781",[],320000,江苏省,25,南京市,320115,江宁区,4718764720,544,[],2022-11-09 16:39:00,"{""rating"": [], ""cost"": []}",公共设施,公共厕所,公共厕所,,118.8389,31.955781,118.83381095797728,31.957907904328543
fe213cc7-56e7-3a20-99e3-ca95f8cdc1dd,公共厕所,公共设施;公共厕所;公共厕所,200300,戴家巷与归云堂巷交叉口东60米,"118.751770,32.083117",[],320000,江苏省,25,南京市,320106,鼓楼区,4818069020,570,虎踞北路,2022-07-14 15:32:00,"{""rating"": [], ""cost"": []}",公共设施,公共厕所,公共厕所,,118.75177,32.083117,118.74654196915988,32.085159586764334
e3b5da61-5d67-341c-8761-1b1adf15b80a,潘家花园服务区第二公共厕所,公共设施;公共厕所;公共厕所,200300,宁连公路与潘家花园服务区交叉口东100米,"118.827820,32.374462",[],320000,江苏省,25,南京市,320116,六合区,4818464620,1967,江北新区,2023-05-01 14:34:00,"{""rating"": [], ""cost"": []}",公共设施,公共厕所,公共厕所,,118.82782,32.374462,118.82266909827706,32.376628157957875
01e06bd0-3f82-3bef-8bbe-bc04b4054a32,方山服务区公共厕所,公共设施;公共厕所;公共厕所,200300,方山服务区与G2501南京绕城高速出口交叉口东200米,"118.876922,31.928573",[],320000,江苏省,25,南京市,320115,江宁区,4718771010,1680,[],2023-04-29 13:48:00,"{""rating"": [], ""cost"": []}",公共设施,公共厕所,公共厕所,,118.876922,31.928573,118.87189865819052,31.930750607004608
356e5b4e-b9a6-3d03-bfdd-59451a18d453,方山服务区公共厕所,公共设施;公共厕所;公共厕所,200300,善鉴路方山服务区附近,"118.872765,31.927098",[],320000,江苏省,25,南京市,320115,江宁区,4718761902,1550,[],2023-04-29 11:58:00,"{""rating"": [], ""cost"": []}",公共设施,公共厕所,公共厕所,,118.872765,31.927098,118.86773703717648,31.92927087856199
02190865-b3e5-330b-a5e1-46757f8320e5,铁心桥加油站第二公共厕所(建设中),公共设施;公共厕所;公共厕所,200300,铁心桥加油站与G42沪蓉高速入口交叉口西北140米,"118.745991,31.967118",[],320000,江苏省,25,南京市,320114,雨花台区,4718756902,1184,[],2023-05-01 15:24:00,"{""rating"": [], ""cost"": []}",公共设施,公共厕所,公共厕所,,118.745991,31.967118,118.7407742908735,31.96913470210542
0fcb86fd-d41b-34a7-bd0b-58fa93ca3abd,公共厕所,公共设施;公共厕所;公共厕所,200300,宁芜公路与梅康路交叉口东20米,"118.636673,31.902610",[],320000,江苏省,25,南京市,320114,雨花台区,4718658002,1107,梅山,2023-03-20 13:50:00,"{""rating"": [], ""cost"": []}",公共设施,公共厕所,公共厕所,,118.636673,31.90261,118.6316448634988,31.90476898401868
b0ef5021-f959-342e-ae90-f2f194aa095d,公共厕所,公共设施;公共厕所;公共厕所,200300,206县道与银杏湖大道交叉口东北40米,"118.691026,31.832475",[],320000,江苏省,25,南京市,320115,江宁区,4718559520,1898,[],2023-03-19 11:01:00,"{""rating"": [], ""cost"": []}",公共设施,公共厕所,公共厕所,,118.691026,31.832475,118.68589184063504,31.83452223555922
1b119067-fae8-3c50-a625-862564b382ac,加油站公共厕所,公共设施;公共厕所;公共厕所,200300,服务区与S55宁宣高速交叉口西南50米,"118.922107,31.742290",[],320000,江苏省,25,南京市,320117,溧水区,4718479302,1155,[],2023-04-27 11:54:00,"{""rating"": [], ""cost"": []}",公共设施,公共厕所,公共厕所,,118.922107,31.74229,118.91709980351246,31.74443707000527
8e3b74e4-b4b9-34fe-93c6-e1b020ebf240,公共厕所,公共设施;公共厕所;公共厕所,200300,湖滨大道与丹阳湖南路交叉口西北60米,"118.894524,31.315659",[],320000,江苏省,25,南京市,320118,高淳区,4618777121,1828,[],2022-08-18 13:06:00,"{""rating"": [], ""cost"": []}",公共设施,公共厕所,公共厕所,,118.894524,31.315659,118.88956706649374,31.31786487214203
0e7c1f20-afef-3973-83bb-90aa7a9692e4,公共厕所,公共设施;公共厕所;公共厕所,200300,惠济北路与水墨西路交叉口东南80米,"118.515639,32.092486",[],320000,江苏省,25,南京市,320111,浦口区,4818141100,467,江北新区,2023-04-24 06:37:00,"{""rating"": [], ""cost"": []}",公共设施,公共厕所,公共厕所,,118.515639,32.092486,118.51045347669609,32.09458092816298
2d369612-4351-32f1-bb22-5de6f53d53e3,公共厕所,公共设施;公共厕所;公共厕所,200300,常溧路与金港路交叉口西60米,"119.101784,31.689625",[],320000,江苏省,25,南京市,320117,溧水区,4719402820,497,[],2023-03-09 08:49:00,"{'rating': [], 'cost': []}",公共设施,公共厕所,公共厕所,,119.101784,31.689625,119.09634027164888,31.69140334019852
512845a5-0246-36ba-8035-d8668e59074d,公共厕所,公共设施;公共厕所;公共厕所,200300,宁六路138号,"118.722474,32.185858",[],320000,江苏省,25,南京市,320111,浦口区,4818252702,1410,江北新区,2022-08-05 20:59:00,"{""rating"": [], ""cost"": []}",公共设施,公共厕所,公共厕所,,118.722474,32.185858,118.71725417647924,32.18793414145165
dfb9ab0b-554d-3205-bb92-ae0f52a42de3,公共厕所(装修中),公共设施;公共厕所;公共厕所,200300,天印大道与宏运大道交叉口西北100米,"118.857154,31.966627",[],320000,江苏省,25,南京市,320115,江宁区,4718765821,174,[],2022-08-18 13:54:00,"{""rating"": [], ""cost"": []}",公共设施,公共厕所,公共厕所,,118.857154,31.966627,118.85209913907993,31.96878775263421
1e1928f3-a2f2-34b9-bd45-c205fab567f7,公共厕所,公共设施;公共厕所;公共厕所,200300,235国道与江横路交叉口西140米,"118.621982,31.799217",[],320000,江苏省,25,南京市,320115,江宁区,4718545922,355,[],2023-04-24 14:12:00,"{""rating"": [], ""cost"": []}",公共设施,公共厕所,公共厕所,,118.621982,31.799217,118.61698311906328,31.80137379418948
b036735f-8078-351c-9df0-1223ba7a3bd5,公共厕所,公共设施;公共厕所;公共厕所,200300,庆丰路与绿村巷交叉口南40米,"119.031149,31.646252",[],320000,江苏省,25,南京市,320117,溧水区,4719307211,1825,永阳,2023-03-25 15:31:00,"{""rating"": [], ""cost"": []}",公共设施,公共厕所,公共厕所,,119.031149,31.646252,119.02582643496824,31.64812417223882
742a645f-2ff6-348e-8e41-7f18926818db,公共厕所,公共设施;公共厕所;公共厕所,200300,高丹线与永和路交叉口西北140米,"118.813853,31.329322",[],320000,江苏省,25,南京市,320118,高淳区,4618769510,1946,[],2022-06-18 03:43:00,"{""rating"": [], ""cost"": []}",公共设施,公共厕所,公共厕所,,118.813853,31.329322,118.80876785685612,31.33140769324475
25cadcf4-8c9d-3d3e-8a30-285531a934d7,公共厕所,公共设施;公共厕所;公共厕所,200300,官溪路玉泉广场(西南角),"118.865031,31.320570",[],320000,江苏省,25,南京市,320118,高淳区,4618768910,1280,淳溪,2022-11-22 22:18:00,"{""rating"": [], ""cost"": []}",公共设施,公共厕所,公共厕所,,118.865031,31.32057,118.86004663444974,31.322748411871377
d5602115-72cb-3827-b4d3-13d338a13cc0,公共厕所,公共设施;公共厕所;公共厕所,200300,凤凰西街141号,"118.756421,32.041991",[],320000,江苏省,25,南京市,320106,鼓楼区,4818065001,1336,汉中门,2023-04-10 13:08:00,"{""rating"": [], ""cost"": []}",公共设施,公共厕所,公共厕所,,118.756421,32.041991,118.75119736059294,32.04402521605976
8074d78c-fcee-303f-b877-01b92755adbb,公共厕所,公共设施;公共厕所;公共厕所,200300,南东瓜市18-2号附近,"118.772259,32.052176",[],320000,江苏省,25,南京市,320106,鼓楼区,4818066102,1634,南大,2023-04-21 22:20:00,"{""rating"": [], ""cost"": []}",公共设施,公共厕所,公共厕所,,118.772259,32.052176,118.76704335663554,32.054220721820265
694cfdfa-9a75-3cd8-88a7-c066ba25b138,公共厕所,公共设施;公共厕所;公共厕所,200300,环湖路2号厕所(后湖印月门),"118.786578,32.078435",[],320000,江苏省,25,南京市,320102,玄武区,4818069212,1517,中央路,2023-04-22 11:09:00,"{""rating"": [], ""cost"": []}",公共设施,公共厕所,公共厕所,,118.786578,32.078435,118.78137655128214,32.08050028733311
5f6bba23-b814-39a3-b7d8-e6882ecef8b4,玄武湖公园-公共厕所,公共设施;公共厕所;公共厕所,200300,昆仑路与洞庭路交叉口东100米,"118.788003,32.069431",[],320000,江苏省,25,南京市,320102,玄武区,4818068300,377,中央路,2023-04-20 12:20:00,"{""rating"": [], ""cost"": []}",公共设施,公共厕所,公共厕所,,118.788003,32.069431,118.7828044303226,32.0714961594263
fa284e19-2912-3784-a94d-56bd03b9f8aa,玄武湖公园-公共厕所,公共设施;公共厕所;公共厕所,200300,玄武巷1号玄武湖公园环洲内,"118.794516,32.073589",[],320000,江苏省,25,南京市,320102,玄武区,4818068321,1489,[],2023-04-20 11:57:00,"{""rating"": [], ""cost"": []}",公共设施,公共厕所,公共厕所,,118.794516,32.073589,118.78932719862068,32.0756640482647
4777d0ac-c4fd-3526-aa61-9d94e0a5ee58,公共厕所,公共设施;公共厕所;公共厕所,200300,学山北路与北岭路交叉口北140米,"118.867340,31.333681",[],320000,江苏省,25,南京市,320118,高淳区,4718060901,994,淳溪,2022-08-04 14:15:00,"{""rating"": [], ""cost"": []}",公共设施,公共厕所,公共厕所,,118.86734,31.333681,118.86235782995128,31.33585774391357
00fb5a6f-b670-39cc-9e7f-a93d408bbde7,公共厕所,公共设施;公共厕所;公共厕所,200300,栖霞街130附近,"118.954506,32.156381",[],320000,江苏省,25,南京市,320113,栖霞区,4818178621,1789,[],2023-03-08 22:14:00,"{""rating"": [], ""cost"": []}",公共设施,公共厕所,公共厕所,,118.954506,32.156381,118.9493970899734,32.15855946114689
8df68a37-3700-3fb8-b2f7-87c56f509fd3,公共厕所,公共设施;公共厕所;公共厕所,200300,育才北路与鱼市口交叉口北100米,"118.451519,32.034360",[],320000,江苏省,25,南京市,320111,浦口区,4818034600,1082,江北新区,2022-12-03 17:37:00,"{""rating"": [], ""cost"": []}",公共设施,公共厕所,公共厕所,,118.451519,32.03436,118.4461168297627,32.03626519297437
6f437e6b-f77a-3a8c-801e-f40496059723,公共厕所,公共设施;公共厕所;公共厕所,200300,环湖路六6号厕所(解放门),"118.797322,32.062688",[],320000,江苏省,25,南京市,320102,玄武区,4818067312,1411,[],2023-04-22 11:04:00,"{""rating"": [], ""cost"": []}",公共设施,公共厕所,公共厕所,,118.797322,32.062688,118.79213894937394,32.064764869211615
0e9a8d64-759e-3224-ad02-135a88bee0b4,公共厕所,公共设施;公共厕所;公共厕所,200300,珍珠路与通济街交叉口西南60米,"119.031319,31.654207",[],320000,江苏省,25,南京市,320117,溧水区,4719308211,1211,永阳,2022-09-07 15:45:00,"{""rating"": [], ""cost"": []}",公共设施,公共厕所,公共厕所,,119.031319,31.654207,119.02599515642724,31.656078951549457
2d78e40d-e2d5-35dc-a43f-6a7fef7d0936,公共厕所,公共设施;公共厕所;公共厕所,200300,芜太公路东100米,"118.814099,31.322142",[],320000,江苏省,25,南京市,320118,高淳区,4618768510,1879,[],2022-07-02 10:23:00,"{""rating"": [], ""cost"": []}",公共设施,公共厕所,公共厕所,,118.814099,31.322142,118.8090149976085,31.324230739767533
04a29704-e7e1-3631-9e10-a2b6324d88d3,公共厕所,公共设施;公共厕所;公共厕所,200300,吉印大道1288号,"118.793096,31.883237",[],320000,江苏省,25,南京市,320115,江宁区,4718665321,1765,[],2023-03-21 12:31:00,"{""rating"": [], ""cost"": []}",公共设施,公共厕所,公共厕所,,118.793096,31.883237,118.78792238230623,31.885267125802343
9c179abd-dd26-3993-88f4-dc8074590bc5,公共厕所,公共设施;公共厕所;公共厕所,200300,万安东路辅路与天元东路交叉口南40米,"118.903471,31.948535",[],320000,江苏省,25,南京市,320115,江宁区,4718773220,502,[],2022-07-07 22:25:00,"{""rating"": [], ""cost"": []}",公共设施,公共厕所,公共厕所,,118.903471,31.948535,118.8984580101203,31.9507297617557
df40a251-c740-3293-bff1-e02608a42bdc,公共厕所,公共设施;公共厕所;公共厕所,200300,桠阳线,"119.146178,31.367722",[],320000,江苏省,25,南京市,320118,高淳区,4719014102,584,[],2022-11-19 00:21:00,"{""rating"": [], ""cost"": []}",公共设施,公共厕所,公共厕所,,119.146178,31.367722,119.14081340101076,31.369581400461296
dcb5fa2a-5deb-3e6a-8cd4-135432ce9e80,公共厕所,公共设施;公共厕所;公共厕所,200300,桠云路与301县道交叉口东150米,"119.157476,31.367752",[],320000,江苏省,25,南京市,320118,高淳区,4719014201,510,桠溪,2022-06-19 17:42:00,"{""rating"": [], ""cost"": []}",公共设施,公共厕所,公共厕所,,119.157476,31.367752,119.15213394411724,31.369630852010697
02589420-85fc-3fb5-8a47-b6c56477d415,公共厕所,公共设施;公共厕所;公共厕所,200300,124省道附近,"118.472688,31.867431",[],320000,江苏省,25,南京市,320111,浦口区,4718634702,1008,江北新区,2022-08-02 14:35:00,"{'rating': [], 'cost': []}",公共设施,公共厕所,公共厕所,,118.472688,31.867431,118.46736667295528,31.86934990434971
826d84ec-dd0e-32c2-ac24-009739a3b3e2,公共厕所,公共设施;公共厕所;公共厕所,200300,滨江大道附近,"118.735121,32.118306",[],320000,江苏省,25,南京市,320111,浦口区,4818154802,1847,江北新区,2022-08-06 14:14:00,"{""rating"": [], ""cost"": []}",公共设施,公共厕所,公共厕所,,118.735121,32.118306,118.72989536474904,32.12036017343724
557f3501-60fb-3f5e-9e28-649885b704b1,公共厕所,公共设施;公共厕所;公共厕所,200300,阳明山庄(技校路)东侧260米,"119.000924,32.062243",[],320000,江苏省,25,南京市,320115,江宁区,4819007010,283,[],2023-04-13 13:55:00,"{'rating': [], 'cost': []}",公共设施,公共厕所,公共厕所,,119.000924,32.062243,118.99566826006571,32.06427432708213
73323fd3-4e1c-3af9-a5f1-e6432c3a90ba,公共厕所,公共设施;公共厕所;公共厕所,200300,龙中西路中国石化(六合龙池加油站),"118.796585,32.298677",[],320000,江苏省,25,南京市,320116,六合区,4818365322,1861,江北新区,2023-05-12 13:21:00,"{""rating"": [], ""cost"": []}",公共设施,公共厕所,公共厕所,,118.796585,32.298677,118.791378825588,32.30078798376143
d238d2c2-78d0-3879-8859-9b7cbe1460ba,公共厕所,公共设施;公共厕所;公共厕所,200300,兴浦路249-1号附近,"118.706322,32.102215",[],320000,江苏省,25,南京市,320111,浦口区,4818152601,1570,江北新区,2023-02-09 00:12:00,"{""rating"": [], ""cost"": []}",公共设施,公共厕所,公共厕所,,118.706322,32.102215,118.70113383400238,32.10429622451397
64365506-8e92-32d9-a411-79eb03df912a,公共厕所,公共设施;公共厕所;公共厕所,200300,林场路与汤泉东路交叉口东北220米,"119.066173,32.055616",[],320000,江苏省,25,南京市,320115,江宁区,4819006520,1210,[],2023-03-27 02:37:00,"{""rating"": [], ""cost"": []}",公共设施,公共厕所,公共厕所,,119.066173,32.055616,119.0607234485236,32.0574850701555
f741f1e3-d6ba-3751-a6a3-6ada198bc9ac,公共厕所,公共设施;公共厕所;公共厕所,200300,新亭东路金宝装饰城(莱茵达路店),"118.857363,31.943175",[],320000,江苏省,25,南京市,320115,江宁区,4718763801,907,竹山路沿线,2022-11-22 22:18:00,"{""rating"": [], ""cost"": []}",公共设施,公共厕所,公共厕所,,118.857363,31.943175,118.85231062455355,31.9453307007792
75454a7a-2679-31fd-80f2-c00f270a3b18,公共厕所,公共设施;公共厕所;公共厕所,200300,晶莹路与芮家线交叉口东南120米,"119.071518,31.529063",[],320000,江苏省,25,南京市,320117,溧水区,4719203512,612,[],2022-08-06 13:17:00,"{""rating"": [], ""cost"": []}",公共设施,公共厕所,公共厕所,,119.071518,31.529063,119.06610957837782,31.530860152735738
db16d762-883c-32a1-97df-1d677ea4e415,公共厕所,公共设施;公共厕所;公共厕所,200300,龙上线与河东街交叉口东北100米,"119.075856,32.174428",[],320000,江苏省,25,南京市,320113,栖霞区,4819200620,811,龙潭,2023-04-10 15:37:00,"{""rating"": [], ""cost"": []}",公共设施,公共厕所,公共厕所,,119.075856,32.174428,119.07038055623129,32.17630854383029
c2b58878-da09-3087-b606-21776fdec452,公共厕所,公共设施;公共厕所;公共厕所,200300,浦合线,"118.578141,32.145537",[],320000,江苏省,25,南京市,320111,浦口区,4818147610,1346,江北新区,2022-11-18 04:21:00,"{""rating"": [], ""cost"": []}",公共设施,公共厕所,公共厕所,,118.578141,32.145537,118.5731113496933,32.14777096821111
4691140e-3df4-3585-ba61-bc73c4ac94bd,公共厕所,公共设施;公共厕所;公共厕所,200300,宁六路597号,"118.778264,32.277301",[],320000,江苏省,25,南京市,320116,六合区,4818363200,1588,江北新区,2023-04-04 12:02:00,"{""rating"": [], ""cost"": []}",公共设施,公共厕所,公共厕所,,118.778264,32.277301,118.77303351255438,32.27938743876741
254cf07d-b1df-33fb-962d-9ff54df418dc,公共厕所,公共设施;公共厕所;公共厕所,200300,冶山天丰服装厂(冶山路南),"118.957475,32.517428",[],320000,江苏省,25,南京市,320116,六合区,4818672601,291,江北新区,2023-01-07 15:51:00,"{""rating"": [], ""cost"": []}",公共设施,公共厕所,公共厕所,,118.957475,32.517428,118.9523244420393,32.51959729329391
0047e4ae-4b7e-3cbb-b9be-b670aff742c8,公共厕所,公共设施;公共厕所;公共厕所,200300,方水路与方水西路交叉口南140米,"118.807676,32.264345",[],320000,江苏省,25,南京市,320116,六合区,4818361421,1811,江北新区,2023-04-22 12:52:00,"{""rating"": [], ""cost"": []}",公共设施,公共厕所,公共厕所,,118.807676,32.264345,118.80249345308768,32.26647171661948
d40b2a77-5f3c-3269-816b-efeae96f0717,公共厕所,公共设施;公共厕所;公共厕所,200300,新马路163号,"118.718913,32.103805",[],320000,江苏省,25,南京市,320111,浦口区,4818152711,677,江北新区,2022-12-03 17:39:00,"{""rating"": [], ""cost"": []}",公共设施,公共厕所,公共厕所,,118.718913,32.103805,118.71370529253969,32.105870123290416
88ea2d84-12c0-310d-9996-7c2f94bcbac8,公共厕所(平山森林公园游客中心),公共设施;公共厕所;公共厕所,200300,平山森林公园游客中心,"118.835505,32.448275",[],320000,江苏省,25,南京市,320116,六合区,4818563622,917,江北新区,2023-04-24 13:59:00,"{""rating"": [], ""cost"": []}",公共设施,公共厕所,公共厕所,,118.835505,32.448275,118.83036362234384,32.45044904987026
ee857c6b-f9a9-3e31-8414-cb79e6542360,公共厕所,公共设施;公共厕所;公共厕所,200300,汤峰路上峰汽车站,"119.053589,32.006810",[],320000,江苏省,25,南京市,320115,江宁区,4819000420,101,[],2022-11-19 05:18:00,"{""rating"": [], ""cost"": []}",公共设施,公共厕所,公共厕所,,119.053589,32.00681,119.04816993198548,32.00868922053016
37f02c79-b081-3a2d-b92e-3fa86b7530d1,公共厕所,公共设施;公共厕所;公共厕所,200300,平顶山路与扬村三路交叉口东北40米,"118.768806,32.242359",[],320000,江苏省,25,南京市,320116,六合区,4818269101,107,新华东路,2023-03-22 11:33:00,"{""rating"": [], ""cost"": []}",公共设施,公共厕所,公共厕所,,118.768806,32.242359,118.76356985795432,32.24443436925285
fc53f057-626e-38fb-82ad-d96d1371157f,公共厕所,公共设施;公共厕所;公共厕所,200300,029县道东50米,"118.951372,32.078832",[],320000,江苏省,25,南京市,320115,江宁区,4818079610,1338,[],2023-04-17 11:34:00,"{""rating"": [], ""cost"": []}",公共设施,公共厕所,公共厕所,,118.951372,32.078832,118.9462785127346,32.08100207480536
d6350c76-9348-348c-9665-1f6bd1164d35,公共厕所,公共设施;公共厕所;公共厕所,200300,珍珠路附近,"118.673049,32.117846",[],320000,江苏省,25,南京市,320111,浦口区,4818154302,1716,江北新区,2022-12-16 00:01:00,"{""rating"": [], ""cost"": []}",公共设施,公共厕所,公共厕所,,118.673049,32.117846,118.66792780338176,32.11998890897846
8ad33fb2-24b6-3b32-9189-b4d5d23d1940,公共厕所,公共设施;公共厕所;公共厕所,200300,九村西路与葛关路交叉口东20米,"118.757814,32.233369",[],320000,江苏省,25,南京市,320116,六合区,4818268001,1347,新华东路,2023-04-30 13:18:00,"{""rating"": [], ""cost"": []}",公共设施,公共厕所,公共厕所,,118.757814,32.233369,118.75257294563252,32.235438079006045
cc96957f-4143-3947-97e3-66a4176e87bd,公共厕所,公共设施;公共厕所;公共厕所,200300,小北门路与凤凰路交叉口东120米,"118.843452,32.346702",[],320000,江苏省,25,南京市,320116,六合区,4818461711,110,江北新区,2022-12-02 10:16:00,"{""rating"": [], ""cost"": []}",公共设施,公共厕所,公共厕所,,118.843452,32.346702,118.8383364836318,32.348897792365904
891bce07-13bb-3fdf-9205-04f327295605,公共厕所,公共设施;公共厕所;公共厕所,200300,固城湖北路与镇兴路交叉口东北100米,"118.878166,31.329546",[],320000,江苏省,25,南京市,320118,高淳区,4618779010,1223,淳溪,2022-09-13 21:29:00,"{""rating"": [], ""cost"": []}",公共设施,公共厕所,公共厕所,,118.878166,31.329546,118.8731973470078,31.3317363924989
52e66cf1-09a1-31c9-b725-883fa5af238a,公共厕所,公共设施;公共厕所;公共厕所,200300,文昌路江苏省江浦高级中学(文昌校区),"118.628211,32.062885",[],320000,江苏省,25,南京市,320111,浦口区,4818057010,894,公园北路,2023-03-26 12:07:00,"{""rating"": [], ""cost"": []}",公共设施,公共厕所,公共厕所,,118.628211,32.062885,118.62318094138776,32.06509152913685
2c8f3dca-7134-3492-bd04-fea816a3decb,清凉山公园-公共厕所,公共设施;公共厕所;公共厕所,200300,广州路与清凉山交叉口东北120米,"118.762013,32.049304",[],320000,江苏省,25,南京市,320106,鼓楼区,4818065022,1263,[],2023-02-11 00:14:00,"{""rating"": [], ""cost"": []}",公共设施,公共厕所,公共厕所,,118.762013,32.049304,118.7567906299725,32.05134171359718
fc7172ce-78e1-369f-a60d-0683dd89e3eb,公共厕所,公共设施;公共厕所;公共厕所,200300,双高公路与123省道交叉口东北200米,"118.978166,31.279898",[],320000,江苏省,25,南京市,320118,高淳区,4618773810,193,[],2022-08-05 19:49:00,"{'rating': [], 'cost': []}",公共设施,公共厕所,公共厕所,,118.978166,31.279898,118.9730631348612,31.281997308815832
97fbc9f1-ef6c-3407-96ba-01c067d386b1,应急避难场所(武定门北巷),公共设施;紧急避难场所;紧急避难场所,200400,武定门北巷与长乐路交叉口东北80米,"118.796522,32.015122",[],320000,江苏省,25,南京市,320104,秦淮区,4818061322,676,秦虹,2022-09-13 21:29:00,"{""rating"": [], ""cost"": []}",公共设施,紧急避难场所,紧急避难场所,,118.796522,32.015122,118.7913419566186,32.0171869379968
c49ad27f-c294-3625-a0e5-91d9a12cac11,加油站公共厕所,公共设施;公共厕所;公共厕所,200300,143乡道与富滨村路交叉口东160米,"118.921050,31.743674",[],320000,江苏省,25,南京市,320117,溧水区,4718479302,1174,[],2023-04-17 11:22:00,"{""rating"": [], ""cost"": []}",公共设施,公共厕所,公共厕所,,118.92105,31.743674,118.91604389128884,31.74582217762019
72623ad0-e82e-3bc0-ba02-ded626082365,公共厕所,公共设施;公共厕所;公共厕所,200300,南驼路与咀头路交叉口东100米,"118.931143,31.331573",[],320000,江苏省,25,南京市,320118,高淳区,4618779421,194,[],2022-06-24 08:01:00,"{""rating"": [], ""cost"": []}",公共设施,公共厕所,公共厕所,,118.931143,31.331573,118.92615964582392,31.33375482250336
a092eb11-b4b1-34f6-b601-82af88f77ae2,公共厕所,公共设施;公共厕所;公共厕所,200300,永昌东路力盛佳苑,"119.028882,31.660814",[],320000,江苏省,25,南京市,320117,溧水区,4719309200,812,永阳,2022-11-09 18:47:00,"{""rating"": [], ""cost"": []}",公共设施,公共厕所,公共厕所,,119.028882,31.660814,119.02356536011062,31.662692696677187
cd1b4142-499c-3b63-ba1c-462f23fb1276,公共厕所,公共设施;公共厕所;公共厕所,200300,三保路东50米,"118.901167,31.320794",[],320000,江苏省,25,南京市,320118,高淳区,4618778210,993,[],2022-07-14 12:38:00,"{""rating"": [], ""cost"": []}",公共设施,公共厕所,公共厕所,,118.901167,31.320794,118.8962102343263,31.322999075714016
687e9cd2-9e93-3cca-b6f1-f3225e2d9082,应急避难场所(黄土山),公共设施;紧急避难场所;紧急避难场所,200400,黄土山43号,"118.748355,32.089647",[],320000,江苏省,25,南京市,320106,鼓楼区,4818150922,1830,[],2022-06-19 20:23:00,"{""rating"": [], ""cost"": []}",公共设施,紧急避难场所,紧急避难场所,,118.748355,32.089647,118.74312653966462,32.09169101147423
ee68a3f8-8b82-3ad1-9144-e8291f58f1aa,公共厕所,公共设施;公共厕所;公共厕所,200300,仓漆线与双望线交叉口南220米,"118.992662,31.377567",[],320000,江苏省,25,南京市,320118,高淳区,4718075901,551,[],2022-08-17 12:11:00,"{""rating"": [], ""cost"": []}",公共设施,公共厕所,公共厕所,,118.992662,31.377567,118.98749921485675,31.379588647695577
40b6434b-f897-3dc4-8dfd-f68f1f057eac,公共厕所,公共设施;公共厕所;公共厕所,200300,侍郎路与观音跳路交叉口东140米,"118.691294,32.513777",[],320000,江苏省,25,南京市,320116,六合区,4818651510,1113,江北新区,2023-05-12 09:23:00,"{""rating"": [], ""cost"": []}",公共设施,公共厕所,公共厕所,,118.691294,32.513777,118.68609649053734,32.515891586146935
f73aebe8-71ba-3cb3-b52a-262d7b6aed15,应急掩蔽场所(同仁西街),公共设施;紧急避难场所;紧急避难场所,200400,珠江路63-1号,"118.785943,32.050614",[],320000,江苏省,25,南京市,320102,玄武区,4818066202,778,新街口,2022-09-19 19:06:00,"{""rating"": [], ""cost"": []}",公共设施,紧急避难场所,紧急避难场所,,118.785943,32.050614,118.78074323010767,32.05267240834552
6de63faa-c72c-355e-8d1d-01b4d18a1059,应急掩蔽场所(斯亚·置地广场西北),公共设施;紧急避难场所;紧急避难场所,200400,洪武北路与长江路交叉口西南100米,"118.787716,32.043967",[],320000,江苏省,25,南京市,320102,玄武区,4818065300,1222,新街口,2022-07-20 10:50:00,"{""rating"": [], ""cost"": []}",公共设施,紧急避难场所,紧急避难场所,,118.787716,32.043967,118.78251936352886,32.046026156911665
c60e93ea-4f25-3ad4-8c4d-dbd66514ba4b,公共厕所,公共设施;公共厕所;公共厕所,200300,神龙路与美玉街交叉口西140米,"119.175360,31.581759",[],320000,江苏省,25,南京市,320117,溧水区,4719219420,1047,[],2022-09-05 06:15:00,"{""rating"": [], ""cost"": []}",公共设施,公共厕所,公共厕所,,119.17536,31.581759,119.17003699200792,31.58363212141605
aa7d0b0a-b623-3d23-a59d-df9fa31cdc2a,公共厕所,公共设施;公共厕所;公共厕所,200300,茅亭路176号附近,"118.859721,31.778077",[],320000,江苏省,25,南京市,320115,江宁区,4718563812,1112,[],2023-03-26 07:06:00,"{""rating"": [], ""cost"": []}",公共设施,公共厕所,公共厕所,,118.859721,31.778077,118.8546875115438,31.780203858931227
d8c9026b-b4a1-3de5-b970-6650b20f2379,公共厕所,公共设施;公共厕所;公共厕所,200300,墙屋路南50米,"119.069478,31.261097",[],320000,江苏省,25,南京市,320118,高淳区,4619701501,1641,[],2023-02-07 04:16:00,"{""rating"": [], ""cost"": []}",公共设施,公共厕所,公共厕所,,119.069478,31.261097,119.06409759077258,31.262971296364977
2011e090-f2c4-30e2-8875-bb162b44769e,公共厕所,公共设施;公共厕所;公共厕所,200300,红旗路与老井路交叉口北180米,"119.064180,31.419801",[],320000,江苏省,25,南京市,320118,高淳区,4719100510,184,[],2022-07-14 14:00:00,"{""rating"": [], ""cost"": []}",公共设施,公共厕所,公共厕所,,119.06418,31.419801,119.05879388153252,31.42162806694086
d4f239ae-544b-3ea1-b56c-b7de39fbdf23,公共厕所,公共设施;公共厕所;公共厕所,200300,新陵北路,"118.933754,31.943911",[],320000,江苏省,25,南京市,320115,江宁区,4718773402,212,[],2023-02-24 14:28:00,"{""rating"": [], ""cost"": []}",公共设施,公共厕所,公共厕所,,118.933754,31.943911,118.9287114457038,31.946081832267843
01a44edb-02c7-3532-84d9-bf9288b10f62,公共厕所,公共设施;公共厕所;公共厕所,200300,桂园东路与桂园南路交叉口东80米,"119.065299,31.938201",[],320000,江苏省,25,南京市,320115,江宁区,4719702510,1636,[],2023-04-04 11:17:00,"{""rating"": [], ""cost"": []}",公共设施,公共厕所,公共厕所,,119.065299,31.938201,119.05986216253952,31.940044497200603
4ce13e8b-97a6-3097-ae89-6c97c7c73262,公共厕所,公共设施;公共厕所;公共厕所,200300,固城街道禅林村卫生室东北侧270米,"118.981096,31.334329",[],320000,江苏省,25,南京市,320118,高淳区,4718070801,1507,[],2022-11-19 20:02:00,"{""rating"": [], ""cost"": []}",公共设施,公共厕所,公共厕所,,118.981096,31.334329,118.97597817785808,31.336399074121573
8d67d191-0630-37dd-9a53-259507e7d392,南京静海寺纪念馆-公共厕所,公共设施;公共厕所;公共厕所,200300,建宁路与热河路交叉口东260米,"118.745262,32.092246",[],320000,江苏省,25,南京市,320106,鼓楼区,4818151901,1765,热河南路,2022-09-13 21:29:00,"{""rating"": [], ""cost"": []}",公共设施,公共厕所,公共厕所,,118.745262,32.092246,118.74003389947111,32.09429097864963
437fe477-9e81-3bb4-9c94-2a8d61fc141a,应急掩蔽场所(网巾市),公共设施;紧急避难场所;紧急避难场所,200400,长江路188号,"118.790433,32.044780",[],320000,江苏省,25,南京市,320102,玄武区,4818065310,84,新街口,2022-09-19 18:48:00,"{""rating"": [], ""cost"": []}",公共设施,紧急避难场所,紧急避难场所,,118.790433,32.04478,118.7852403440972,32.04684293411437
fd62f2e3-35fc-317a-ac49-e4b3f9e4a36b,公共厕所,公共设施;公共厕所;公共厕所,200300,横云北路横溪交警中队,"118.782011,31.716782",[],320000,江苏省,25,南京市,320115,江宁区,4718466201,891,[],2022-11-22 22:24:00,"{""rating"": [], ""cost"": []}",公共设施,公共厕所,公共厕所,,118.782011,31.716782,118.7768366547496,31.71877112291158
51ad755e-7ca3-3e59-a9ae-90310541725d,公共厕所,公共设施;公共厕所;公共厕所,200300,G346中国石化(南京浦口兰花塘加油站),"118.566409,31.970196",[],320000,江苏省,25,南京市,320111,浦口区,4718746510,451,江北新区,2022-11-22 22:21:00,"{'rating': [], 'cost': []}",公共设施,公共厕所,公共厕所,,118.566409,31.970196,118.56137812117008,31.972378802505883
d35ce371-c1a0-3095-a6b4-8c84dd914db9,玄武湖公园-公共厕所,公共设施;公共厕所;公共厕所,200300,内环北线附近,"118.792800,32.077259",[],320000,江苏省,25,南京市,320102,玄武区,4818069301,686,[],2023-04-20 11:35:00,"{""rating"": [], ""cost"": []}",公共设施,公共厕所,公共厕所,,118.7928,32.077259,118.78760806379036,32.07933236525301
52bdc4a3-5f6e-341e-8067-51756ed0a90c,公共厕所,公共设施;公共厕所;公共厕所,200300,福音东街与宁陡线交叉口西60米,"118.470002,31.939702",[],320000,江苏省,25,南京市,320111,浦口区,4718732721,937,江北新区,2022-08-17 14:36:00,"{""rating"": [], ""cost"": []}",公共设施,公共厕所,公共厕所,,118.470002,31.939702,118.46466491020492,31.9416294436819
7804e3bb-ca74-33a4-bb8a-cc2408a8df2b,公共厕所,公共设施;公共厕所;公共厕所,200300,广惠庵东南侧280米,"118.916513,31.395684",[],320000,江苏省,25,南京市,320118,高淳区,4718077310,795,[],2022-12-29 22:46:00,"{""rating"": [], ""cost"": []}",公共设施,公共厕所,公共厕所,,118.916513,31.395684,118.91154237501,31.39785986549828
ee0134e9-a52e-3db8-8955-fd46a90ef554,公共厕所(装修中),公共设施;公共厕所;公共厕所,200300,莲花街与银杏湖大道交叉口东200米,"118.685070,31.863914",[],320000,江苏省,25,南京市,320115,江宁区,4718653422,505,谷里,2022-11-01 14:35:00,"{""rating"": [], ""cost"": []}",公共设施,公共厕所,公共厕所,,118.68507,31.863914,118.67994555353523,31.8659781402359
c36abba2-9c5c-3154-bb48-16a38044f029,公共厕所,公共设施;公共厕所;公共厕所,200300,[],"118.828312,31.802079",[],320000,江苏省,25,南京市,320115,江宁区,4718566600,1683,[],2023-04-02 11:40:00,"{""rating"": [], ""cost"": []}",公共设施,公共厕所,公共厕所,,118.828312,31.802079,118.8232146006196,31.804154585880724
01323882-f3be-3ecb-ada3-e393afe6d48e,南京七桥瓮生态湿地公园-公共厕所,公共设施;公共厕所;公共厕所,200300,红官圩路与过兵桥路交叉口南180米,"118.837406,32.007253",[],320000,江苏省,25,南京市,320104,秦淮区,4818060622,1777,光华路,2023-05-04 11:21:00,"{""rating"": [], ""cost"": []}",公共设施,公共厕所,公共厕所,,118.837406,32.007253,118.83230916596648,32.00938902804206
874b6c1b-6728-3dff-b5c3-5f34d6921dcb,应急掩蔽场所(吉兆营),公共设施;紧急避难场所;紧急避难场所,200400,吉兆营与丹凤街交叉口西40米,"118.786899,32.052116",[],320000,江苏省,25,南京市,320102,玄武区,4818066202,1605,南大,2022-08-12 05:20:00,"{""rating"": [], ""cost"": []}",公共设施,紧急避难场所,紧急避难场所,,118.786899,32.052116,118.78170043754406,32.054175937499245
61d8a63e-467c-3a7c-841a-db833adf4ce2,南京雨花台风景区-公共厕所,公共设施;公共厕所;公共厕所,200300,雨花南路274号南京雨花台风景区南门附近,"118.780628,31.993480",[],320000,江苏省,25,南京市,320114,雨花台区,4718769201,244,[],2023-05-10 11:37:00,"{""rating"": [], ""cost"": []}",公共设施,公共厕所,公共厕所,,118.780628,31.99348,118.77542658382144,31.995519220620647
70d564bb-c32f-3de9-92e2-b6f0da775eb6,公共厕所,公共设施;公共厕所;公共厕所,200300,桂金路与桠阳线交叉口北120米,"119.140196,31.367922",[],320000,江苏省,25,南京市,320118,高淳区,4719014100,1146,[],2022-09-15 00:48:00,"{""rating"": [], ""cost"": []}",公共设施,公共厕所,公共厕所,,119.140196,31.367922,119.13482060487384,31.36977199144518
49d56c78-658a-3e8e-9ce3-48e4f03bffe9,加油站公共厕所,公共设施;公共厕所;公共厕所,200300,G40沪陕高速附近,"118.457341,32.066546",[],320000,江苏省,25,南京市,320111,浦口区,4818037621,1796,江北新区,2023-05-02 13:30:00,"{""rating"": [], ""cost"": []}",公共设施,公共厕所,公共厕所,,118.457341,32.066546,118.4519522367135,32.06847111792768
95ecd911-d2d0-3703-ac71-532d051307a2,紧急避难场所(红敬线),公共设施;紧急避难场所;紧急避难场所,200400,红枫路与栖霞南街交叉口西120米,"118.947731,32.144707",[],320000,江苏省,25,南京市,320113,栖霞区,4818177512,1678,[],2023-05-04 12:37:00,"{""rating"": [], ""cost"": []}",公共设施,紧急避难场所,紧急避难场所,,118.947731,32.144707,118.94264063901554,32.14689765001517
e68071db-7eeb-347a-bad7-ad18cccf86b0,公共厕所,公共设施;公共厕所;公共厕所,200300,石象路7号中山陵园风景区,"118.870332,32.045733",[],320000,江苏省,25,南京市,320102,玄武区,4818065911,1465,[],2023-05-12 18:58:00,"{""rating"": [], ""cost"": []}",公共设施,公共厕所,公共厕所,,118.870332,32.045733,118.8652902127367,32.04793019725858
43be61e9-96ab-3f59-9ce7-172c9302b1d0,公共厕所,公共设施;公共厕所;公共厕所,200300,泉水路东50米,"118.923805,32.019411",[],320000,江苏省,25,南京市,320115,江宁区,4818072302,1250,[],2023-04-15 12:04:00,"{""rating"": [], ""cost"": []}",公共设施,公共厕所,公共厕所,,118.923805,32.019411,118.91877076443652,32.02161123790845
cdfb7225-12a2-318a-a785-c0c1faf1f003,公共厕所,公共设施;公共厕所;公共厕所,200300,童家路与双望线交叉口东40米,"119.052109,31.316418",[],320000,江苏省,25,南京市,320118,高淳区,4619707420,1312,东坝街道,2022-08-18 13:09:00,"{""rating"": [], ""cost"": []}",公共设施,公共厕所,公共厕所,,119.052109,31.316418,119.04675805228275,31.318298621401595
f1e5c078-8a2a-3946-9089-e66fa11d67c5,公共厕所,公共设施;公共厕所;公共厕所,200300,田园钓场东南侧170米,"119.090434,31.582621",[],320000,江苏省,25,南京市,320117,溧水区,4719209720,868,[],2023-04-20 11:20:00,"{""rating"": [], ""cost"": []}",公共设施,公共厕所,公共厕所,,119.090434,31.582621,119.08500224918916,31.58439913607361
29c482a0-ca12-39e1-9f23-c51adb02e53d,栖霞山大桥服务区公共厕所,公共设施;公共厕所;公共厕所,200300,G25长深高速附近,"118.961539,32.225110",[],320000,江苏省,25,南京市,320116,六合区,4818277602,765,江北新区,2023-04-29 11:55:00,"{""rating"": [], ""cost"": []}",公共设施,公共厕所,公共厕所,,118.961539,32.22511,118.95640370004791,32.22728224418425
b1f5289a-3a67-31d7-9aaf-339347a5d599,金牛湖停车区公共厕所,公共设施;公共厕所;公共厕所,200300,南京绕城高速公路金牛湖北收费站西北,"118.881124,32.400831",[],320000,江苏省,25,南京市,320116,六合区,4818478001,341,江北新区,2022-11-02 08:30:00,"{""rating"": [], ""cost"": []}",公共设施,公共厕所,公共厕所,,118.881124,32.400831,118.87606178056988,32.40307704315589
7248ae10-89ad-32d0-8037-0b3a560f35a6,金牛湖停车区公共厕所,公共设施;公共厕所;公共厕所,200300,G25长深高速附近,"118.879477,32.399795",[],320000,江苏省,25,南京市,320116,六合区,4818477021,255,江北新区,2023-04-27 11:21:00,"{""rating"": [], ""cost"": []}",公共设施,公共厕所,公共厕所,,118.879477,32.399795,118.87441335479176,32.40203969170579
ee94af84-fdb4-3c13-ac60-96ad130eec49,应急掩蔽场所(龙园西路),公共设施;紧急避难场所;紧急避难场所,200400,龙园西路与草场门大街交叉口西南120米,"118.741762,32.057124",[],320000,江苏省,25,南京市,320106,鼓楼区,4818056921,422,龙江,2023-04-20 12:15:00,"{""rating"": [], ""cost"": []}",公共设施,紧急避难场所,紧急避难场所,,118.741762,32.057124,118.73653833590755,32.059162326730494
6f5f3fd8-7203-3a40-a3ff-0884b7e97dac,应急掩蔽场所(锁金北路),公共设施;紧急避难场所;紧急避难场所,200400,板仓街130号翠岭居附近,"118.820792,32.074793",[],320000,江苏省,25,南京市,320102,玄武区,4818068521,1276,板仓村,2022-07-26 21:57:00,"{""rating"": [], ""cost"": []}",公共设施,紧急避难场所,紧急避难场所,,118.820792,32.074793,118.81565377233404,32.07691304497935
e03a6033-41c8-32cd-a290-27e05d957c8b,应急掩蔽场所(大四福巷),公共设施;紧急避难场所;紧急避难场所,200400,夫子庙状元境9号,"118.787838,32.022066",[],320000,江苏省,25,南京市,320104,秦淮区,4818062310,1467,夫子庙,2023-04-22 13:42:00,"{""rating"": [], ""cost"": []}",公共设施,紧急避难场所,紧急避难场所,,118.787838,32.022066,118.78264356058956,32.02412034721266
8de5fb86-81c9-337e-b2b7-4b2b2fda3159,应急掩蔽场所(箍桶巷),公共设施;紧急避难场所;紧急避难场所,200400,箍桶巷与磊功巷交叉口南80米,"118.788929,32.014618",[],320000,江苏省,25,南京市,320104,秦淮区,4818061320,264,夫子庙,2022-09-13 21:29:00,"{""rating"": [], ""cost"": []}",公共设施,紧急避难场所,紧急避难场所,,118.788929,32.014618,118.7837368516498,32.01667206330846
77c133aa-4a1b-3d4c-a640-d606cd8f9d30,应急掩蔽场所(银城·五台花园南),公共设施;紧急避难场所;紧急避难场所,200400,五台山1号,"118.777069,32.047312",[],320000,江苏省,25,南京市,320106,鼓楼区,4818065220,942,汉中路,2023-04-20 12:03:00,"{""rating"": [], ""cost"": []}",公共设施,紧急避难场所,紧急避难场所,,118.777069,32.047312,118.771858545909,32.049359886308885
5fc81a2d-065d-3d82-ad54-2f54175febbe,紧急避难场所(汉口路),公共设施;紧急避难场所;紧急避难场所,200400,汉口路22号,"118.782218,32.054023",[],320000,江苏省,25,南京市,320106,鼓楼区,4818066211,1898,南大,2023-01-03 07:54:00,"{""rating"": [], ""cost"": []}",公共设施,紧急避难场所,紧急避难场所,,118.782218,32.054023,118.77701296310586,32.05607776593212
db27b48b-3a33-3c6e-9b25-633ac6f2d1a0,应急避难场所,公共设施;公共设施;公共设施,200000,雨花西路南京中华中等专业学校,"118.762978,31.995438",[],320000,江苏省,25,南京市,320114,雨花台区,4718769110,1760,赛虹桥,2022-11-18 04:06:00,"{""rating"": [], ""cost"": []}",公共设施,公共设施,公共设施,,118.762978,31.995438,118.75776108085655,31.99746386016611
8408e487-e8b7-3fc5-8131-91cbf5cc4af9,应急掩蔽场所(利民路),公共设施;紧急避难场所;紧急避难场所,200400,东新南路241-8号附近,"118.854098,31.952811",[],320000,江苏省,25,南京市,320115,江宁区,4718764810,1637,竹山路沿线,2023-03-09 12:17:00,"{""rating"": [], ""cost"": []}",公共设施,紧急避难场所,紧急避难场所,,118.854098,31.952811,118.8490389763018,31.954963723659645
96c6f920-87e4-355c-be40-26daf18b3722,应急掩蔽场所(古钵营),公共设施;紧急避难场所;紧急避难场所,200400,白衣庵与中山南路交叉口西60米,"118.782986,32.028038",[],320000,江苏省,25,南京市,320104,秦淮区,4818063211,747,升州路,2023-04-08 14:10:00,"{""rating"": [], ""cost"": []}",公共设施,紧急避难场所,紧急避难场所,,118.782986,32.028038,118.77778434425696,32.03008778975973
812b5a62-c94e-34d3-8ac4-83db84332b4e,铁路北街市民广场应急避难场所,公共设施;紧急避难场所;紧急避难场所,200400,铁路北街与东妙峰庵交叉口西北80米,"118.758722,32.086296",[],320000,江苏省,25,南京市,320106,鼓楼区,4818160012,857,大桥南路,2022-09-13 21:29:00,"{""rating"": [], ""cost"": []}",公共设施,紧急避难场所,紧急避难场所,,118.758722,32.086296,118.7534948951052,32.08834053292409
cb8609a1-b000-383e-99bc-32320803456c,白下区应急避难场所(蓝旗街),公共设施;紧急避难场所;紧急避难场所,200400,蓝旗巷与蓝旗街交叉口西北150米,"118.818267,32.026575",[],320000,江苏省,25,南京市,320104,秦淮区,4818063501,641,大光路,2023-03-01 17:33:00,"{""rating"": [], ""cost"": []}",公共设施,紧急避难场所,紧急避难场所,,118.818267,32.026575,118.81312788817284,32.028679633394475
4c5c16c7-211c-38a8-9f1a-85c594bc0534,建邺区应急避难场所(水西门大街),公共设施;紧急避难场所;紧急避难场所,200400,水西门大街23号附近,"118.761906,32.032243",[],320000,江苏省,25,南京市,320105,建邺区,4818063022,919,汉中门,2023-04-06 13:32:00,"{""rating"": [], ""cost"": []}",公共设施,紧急避难场所,紧急避难场所,,118.761906,32.032243,118.75668515838122,32.03427682393409
89fcbb9d-0a26-3c33-bb42-3a0a0f9459f8,应急掩蔽场所(盐仓桥广场),公共设施;紧急避难场所;紧急避难场所,200400,中山北路288号,"118.754976,32.085396",[],320000,江苏省,25,南京市,320106,鼓楼区,4818160001,950,新民路,2022-07-19 11:54:00,"{""rating"": [], ""cost"": []}",公共设施,紧急避难场所,紧急避难场所,,118.754976,32.085396,118.7497480585849,32.087439430184645
3446e583-c7f4-32a1-a081-d42cf78e9ac6,应急掩蔽场所(金川门外街),公共设施;紧急避难场所;紧急避难场所,200400,金川门外18号,"118.758264,32.089141",[],320000,江苏省,25,南京市,320106,鼓楼区,4818160021,540,建宁路,2022-07-20 10:55:00,"{""rating"": [], ""cost"": []}",公共设施,紧急避难场所,紧急避难场所,,118.758264,32.089141,118.7530364862145,32.09118599251523
6845df0f-176d-3afa-8d64-ba5235f362d1,应急掩蔽场所(马台街90号小区东),公共设施;紧急避难场所;紧急避难场所,200400,司背后街与马台街交叉口北60米,"118.772672,32.072951",[],320000,江苏省,25,南京市,320106,鼓楼区,4818068122,1676,湖南路,2022-07-19 12:16:00,"{""rating"": [], ""cost"": []}",公共设施,紧急避难场所,紧急避难场所,,118.772672,32.072951,118.76745480617956,32.075000616599546
3cd219e4-83e0-3d1c-8979-8cd6b3ec4270,公共厕所,公共设施;公共厕所;公共厕所,200300,韩家巷8附近,"118.786143,32.047521",[],320000,江苏省,25,南京市,320102,玄武区,4818065222,1520,新街口,2022-08-05 21:17:00,"{""rating"": [], ""cost"": []}",公共设施,公共厕所,公共厕所,,118.786143,32.047521,118.78094379475444,32.04957896534868
12e8c1ee-4cbb-3a6e-9138-1d21e075a5dc,应急掩蔽场所(厚载巷),公共设施;紧急避难场所;紧急避难场所,200400,厚载巷31-35附近,"118.782333,32.062533",[],320000,江苏省,25,南京市,320106,鼓楼区,4818067211,1787,湖北路,2022-07-18 18:00:00,"{""rating"": [], ""cost"": []}",公共设施,紧急避难场所,紧急避难场所,,118.782333,32.062533,118.77712732254956,32.06458977492857
33b0b852-4dfc-3a9e-a5c3-31b70d499100,应急掩蔽场所(青云巷),公共设施;紧急避难场所;紧急避难场所,200400,云南北路与湖北路交叉口东60米,"118.779399,32.065745",[],320000,江苏省,25,南京市,320106,鼓楼区,4818067221,1613,湖北路,2023-04-21 15:13:00,"{""rating"": [], ""cost"": []}",公共设施,紧急避难场所,紧急避难场所,,118.779399,32.065745,118.7741894542869,32.067799297857206
e2b81bf6-b844-3a2b-b499-3ff2fe226d99,公共厕所(玄武湖梁洲1号),公共设施;公共厕所;公共厕所,200300,黄册库南侧90米,"118.792910,32.077260",[],320000,江苏省,25,南京市,320102,玄武区,4818069301,690,[],2023-04-20 12:29:00,"{""rating"": [], ""cost"": []}",公共设施,公共厕所,公共厕所,,118.79291,32.07726,118.78771824043449,32.0793335218325
110139f1-2e08-33bd-b9e9-38b7811455e4,玄武湖公园公共厕所,公共设施;公共厕所;公共厕所,200300,玄武巷1号玄武湖公园樱洲内,"118.794446,32.071049",[],320000,江苏省,25,南京市,320102,玄武区,4818068311,690,[],2023-04-20 12:07:00,"{""rating"": [], ""cost"": []}",公共设施,公共厕所,公共厕所,,118.794446,32.071049,118.7892573173045,32.07312339631009
8c95b439-5ffc-34fe-9282-5cbc26bf9275,公共厕所,公共设施;公共厕所;公共厕所,200300,中央北路与东门前街交叉口西北200米,"118.783178,32.098717",[],320000,江苏省,25,南京市,320106,鼓楼区,4818161221,1863,小市,2022-07-18 19:44:00,"{""rating"": [], ""cost"": []}",公共设施,公共厕所,公共厕所,,118.783178,32.098717,118.77797006188663,32.10078245523912
98464171-3ffd-3237-836d-810c72e24512,玄武湖公园-公共厕所,公共设施;公共厕所;公共厕所,200300,玄武巷1号玄武湖公园翠洲内,"118.799499,32.076750",[],320000,江苏省,25,南京市,320102,玄武区,4818069302,1483,[],2023-04-20 11:34:00,"{""rating"": [], ""cost"": []}",公共设施,公共厕所,公共厕所,,118.799499,32.07675,118.79431847452916,32.07883330030542
5e8dd4a2-a89b-346c-8fab-888a794c1a77,公共厕所(环湖路),公共设施;公共厕所;公共厕所,200300,玄武湖环湖路,"118.801001,32.081996",[],320000,江苏省,25,南京市,320102,玄武区,4818069420,1555,中央门,2023-04-20 12:18:00,"{""rating"": [], ""cost"": []}",公共设施,公共厕所,公共厕所,,118.801001,32.081996,118.79582269462011,32.08408280982924
4384e877-8a0a-358e-8df7-87cb68db8a8c,公共厕所,公共设施;公共厕所;公共厕所,200300,金川河西路义民新村,"118.759356,32.096006",[],320000,江苏省,25,南京市,320106,鼓楼区,4818161012,348,新民路,2022-11-22 21:25:00,"{""rating"": [], ""cost"": []}",公共设施,公共厕所,公共厕所,,118.759356,32.096006,118.75412821097169,32.098052771549405
fa3981e4-b127-3ea4-b8e6-9eccc87fee52,紧急避难场所(苜蓿园大街),公共设施;紧急避难场所;紧急避难场所,200400,苜蓿园大街77号,"118.829931,32.023299",[],320000,江苏省,25,南京市,320104,秦淮区,4818062621,1782,苜蓿园,2023-04-07 13:19:00,"{""rating"": [], ""cost"": []}",公共设施,紧急避难场所,紧急避难场所,,118.829931,32.023299,118.82481691539289,32.02542473294629
31e9fd39-6365-357e-8539-48e8c0fb6a9b,应急掩蔽场所(宝燕南路),公共设施;紧急避难场所;紧急避难场所,200400,幕府西路88-45号附近,"118.769210,32.105058",[],320000,江苏省,25,南京市,320106,鼓楼区,4818162111,1868,幕府西路,2022-06-29 11:03:00,"{""rating"": [], ""cost"": []}",公共设施,紧急避难场所,紧急避难场所,,118.76921,32.105058,118.76398692747144,32.107111739549225
65b376d3-3008-348e-829b-d3ec842c39aa,公共厕所(暂停营业),公共设施;公共厕所;公共厕所,200300,扇骨营北路与扇骨营路交叉口西南60米,"118.801945,32.020208",[],320000,江苏省,25,南京市,320104,秦淮区,4818062410,272,大光路,2022-09-05 04:19:00,"{""rating"": [], ""cost"": []}",公共设施,公共厕所,公共厕所,,118.801945,32.020208,118.79677410847287,32.02228260631624
6b3edbcc-719c-3fdb-800f-034aa5d1b29f,应急掩蔽场所(东宇大厦东南),公共设施;紧急避难场所;紧急避难场所,200400,洪武路,"118.786439,32.038491",[],320000,江苏省,25,南京市,320104,秦淮区,4818064212,732,新街口,2023-03-23 14:16:00,"{""rating"": [], ""cost"": []}",公共设施,紧急避难场所,紧急避难场所,,118.786439,32.038491,118.78124104360882,32.04054730444233
df8cb325-bc08-3f5b-97fd-77ce5d919698,应急掩蔽场所(凌云路),公共设施;紧急避难场所;紧急避难场所,200400,凌云路与博远路交叉口西北100米,"118.818555,32.033760",[],320000,江苏省,25,南京市,320104,秦淮区,4818064501,1833,月牙湖,2023-05-04 13:35:00,"{""rating"": [], ""cost"": []}",公共设施,紧急避难场所,紧急避难场所,,118.818555,32.03376,118.81341583224147,32.035866798757546
629aef0c-62a9-35ac-a528-ee9f33827818,应急掩蔽场所(鸡鹅巷),公共设施;紧急避难场所;紧急避难场所,200400,鸡鹅巷与通贤桥交叉口西南20米,"118.791659,32.048118",[],320000,江苏省,25,南京市,320102,玄武区,4818065320,1429,大行宫,2022-07-20 10:47:00,"{""rating"": [], ""cost"": []}",公共设施,紧急避难场所,紧急避难场所,,118.791659,32.048118,118.7864679403216,32.05018336801344
6437d616-3b36-3a19-9f70-ac744e19ebe3,应急掩蔽场所(南工路),公共设施;紧急避难场所;紧急避难场所,200400,南工路与群贤路交叉口南60米,"118.795408,32.054602",[],320000,江苏省,25,南京市,320102,玄武区,4818066311,1398,[],2023-01-18 07:55:00,"{""rating"": [], ""cost"": []}",公共设施,紧急避难场所,紧急避难场所,,118.795408,32.054602,118.79022243537928,32.05667420318448
31eb4de7-4c38-32d4-aa18-9f6119b1f302,公共厕所,公共设施;公共厕所;公共厕所,200300,北京东路东南大学(四牌楼校区),"118.794565,32.056117",[],320000,江苏省,25,南京市,320102,玄武区,4818066321,1613,[],2023-01-31 18:22:00,"{""rating"": [], ""cost"": []}",公共设施,公共厕所,公共厕所,,118.794565,32.056117,118.78937789124797,32.0581882969519
de310a36-974f-3d12-bd02-23a0747e09c4,应急掩蔽场所(文思巷),公共设施;紧急避难场所;紧急避难场所,200400,白下路362号,"118.797201,32.026679",[],320000,江苏省,25,南京市,320104,秦淮区,4818063302,1841,大光路,2023-04-16 12:47:00,"{""rating"": [], ""cost"": []}",公共设施,紧急避难场所,紧急避难场所,,118.797201,32.026679,118.79202105761556,32.028747612385075
fb2bdc88-02da-3df8-8942-34403af9640f,应急掩蔽场所(银城大厦西),公共设施;紧急避难场所;紧急避难场所,200400,上海路15号,"118.776376,32.045954",[],320000,江苏省,25,南京市,320106,鼓楼区,4818065210,1621,汉中门,2022-07-20 22:29:00,"{""rating"": [], ""cost"": []}",公共设施,紧急避难场所,紧急避难场所,,118.776376,32.045954,118.77116493371504,32.04800092239485
e9817607-fc92-30a8-9366-02333ad0c6b3,应急掩蔽场所(黄家圩路),公共设施;紧急避难场所;紧急避难场所,200400,黄家圩路与龙蟠路辅路交叉口东北60米,"118.793666,32.087421",[],320000,江苏省,25,南京市,320102,玄武区,4818160311,635,中央门,2022-07-20 10:55:00,"{""rating"": [], ""cost"": []}",公共设施,紧急避难场所,紧急避难场所,,118.793666,32.087421,118.78847452642614,32.08949776640971
3fa30dfb-8215-39a5-a4bd-0a23938766a2,应急掩蔽场所(云南路),公共设施;紧急避难场所;紧急避难场所,200400,云南路31-1号,"118.775254,32.059787",[],320000,江苏省,25,南京市,320106,鼓楼区,4818067200,1365,南大,2022-09-19 19:20:00,"{""rating"": [], ""cost"": []}",公共设施,紧急避难场所,紧急避难场所,,118.775254,32.059787,118.77004049911548,32.06183596309892
050c06f4-478c-3dff-a1d8-fe145042f0c3,公共厕所,公共设施;公共厕所;公共厕所,200300,清溪村9号,"118.822809,32.047603",[],320000,江苏省,25,南京市,320102,玄武区,4818065522,863,月牙湖,2023-03-08 21:37:00,"{""rating"": [], ""cost"": []}",公共设施,公共厕所,公共厕所,,118.822809,32.047603,118.8176775328891,32.049720835650554
c19a9d2c-925b-3d43-b96e-56368fff74e4,应急掩蔽场所(洪武北路),公共设施;紧急避难场所;紧急避难场所,200400,洪武北路与鸡鹅巷交叉口西北40米,"118.789055,32.048919",[],320000,江苏省,25,南京市,320102,玄武区,4818065320,1329,新街口,2022-07-20 22:32:00,"{""rating"": [], ""cost"": []}",公共设施,紧急避难场所,紧急避难场所,,118.789055,32.048919,118.78385987656078,32.05098101262592
8a04feca-60ac-3d30-beef-5f31322eacf1,应急掩蔽场所(河滨路),公共设施;紧急避难场所;紧急避难场所,200400,河滨路与敬师巷交叉口东南60米,"118.835649,31.951809",[],320000,江苏省,25,南京市,320115,江宁区,4718764602,728,[],2022-07-20 10:50:00,"{""rating"": [], ""cost"": []}",公共设施,紧急避难场所,紧急避难场所,,118.835649,31.951809,118.8305535368024,31.953928977757663
3b2c0cd4-4935-34f8-80d6-d2b2b11ba9b3,应急掩蔽场所(程阁老巷),公共设施;紧急避难场所;紧急避难场所,200400,洪武路188号,"118.786415,32.035029",[],320000,江苏省,25,南京市,320104,秦淮区,4818064202,1410,新街口,2023-05-08 12:59:00,"{""rating"": [], ""cost"": []}",公共设施,紧急避难场所,紧急避难场所,,118.786415,32.035029,118.78121732923331,32.037084491585446
730e670b-a183-314a-befa-69d98a03d583,财经附小应急避难场所,公共设施;紧急避难场所;紧急避难场所,200400,萨家湾花苑46号南京市第八中学附近,"118.758577,32.084561",[],320000,江苏省,25,南京市,320106,鼓楼区,4818160002,1657,挹江门,2022-06-24 09:35:00,"{""rating"": [], ""cost"": []}",公共设施,紧急避难场所,紧急避难场所,,118.758577,32.084561,118.75335000895376,32.08660512065622
5da2c8d0-3531-3ec6-936b-d8f64a87f28b,应急掩蔽场所(石婆婆巷),公共设施;紧急避难场所;紧急避难场所,200400,进香河路33-2号,"118.790312,32.056658",[],320000,江苏省,25,南京市,320102,玄武区,4818066320,1454,南大,2022-07-02 16:07:00,"{""rating"": [], ""cost"": []}",公共设施,紧急避难场所,紧急避难场所,,118.790312,32.056658,118.78511806281004,32.058723417213486
cb28ac5b-2d6b-3339-9073-538edc911457,玄武湖公园公共厕所,公共设施;公共厕所;公共厕所,200300,玄武湖公园,"118.798338,32.069896",[],320000,江苏省,25,南京市,320102,玄武区,4818068312,1316,[],2023-03-29 14:27:00,"{""rating"": [], ""cost"": []}",公共设施,公共厕所,公共厕所,,118.798338,32.069896,118.79315605366274,32.07197600626101
2c41e818-756a-30a3-b651-5101b6e90ea5,白马公园-公共厕所,公共设施;公共厕所;公共厕所,200300,龙蟠路与太平门路交叉口白马公园内,"118.816884,32.060399",[],320000,江苏省,25,南京市,320102,玄武区,4818067501,826,九华山,2022-11-18 05:27:00,"{""rating"": [], ""cost"": []}",公共设施,公共厕所,公共厕所,,118.816884,32.060399,118.81173890265146,32.06250868005718
f2cf516f-dc3f-348b-8c83-47d2bf4eee51,应急避难所(北京东路),公共设施;紧急避难场所;紧急避难场所,200400,北京东路47号,"118.799233,32.057724",[],320000,江苏省,25,南京市,320102,玄武区,4818066322,1577,九华山,2022-07-06 18:52:00,"{""rating"": [], ""cost"": []}",公共设施,紧急避难场所,紧急避难场所,,118.799233,32.057724,118.79405375481068,32.05980273404935
285db0c4-c29b-38cc-8e7b-9e61b61533ae,应急掩蔽场所(集庆路),公共设施;紧急避难场所;紧急避难场所,200400,集庆路198号,"118.773997,32.018810",[],320000,江苏省,25,南京市,320104,秦淮区,4818062102,1693,来凤街,2023-03-16 13:15:00,"{""rating"": [], ""cost"": []}",公共设施,紧急避难场所,紧急避难场所,,118.773997,32.01881,118.76878604892522,32.020848619938526
ad5c1192-8493-3765-a083-3b5b420f3b02,应急掩蔽场所(金城路),公共设施;紧急避难场所;紧急避难场所,200400,金城路东50米,"118.747389,32.077642",[],320000,江苏省,25,南京市,320106,鼓楼区,4818059902,1267,挹江门,2022-07-07 22:51:00,"{""rating"": [], ""cost"": []}",公共设施,紧急避难场所,紧急避难场所,,118.747389,32.077642,118.74216179476512,32.07968355603801
2ff07c47-1a86-35c7-98dc-81d9478f8080,郑和公园-公共厕所,公共设施;公共厕所;公共厕所,200300,太平巷与太平南路交叉口东南180米,"118.793475,32.031307",[],320000,江苏省,25,南京市,320104,秦淮区,4818063321,522,夫子庙,2023-04-09 13:36:00,"{""rating"": [], ""cost"": []}",公共设施,公共厕所,公共厕所,,118.793475,32.031307,118.7882883913644,32.033371146067054
cb3c3704-0042-3ed0-be50-1bf119772b21,应急避难场所(电建路),公共设施;紧急避难场所;紧急避难场所,200400,电建路东50米,"118.826810,32.110191",[],320000,江苏省,25,南京市,320113,栖霞区,4818163600,1559,月苑,2022-07-20 10:47:00,"{""rating"": [], ""cost"": []}",公共设施,紧急避难场所,紧急避难场所,,118.82681,32.110191,118.82168130842032,32.11232970921552
008c51fd-2e1d-3d1f-babf-84c9d2d6d8cf,应急掩蔽场所(天山路),公共设施;紧急避难场所;紧急避难场所,200400,天山路与百子亭交叉口东南180米,"118.788311,32.063584",[],320000,江苏省,25,南京市,320102,玄武区,4818067310,1483,中央路,2023-03-12 12:35:00,"{""rating"": [], ""cost"": []}",公共设施,紧急避难场所,紧急避难场所,,118.788311,32.063584,118.78311342127718,32.06564828266132
45e2e330-b704-380d-95c4-adcca5375ba6,应急避难场所(雨花新村一号路),公共设施;紧急避难场所;紧急避难场所,200400,共青团路五村19,"118.772135,31.997036",[],320000,江苏省,25,南京市,320114,雨花台区,4718769112,1654,赛虹桥,2023-05-06 13:36:00,"{""rating"": [], ""cost"": []}",公共设施,紧急避难场所,紧急避难场所,,118.772135,31.997036,118.7669243404821,31.999068060615567
6210dd2d-d9f0-3893-800c-c36122208a18,应急掩蔽场所(汉府街),公共设施;紧急避难场所;紧急避难场所,200400,中山东路291号,"118.802372,32.040881",[],320000,江苏省,25,南京市,320102,玄武区,4818064420,275,梅园,2022-06-27 16:46:00,"{""rating"": [], ""cost"": []}",公共设施,紧急避难场所,紧急避难场所,,118.802372,32.040881,118.79719999380636,32.04296099877757
f9cf409b-e18d-3354-826f-f16e0ae75ce3,应急避难场所(大悲巷),公共设施;紧急避难场所;紧急避难场所,200400,大悲巷13号,"118.802205,32.044747",[],320000,江苏省,25,南京市,320102,玄武区,4818065410,151,梅园,2023-03-15 12:16:00,"{""rating"": [], ""cost"": []}",公共设施,紧急避难场所,紧急避难场所,,118.802205,32.044747,118.7970323298261,32.046827595682835
2b7b24cd-53d9-3404-9004-0d06e38d85b8,应急掩蔽场所(马台街),公共设施;紧急避难场所;紧急避难场所,200400,马台街91号海德商厦,"118.773858,32.070912",[],320000,江苏省,25,南京市,320106,鼓楼区,4818068112,1654,湖南路,2022-07-19 11:54:00,"{""rating"": [], ""cost"": []}",公共设施,紧急避难场所,紧急避难场所,,118.773858,32.070912,118.7686420995032,32.072962167323226
a75d35b0-a355-3d55-a19f-706551ed756d,应急掩蔽场所(进香河路),公共设施;紧急避难场所;紧急避难场所,200400,严家桥与进香河路交叉口东20米,"118.790063,32.050635",[],320000,江苏省,25,南京市,320102,玄武区,4818066300,1218,大行宫,2022-07-20 10:47:00,"{""rating"": [], ""cost"": []}",公共设施,紧急避难场所,紧急避难场所,,118.790063,32.050635,118.78486923824332,32.05269874245662
1c43a79e-2441-31ff-aa7c-fa20c7744932,应急掩蔽场所(北京东路),公共设施;紧急避难场所;紧急避难场所,200400,北京东路南京工艺美术大楼,"118.789434,32.058659",[],320000,江苏省,25,南京市,320102,玄武区,4818067300,1361,[],2022-11-19 04:38:00,"{""rating"": [], ""cost"": []}",公共设施,紧急避难场所,紧急避难场所,,118.789434,32.058659,118.78423854556937,32.06072367891173
9d07f46e-c17f-339f-914a-462847680535,公共厕所,公共设施;公共厕所;公共厕所,200300,营苑南路3栋附近,"118.830084,32.101992",[],320000,江苏省,25,南京市,320102,玄武区,4818162601,1676,月苑,2023-04-21 15:21:00,"{""rating"": [], ""cost"": []}",公共设施,公共厕所,公共厕所,,118.830084,32.101992,118.82496304046936,32.10413521441783
e56ec1e6-f43a-3706-98d4-81f9b1c4c661,应急避难场所(和燕路),公共设施;紧急避难场所;紧急避难场所,200400,和燕路386号号附近,"118.814636,32.110917",[],320000,江苏省,25,南京市,320113,栖霞区,4818163500,1787,迈皋桥,2023-05-06 14:21:00,"{""rating"": [], ""cost"": []}",公共设施,紧急避难场所,紧急避难场所,,118.814636,32.110917,118.80948161178482,32.11303324125772
56882af8-fb99-3876-9cce-2a0a43c9a2e0,应急掩蔽场所(太平北路),公共设施;紧急避难场所;紧急避难场所,200400,太平北路与长江后街交叉口东北100米,"118.796465,32.047260",[],320000,江苏省,25,南京市,320102,玄武区,4818065322,509,梅园,2022-07-20 04:51:00,"{""rating"": [], ""cost"": []}",公共设施,紧急避难场所,紧急避难场所,,118.796465,32.04726,118.79128189999308,32.04933214797896
7aeff1e4-068d-3ec0-899a-41331d2c4e67,应急掩蔽场所(肚带营),公共设施;紧急避难场所;紧急避难场所,200400,肚带营与相府营交叉口东南60米,"118.790124,32.045491",[],320000,江苏省,25,南京市,320102,玄武区,4818065310,1977,大行宫,2022-07-20 10:52:00,"{""rating"": [], ""cost"": []}",公共设施,紧急避难场所,紧急避难场所,,118.790124,32.045491,118.78493080576304,32.047553674771194
4848e33f-d631-3513-af6d-f29e322619e7,应急掩蔽场所,公共设施;紧急避难场所;紧急避难场所,200400,柳叶街131-5号附近,"118.773435,32.025323",[],320000,江苏省,25,南京市,320104,秦淮区,4818063102,1640,来凤街,2022-07-20 22:29:00,"{""rating"": [], ""cost"": []}",公共设施,紧急避难场所,紧急避难场所,,118.773435,32.025323,118.76822291425104,32.02736263059328
b85b8e0d-6496-349c-9dee-38b3adbbf728,应急掩蔽场所(游府西街),公共设施;紧急避难场所;紧急避难场所,200400,游府西街与洪武路交叉口东60米,"118.788215,32.039085",[],320000,江苏省,25,南京市,320104,秦淮区,4818064320,1100,大行宫,2023-05-04 11:21:00,"{""rating"": [], ""cost"": []}",公共设施,紧急避难场所,紧急避难场所,,118.788215,32.039085,118.7830195414039,32.04114370306163
d47aac21-9b2a-3c4f-8cab-9b4308c70b35,应急避难场所(金川门外街),公共设施;紧急避难场所;紧急避难场所,200400,金川门外街与金川门外小街交叉口东北40米,"118.758508,32.088252",[],320000,江苏省,25,南京市,320106,鼓楼区,4818160012,641,建宁路,2022-06-23 19:10:00,"{""rating"": [], ""cost"": []}",公共设施,紧急避难场所,紧急避难场所,,118.758508,32.088252,118.75328064483978,32.09029687908006
e3490da1-c927-34aa-8faa-b786370f2de9,公共厕所,公共设施;公共厕所;公共厕所,200300,共建路与002县道交叉口西200米,"118.684234,31.923832",[],320000,江苏省,25,南京市,320114,雨花台区,4718750422,1903,[],2023-04-03 14:09:00,"{""rating"": [], ""cost"": []}",公共设施,公共厕所,公共厕所,,118.684234,31.923832,118.67910590123564,31.92591052169041
b9f5bf83-ae8d-3e3a-b6e3-69f57a51fb7e,公共厕所,公共设施;公共厕所;公共厕所,200300,站前大道与纬四路交叉口北180米,"119.096415,31.678608",[],320000,江苏省,25,南京市,320117,溧水区,4719401712,1760,[],2022-08-15 22:01:00,"{""rating"": [], ""cost"": []}",公共设施,公共厕所,公共厕所,,119.096415,31.678608,119.09097237390849,31.68038544572849
d0a17984-42f0-39f4-8ceb-f4d0b1883076,公共厕所,公共设施;公共厕所;公共厕所,200300,南京汽配基地5幢(宁镇公路西),"118.895811,32.109991",[],320000,江苏省,25,南京市,320113,栖霞区,4818173101,734,尧化,2022-11-19 02:00:00,"{""rating"": [], ""cost"": []}",公共设施,公共厕所,公共厕所,,118.895811,32.109991,118.8907833938413,32.1122211061539
ca973176-4659-3b14-a36d-20cc31cbcd71,公共厕所,公共设施;公共厕所;公共厕所,200300,南浦街与静安街交叉口东北40米,"118.609091,31.866974",[],320000,江苏省,25,南京市,320115,江宁区,4718644802,1137,[],2022-09-07 19:04:00,"{""rating"": [], ""cost"": []}",公共设施,公共厕所,公共厕所,,118.609091,31.866974,118.604096199858,31.86915290358446
9a876ca1-632b-3c16-8dcc-f4fa74186cdd,中山陵游乐园公共厕所,公共设施;公共厕所;公共厕所,200300,四方城2号滑道游乐园内,"118.860499,32.055635",[],320000,江苏省,25,南京市,320102,玄武区,4818066822,791,[],2023-03-08 22:25:00,"{""rating"": [], ""cost"": []}",公共设施,公共厕所,公共厕所,,118.860499,32.055635,118.85544170882164,32.05782117602007
4dc17622-9a68-3a2a-b972-788dcedea939,白鹭洲公园-公共厕所,公共设施;公共厕所;公共厕所,200300,东关头路白鹭洲公园(东门)附近,"118.795763,32.017263",[],320000,江苏省,25,南京市,320104,秦淮区,4818062301,735,夫子庙,2022-12-29 22:10:00,"{""rating"": [], ""cost"": []}",公共设施,公共厕所,公共厕所,,118.795763,32.017263,118.79058147199676,32.01932729045722
87d1f7a0-e82e-3b3c-b8eb-0208b7568ba1,公共厕所,公共设施;公共厕所;公共厕所,200300,人民路46-1号附近,"118.811865,32.533889",[],320000,江苏省,25,南京市,320116,六合区,4818664402,72,江北新区,2022-11-19 05:25:00,"{""rating"": [], ""cost"": []}",公共设施,公共厕所,公共厕所,,118.811865,32.533889,118.80666569681684,32.53600244175119
1cba1c1c-bdfe-3971-8ef1-6258af78c8eb,公共厕所,公共设施;公共厕所;公共厕所,200300,栖霞大道18号20幢附近,"118.837779,32.118258",[],320000,江苏省,25,南京市,320113,栖霞区,4818164700,1701,[],2023-05-09 12:52:00,"{""rating"": [], ""cost"": []}",公共设施,公共厕所,公共厕所,,118.837779,32.118258,118.83267280515314,32.12041885520908
2e7a2f48-8fe5-33a4-bb44-97e48e286b7d,公共厕所,公共设施;公共厕所;公共厕所,200300,金山路与东湖南路交叉口东120米,"119.116325,31.698127",[],320000,江苏省,25,南京市,320117,溧水区,4719403920,278,东屏,2023-03-19 04:17:00,"{'rating': [], 'cost': []}",公共设施,公共厕所,公共厕所,,119.116325,31.698127,119.11088751488572,31.69991255798349
964c382a-cae7-3b6a-89ec-98f84fd2ff58,公共厕所,公共设施;公共厕所;公共厕所,200300,姜宋路南京沪江商贸城,"118.787434,32.295829",[],320000,江苏省,25,南京市,320116,六合区,4818365212,950,江北新区,2022-11-22 21:30:00,"{""rating"": [], ""cost"": []}",公共设施,公共厕所,公共厕所,,118.787434,32.295829,118.78221360088524,32.297927049894774
d21bc6a8-df2f-3633-9012-dcb1a4825cf4,公共厕所,公共设施;公共厕所;公共厕所,200300,锁金中路附近,"118.819776,32.069935",[],320000,江苏省,25,南京市,320102,玄武区,4818068511,864,板仓村,2022-09-05 10:10:00,"{""rating"": [], ""cost"": []}",公共设施,公共厕所,公共厕所,,118.819776,32.069935,118.8146360772302,32.07205210449776
bfda2561-fd05-3cf7-a47c-d26872f318e4,公共厕所,公共设施;公共厕所;公共厕所,200300,和燕路416号,"118.818871,32.118441",[],320000,江苏省,25,南京市,320113,栖霞区,4818164501,1559,迈皋桥,2023-02-01 17:59:00,"{""rating"": [], ""cost"": []}",公共设施,公共厕所,公共厕所,,118.818871,32.118441,118.81372472070127,32.12056649563507
d33c0634-f773-3ad1-8318-d2de29f542f6,公共厕所,公共设施;公共厕所;公共厕所,200300,天秤路南京理工大学紫金学院,"118.935220,32.127363",[],320000,江苏省,25,南京市,320113,栖霞区,4818175402,1825,仙林,2022-11-22 21:42:00,"{""rating"": [], ""cost"": []}",公共设施,公共厕所,公共厕所,,118.93522,32.127363,118.93015812326507,32.1295721801769
3a37864e-e3c5-3b9c-8368-5552d64ff18f,公共厕所,公共设施;公共厕所;公共厕所,200300,周旺西路与202县道交叉口东北50米,"118.940657,31.910257",[],320000,江苏省,25,南京市,320115,江宁区,4718679500,446,[],2023-04-27 11:27:00,"{'rating': [], 'cost': []}",公共设施,公共厕所,公共厕所,,118.940657,31.910257,118.93560407408428,31.91240946454756
9c24b849-db12-37e3-beab-1afb7a9d7ffa,公共厕所,公共设施;公共厕所;公共厕所,200300,金桥路与金桥南路交叉口东南40米,"118.416057,31.936956",[],320000,江苏省,25,南京市,320111,浦口区,4718732310,272,江北新区,2023-04-11 17:53:00,"{""rating"": [], ""cost"": []}",公共设施,公共厕所,公共厕所,,118.416057,31.936956,118.4105968658549,31.93878985843999
96900502-1e68-341b-b36c-ba0c2db96ad5,公共厕所(装修中),公共设施;公共厕所;公共厕所,200300,成贤街66-4号附近,"118.796062,32.049946",[],320000,江苏省,25,南京市,320102,玄武区,4818065322,1355,梅园,2022-11-22 00:52:00,"{""rating"": [], ""cost"": []}",公共设施,公共厕所,公共厕所,,118.796062,32.049946,118.79087796730578,32.05201814235268
a95956a0-ef83-3285-8109-d2b2484fd2f4,公共厕所,公共设施;公共厕所;公共厕所,200300,锥子山街与龙潭南街交叉口东北40米,"119.055250,32.167671",[],320000,江苏省,25,南京市,320113,栖霞区,4819200401,383,龙潭,2023-03-28 11:38:00,"{""rating"": [], ""cost"": []}",公共设施,公共厕所,公共厕所,,119.05525,32.167671,119.04981177845374,32.169580280176106
624bc9ed-97a3-3b94-8b88-baec59195653,公共厕所,公共设施;公共厕所;公共厕所,200300,园东路南公交站(太子山公园东南),"118.759070,32.215659",[],320000,江苏省,25,南京市,320116,六合区,4818265022,547,西厂门,2023-04-03 12:46:00,"{""rating"": [], ""cost"": []}",公共设施,公共厕所,公共厕所,,118.75907,32.215659,118.7538309917129,32.21772630894773
c2d44eb5-85d7-360c-9990-707c08eb15d2,公共厕所,公共设施;公共厕所;公共厕所,200300,西善桥交通商住楼一期(宁芜公路),"118.717662,31.958967",[],320000,江苏省,25,南京市,320114,雨花台区,4718755701,1841,西善桥,2022-12-03 17:37:00,"{""rating"": [], ""cost"": []}",公共设施,公共厕所,公共厕所,,118.717662,31.958967,118.71246933894471,31.961001141646136
82901487-89c8-3163-ab4f-59241edb4546,公共厕所,公共设施;公共厕所;公共厕所,200300,笆斗西里23-1号,"118.832505,32.148849",[],320000,江苏省,25,南京市,320113,栖霞区,4818167621,1849,[],2022-11-12 15:21:00,"{""rating"": [], ""cost"": []}",公共设施,公共厕所,公共厕所,,118.832505,32.148849,118.82738489277328,32.15100577993226
4187fc4e-59b5-386c-8fa7-34993849911a,公共厕所,公共设施;公共厕所;公共厕所,200300,寅春路与栖霞大道交叉口东北20米,"118.846071,32.120020",[],320000,江苏省,25,南京市,320113,栖霞区,4818164712,1013,[],2023-04-26 20:13:00,"{""rating"": [], ""cost"": []}",公共设施,公共厕所,公共厕所,,118.846071,32.12002,118.84098152959332,32.12219617920615
23996d03-e373-3957-9d1b-780ba008e368,将军山风景区-公共厕所(装修中),公共设施;公共厕所;公共厕所,200300,宁丹路将军山风景区内(东南角),"118.773190,31.923621",[],320000,江苏省,25,南京市,320114,雨花台区,4718760122,1987,铁心桥,2022-11-17 19:49:00,"{""rating"": [], ""cost"": []}",公共设施,公共厕所,公共厕所,,118.77319,31.923621,118.76798706215718,31.925637098143763
a3f4d474-33d9-3a8c-b165-5671bc467063,公共厕所,公共设施;公共厕所;公共厕所,200300,新润路,"118.902700,31.977415",[],320000,江苏省,25,南京市,320115,江宁区,4718777200,1744,[],2022-11-18 04:18:00,"{""rating"": [], ""cost"": []}",公共设施,公共厕所,公共厕所,,118.9027,31.977415,118.89768453946296,31.97961645196268
066713d7-6ead-3c12-bdce-c5bfcd8725c1,公共厕所,公共设施;公共厕所;公共厕所,200300,云台街与红星大道交叉口西南40米,"118.773197,31.775301",[],320000,江苏省,25,南京市,320115,江宁区,4718563102,1671,[],2023-03-20 12:40:00,"{""rating"": [], ""cost"": []}",公共设施,公共厕所,公共厕所,,118.773197,31.775301,118.76800767677736,31.77728865855622
c7986c8b-3a15-32ba-aacc-fa5fb6aad445,公共厕所,公共设施;公共厕所;公共厕所,200300,横梁街道八龙线新篁公交站西北,"118.941364,32.374788",[],320000,江苏省,25,南京市,320116,六合区,4818474520,219,江北新区,2023-04-15 16:29:00,"{""rating"": [], ""cost"": []}",公共设施,公共厕所,公共厕所,,118.941364,32.374788,118.9362671271173,32.37700940551602
6c92b4a5-c198-39c5-90a4-9d99ffd46763,公共厕所,公共设施;公共厕所;公共厕所,200300,深圳东路与中山路交叉口南40米,"118.670100,31.936632",[],320000,江苏省,25,南京市,320114,雨花台区,4718752311,1347,[],2023-04-25 14:12:00,"{""rating"": [], ""cost"": []}",公共设施,公共厕所,公共厕所,,118.6701,31.936632,118.66500187046888,31.93874022461391
c016957e-9019-36e7-b863-7d7f8ff8bf21,公共厕所,公共设施;公共厕所;公共厕所,200300,长山街道长山邮局对面附近,"118.892834,32.402345",[],320000,江苏省,25,南京市,320116,六合区,4818478101,1438,江北新区,2023-04-24 12:09:00,"{""rating"": [], ""cost"": []}",公共设施,公共厕所,公共厕所,,118.892834,32.402345,118.88777891730297,32.404598095233474
f963a46d-7801-3793-8a5b-4424435d5781,公共厕所,公共设施;公共厕所;公共厕所,200300,福景路与双岛湖路交叉口西北180米,"118.935186,31.697735",[],320000,江苏省,25,南京市,320115,江宁区,4718473422,262,[],2023-04-22 12:39:00,"{""rating"": [], ""cost"": []}",公共设施,公共厕所,公共厕所,,118.935186,31.697735,118.93016303306398,31.699861922239524
f675164e-0cc9-3115-9d9f-24548b9bfb89,公共厕所,公共设施;公共厕所;公共厕所,200300,集贸路与人民路交叉口西140米,"118.813136,32.527028",[],320000,江苏省,25,南京市,320116,六合区,4818663500,1965,江北新区,2023-04-25 15:29:00,"{""rating"": [], ""cost"": []}",公共设施,公共厕所,公共厕所,,118.813136,32.527028,118.80793992882984,32.529145422181585
a172b221-a070-3b04-a632-d4bc72fe7697,公共厕所,公共设施;公共厕所;公共厕所,200300,泰工路与沿山大道交叉口西北300米,"118.700069,32.143194",[],320000,江苏省,25,南京市,320111,浦口区,4818157600,626,江北新区,2023-03-20 22:34:00,"{""rating"": [], ""cost"": []}",公共设施,公共厕所,公共厕所,,118.700069,32.143194,118.69488841191568,32.145292842873125
99a71dd1-44de-3148-a5da-221147669d76,公共厕所,公共设施;公共厕所;公共厕所,200300,朝阳大道弘阳装饰城,"118.669040,31.934115",[],320000,江苏省,25,南京市,320114,雨花台区,4718752301,1624,[],2022-11-19 03:02:00,"{""rating"": [], ""cost"": []}",公共设施,公共厕所,公共厕所,,118.66904,31.934115,118.66394444585605,31.936224682442592
4b42496a-3691-3e63-b121-b8fcdc73f040,公共厕所,公共设施;公共厕所;公共厕所,200300,狮子桥步行街,"118.777308,32.068186",[],320000,江苏省,25,南京市,320106,鼓楼区,4818068200,1423,湖南路,2022-08-04 00:38:00,"{""rating"": [], ""cost"": []}",公共设施,公共厕所,公共厕所,,118.777308,32.068186,118.77209587464768,32.07023872929098
135c9c1f-c4bc-304b-bdb6-97f29b848235,公共厕所,公共设施;公共厕所;公共厕所,200300,码头街33号,"118.722989,32.100905",[],320000,江苏省,25,南京市,320111,浦口区,4818152702,192,江北新区,2022-11-14 18:05:00,"{""rating"": [], ""cost"": []}",公共设施,公共厕所,公共厕所,,118.722989,32.100905,118.71777643522064,32.102965217318385
2c98a6a7-8e60-3de8-92c3-69e7c6d9b330,公厕,公共设施;公共厕所;公共厕所,200300,猴横线和大肖线的交叉口附近,"118.956410,32.325883",[],320000,江苏省,25,南京市,320116,六合区,4818379601,237,江北新区,2023-04-26 13:17:00,"{""rating"": [], ""cost"": []}",公共设施,公共厕所,公共厕所,,118.95641,32.325883,118.9512802241889,32.32807456710163
f1a1a3b5-015b-337f-ae3f-3063b82464bc,公共厕所,公共设施;公共厕所;公共厕所,200300,东虹路与双塘街交叉口东南40米,"118.633488,31.788815",[],320000,江苏省,25,南京市,320115,江宁区,4718554012,1553,[],2023-04-28 11:25:00,"{""rating"": [], ""cost"": []}",公共设施,公共厕所,公共厕所,,118.633488,31.788815,118.6284750704453,31.79095665490984
bf22b5f6-e8e1-3f32-8828-9b94c50641c2,公共厕所,公共设施;公共厕所;公共厕所,200300,西河沿街东150米,"118.531721,31.939589",[],320000,江苏省,25,南京市,320111,浦口区,4718742221,542,江北新区,2022-07-14 12:39:00,"{""rating"": [], ""cost"": []}",公共设施,公共厕所,公共厕所,,118.531721,31.939589,118.52660455687958,31.941693909143662
1c8da4c2-4c5f-3b52-9953-340d07eb45cf,公共厕所,公共设施;公共厕所;公共厕所,200300,张家沟社区卫生服务站南侧,"118.784640,31.322110",[],320000,江苏省,25,南京市,320118,高淳区,4618768212,562,[],2022-07-20 16:22:00,"{""rating"": [], ""cost"": []}",公共设施,公共厕所,公共厕所,,118.78464,31.32211,118.7795047713212,31.32415311015233
dd346caf-3b34-358e-a65c-960a62988059,钟山风景区-公共厕所,公共设施;公共厕所;公共厕所,200300,中山门外石象路7号钟山风景区内,"118.854107,32.059491",[],320000,江苏省,25,南京市,320102,玄武区,4818067800,1080,[],2022-09-13 21:30:00,"{""rating"": [], ""cost"": []}",公共设施,公共厕所,公共厕所,,118.854107,32.059491,118.84903830580905,32.06166811678187
a5033aa5-7a4f-3155-8af5-b10579c258ed,公共厕所,公共设施;公共厕所;公共厕所,200300,营太线与营防街交叉口东60米,"119.130095,32.220075",[],320000,江苏省,25,南京市,320113,栖霞区,4819216011,1020,靖安,2023-03-17 12:33:00,"{""rating"": [], ""cost"": []}",公共设施,公共厕所,公共厕所,,119.130095,32.220075,119.1246232947376,32.22197128898627
71c299fc-76d1-3a8d-8281-a557e8997a6a,公共厕所(乌龙潭公园)(装修中),公共设施;公共厕所;公共厕所,200300,龙蟠里16号,"118.765143,32.045590",[],320000,江苏省,25,南京市,320106,鼓楼区,4818065110,1091,汉中门,2023-04-21 15:05:00,"{""rating"": [], ""cost"": []}",公共设施,公共厕所,公共厕所,,118.765143,32.04559,118.75992264706512,32.04762842782279
01206e92-ce2a-307d-b94d-c238f1f65d4e,钟山风景区-公共厕所,公共设施;公共厕所;公共厕所,200300,中山门外石象路7号中山陵园风景区内,"118.867557,32.057307",[],320000,江苏省,25,南京市,320102,玄武区,4818066921,1400,[],2023-03-09 16:14:00,"{""rating"": [], ""cost"": []}",公共设施,公共厕所,公共厕所,,118.867557,32.057307,118.86251036902692,32.05950331740792
b8c82da6-9a59-385a-b521-9b4839b6f097,公共厕所,公共设施;公共厕所;公共厕所,200300,孝陵卫街道,"118.862253,32.031071",[],320000,江苏省,25,南京市,320102,玄武区,4818063822,1878,孝陵卫,2022-08-04 15:49:00,"{""rating"": [], ""cost"": []}",公共设施,公共厕所,公共厕所,,118.862253,32.031071,118.85720077230586,32.03325421274757
3261a3ad-7d8a-3278-ab33-983d5e43c45a,公共厕所,公共设施;公共厕所;公共厕所,200300,凤台南路168号,"118.748080,31.991297",[],320000,江苏省,25,南京市,320114,雨花台区,4718758922,1501,小行,2022-11-22 21:30:00,"{""rating"": [], ""cost"": []}",公共设施,公共厕所,公共厕所,,118.74808,31.991297,118.74286067507153,31.9933190241766
063da598-ae5f-3296-8412-129b40b0e96b,钟山风景区-公共厕所,公共设施;公共厕所;公共厕所,200300,石象路中山陵园风景区,"118.839259,32.048214",[],320000,江苏省,25,南京市,320102,玄武区,4818065720,1551,[],2023-03-16 15:21:00,"{""rating"": [], ""cost"": []}",公共设施,公共厕所,公共厕所,,118.839259,32.048214,118.83416228137315,32.05036275960287
