id,name,type,typecode,address,tel,pcode,pname,citycode,cityname,adcode,adname,bigType,midType,smallType,lon_gcj02,lat_gcj02,lon_wgs84,lat_wgs84
B073D00D8D,澳门澳莱大三元酒店,住宿服务;宾馆酒店;三星级宾馆|餐饮服务;中餐厅;中餐厅,100104|050100,白眼塘横街(福隆下街)43-45号,00853-28938818,820000,澳门特别行政区,1853,澳门特别行政区,820005,风顺堂区,住宿服务,宾馆酒店,三星级宾馆|餐饮服务,113.542533,22.192201,113.53741144555704,22.195123589342053
B0KDY1VEPF,太阳饭店Sun Chinese Restaurant,住宿服务;宾馆酒店;宾馆酒店|餐饮服务;餐饮相关场所;餐饮相关,100100|050000,"地堡街No.21号,Chun Fok Village(wai Heng Kok)",00853-28576620,820000,澳门特别行政区,1853,澳门特别行政区,820006,嘉模堂区,住宿服务,宾馆酒店,宾馆酒店|餐饮服务,113.559831,22.148378,113.55475838098371,22.151322066756823
B0JK1CJSEQ,澳门客如云,住宿服务;宾馆酒店;宾馆酒店|餐饮服务;中餐厅;中餐厅,100100|050100,黑沙环第六街与高利亚海军上将大马路交叉口西北80米,[],820000,澳门特别行政区,1853,澳门特别行政区,820001,花地玛堂区,住宿服务,宾馆酒店,宾馆酒店|餐饮服务,113.557055,22.205699,113.55197205419844,22.20865869947399
B0JK1CH8M4,鑫钜园商务旅行,住宿服务;旅馆招待所;旅馆招待所|生活服务;生活服务场所;生活服务场所,100200|070000,比厘喇马忌士街与盐巷交叉口北40米,[],820000,澳门特别行政区,1853,澳门特别行政区,820005,风顺堂区,住宿服务,旅馆招待所,旅馆招待所|生活服务,113.538121,22.188509,113.53298635654905,22.191419127932875
B0JK3ZF8NF,荣光文旅,住宿服务;旅馆招待所;旅馆招待所|生活服务;生活服务场所;生活服务场所,100200|070000,万安街道红树林文创园2期C栋3楼,[],820000,澳门特别行政区,1853,澳门特别行政区,820001,花地玛堂区,住宿服务,旅馆招待所,旅馆招待所|生活服务,113.553914,22.209628,113.54882289553647,22.212582630773785
B073D0MEF4,澳门文华东方酒店大堂酒廊,住宿服务;宾馆酒店;宾馆酒店|体育休闲服务;娱乐场所;酒吧,100100|080304,孙逸仙大马路路凼城澳门特别行政区,[],820000,澳门特别行政区,1853,澳门特别行政区,820004,大堂区,住宿服务,宾馆酒店,宾馆酒店|体育休闲服务,113.552058,22.181387,113.54696385672254,22.18432779041821
B073D00D8D,澳门澳莱大三元酒店,住宿服务;宾馆酒店;三星级宾馆|餐饮服务;中餐厅;中餐厅,100104|050100,白眼塘横街(福隆下街)43-45号,00853-28938818,820000,澳门特别行政区,1853,澳门特别行政区,820005,风顺堂区,住宿服务,宾馆酒店,三星级宾馆|餐饮服务,113.542533,22.192201,113.53741144555704,22.195123589342053
B0KDY1VEPF,太阳饭店Sun Chinese Restaurant,住宿服务;宾馆酒店;宾馆酒店|餐饮服务;餐饮相关场所;餐饮相关,100100|050000,"地堡街No.21号,Chun Fok Village(wai Heng Kok)",00853-28576620,820000,澳门特别行政区,1853,澳门特别行政区,820006,嘉模堂区,住宿服务,宾馆酒店,宾馆酒店|餐饮服务,113.559831,22.148378,113.55475838098371,22.151322066756823
B0JK1CH8M4,鑫钜园商务旅行,住宿服务;旅馆招待所;旅馆招待所|生活服务;生活服务场所;生活服务场所,100200|070000,比厘喇马忌士街与盐巷交叉口北40米,[],820000,澳门特别行政区,1853,澳门特别行政区,820005,风顺堂区,住宿服务,旅馆招待所,旅馆招待所|生活服务,113.538121,22.188509,113.53298635654905,22.191419127932875
B0JK3ZF8NF,荣光文旅,住宿服务;旅馆招待所;旅馆招待所|生活服务;生活服务场所;生活服务场所,100200|070000,万安街道红树林文创园2期C栋3楼,[],820000,澳门特别行政区,1853,澳门特别行政区,820001,花地玛堂区,住宿服务,旅馆招待所,旅馆招待所|生活服务,113.553914,22.209628,113.54882289553647,22.212582630773785
B073D0MEF4,澳门文华东方酒店大堂酒廊,住宿服务;宾馆酒店;宾馆酒店|体育休闲服务;娱乐场所;酒吧,100100|080304,孙逸仙大马路路凼城澳门特别行政区,[],820000,澳门特别行政区,1853,澳门特别行政区,820004,大堂区,住宿服务,宾馆酒店,宾馆酒店|体育休闲服务,113.552058,22.181387,113.54696385672254,22.18432779041821
B0JK1CH169,岐关大酒店商场,住宿服务;宾馆酒店;宾馆酒店,100100,何贤绅士大马路与关闸广场交叉口北180米,[],820000,澳门特别行政区,1853,澳门特别行政区,820001,花地玛堂区,住宿服务,宾馆酒店,宾馆酒店,113.555672,22.213728,113.55058510530866,22.216687633028208
B073D0MN3T,澳门港湾大酒店,住宿服务;住宿服务相关;住宿服务相关,100000,澳门半岛林茂巷8号,[],820000,澳门特别行政区,1853,澳门特别行政区,820002,花王堂区,住宿服务,住宿服务相关,住宿服务相关,113.54271,22.199648,113.53758849076608,22.20257363142763
B073D0M35M,澳门凯旋门酒店,住宿服务;宾馆酒店;五星级宾馆,100102,城市日大马路278号,00853-28808888,820000,澳门特别行政区,1853,澳门特别行政区,820004,大堂区,住宿服务,宾馆酒店,五星级宾馆,113.553655,22.185633,113.54856476090576,22.1885787284744
B0FFFEGLXB,澳门镇兴宾馆,住宿服务;宾馆酒店;宾馆酒店,100100,哪咤庙斜巷4-8号刘陈秀琼商业中心,[],820000,澳门特别行政区,1853,澳门特别行政区,820004,大堂区,住宿服务,宾馆酒店,宾馆酒店,113.547266,22.192043,113.54215810615922,22.19497686500509
B0FFH887YL,澳门美高梅酒店,住宿服务;宾馆酒店;五星级宾馆,100102,"澳门外港新填海区孙逸仙大马路,近城市日大马路",00853-88028888,820000,澳门特别行政区,1853,澳门特别行政区,820004,大堂区,住宿服务,宾馆酒店,五星级宾馆,113.55298,22.182944,113.54788817917142,22.185887331282032
B073D00BGB,澳门总统酒店,住宿服务;宾馆酒店;四星级宾馆,100103,"友谊大马路355号,近广州街",00853-28553888,820000,澳门特别行政区,1853,澳门特别行政区,820004,大堂区,住宿服务,宾馆酒店,四星级宾馆,113.552025,22.187339,113.54693038897707,22.190281863024044
B0FFFAEM0A,永利皇宫,住宿服务;宾馆酒店;五星级宾馆,100102,澳门路氹体育馆大马路西50米,[],820000,澳门特别行政区,1853,澳门特别行政区,820007,路氹填海区,住宿服务,宾馆酒店,五星级宾馆,113.576099,22.144773,113.57105921308406,22.14774077296671
B0G03NGZ8R,澳门五洋酒店,住宿服务;宾馆酒店;宾馆酒店,100100,火船头街179号,[],820000,澳门特别行政区,1853,澳门特别行政区,820005,风顺堂区,住宿服务,宾馆酒店,宾馆酒店,113.541214,22.191647,113.53608855509052,22.19456611659553
B073D00II7,澳门东亚酒店,住宿服务;宾馆酒店;宾馆酒店,100100,新埗头街1号a,00853-28775555;00853-28922433,820000,澳门特别行政区,1853,澳门特别行政区,820004,大堂区,住宿服务,宾馆酒店,宾馆酒店,113.542414,22.193569,113.53729200569634,22.1964917782526
B073D00JRS,新中央酒店,住宿服务;宾馆酒店;宾馆酒店,100100,亚美打利庇卢大马路264-270号,00853-28286668;00853-28372404,820000,澳门特别行政区,1853,澳门特别行政区,820004,大堂区,住宿服务,宾馆酒店,宾馆酒店,113.544252,22.191281,113.53913554321323,22.194207458356235
B0J32SBD8Y,澳门家欣宾馆(草堆街店),住宿服务;宾馆酒店;宾馆酒店,100100,澳门半岛草堆街46-50号·手肘里1号,13923395675,820000,澳门特别行政区,1853,澳门特别行政区,820004,大堂区,住宿服务,宾馆酒店,宾馆酒店,113.54401,22.193403,113.53889270327656,22.19632962264176
B0FFLI7I6M,澳门家圆宾馆,住宿服务;宾馆酒店;宾馆酒店,100100,鱼鳞巷12-12A ,00853-28823629,820000,澳门特别行政区,1853,澳门特别行政区,820002,花王堂区,住宿服务,宾馆酒店,宾馆酒店,113.542916,22.198624,113.53779516393074,22.201549782223605
B0FFL8OTSJ,锦江之星澳门关口酒店,住宿服务;住宿服务相关;住宿服务相关,100000,菜园涌北街128-136号(澳门大厦A座旁),00853-28261740,820000,澳门特别行政区,1853,澳门特别行政区,820001,花地玛堂区,住宿服务,住宿服务相关,住宿服务相关,113.550334,22.211119,113.54523334407338,22.21406640769216
B0KKGG0BZ8,青洲坊大厦第3座,住宿服务;住宿服务相关;住宿服务相关,100000,青洲大马路,[],820000,澳门特别行政区,1853,澳门特别行政区,820001,花地玛堂区,住宿服务,住宿服务相关,住宿服务相关,113.548831,22.208524,113.5437264056358,22.211467158995404
B0K3MZTDMB,(3.Fase)-Edf.Mayfair Garden(Bloco 1),住宿服务;住宿服务相关;住宿服务相关,100000,和乐大马路(3Fase)-edfMayfair Garden(bloco 1),[],820000,澳门特别行政区,1853,澳门特别行政区,820001,花地玛堂区,住宿服务,住宿服务相关,住宿服务相关,113.548266,22.207319,113.54315991992584,22.21026046295893
B0K3MZS41F,美居商场-新胜阁,住宿服务;住宿服务相关;住宿服务相关,100000,"青洲大马路501号,Edificio Mei Kui Kuong Cheong",[],820000,澳门特别行政区,1853,澳门特别行政区,820001,花地玛堂区,住宿服务,住宿服务相关,住宿服务相关,113.547637,22.207785,113.54252913754314,22.21072517532166
B0K3MZMCDS,泉喜花园,住宿服务;住宿服务相关;住宿服务相关,100000,鸭涌巷Chun Hei Garden,[],820000,澳门特别行政区,1853,澳门特别行政区,820001,花地玛堂区,住宿服务,住宿服务相关,住宿服务相关,113.544801,22.209505,113.53968496486914,22.212439082319428
B0K3MZLBC0,宏泰工业大厦,住宿服务;住宿服务相关;住宿服务相关,100000,青洲街Edificio Industrial Wan Tai,[],820000,澳门特别行政区,1853,澳门特别行政区,820001,花地玛堂区,住宿服务,住宿服务相关,住宿服务相关,113.548755,22.206966,113.54365029582218,22.209908458101093
B0K3MZI5TW,青洲社屋(青雅楼),住宿服务;住宿服务相关;住宿服务相关,100000,青洲河边马路与青洲新马路交叉口西南80米,[],820000,澳门特别行政区,1853,澳门特别行政区,820001,花地玛堂区,住宿服务,住宿服务相关,住宿服务相关,113.542822,22.209834,113.53770016757068,22.212763389232112
B0K2RAF8DY,Tcharge,住宿服务;住宿服务相关;住宿服务相关,100000,天竹巷,00853-62010948,820000,澳门特别行政区,1853,澳门特别行政区,820001,花地玛堂区,住宿服务,住宿服务相关,住宿服务相关,113.541056,22.208592,113.53592899358802,22.21151658583072
B0K2DRFPGS,东方海岸(第二座),住宿服务;住宿服务相关;住宿服务相关,100000,俾若翰街C地段,[],820000,澳门特别行政区,1853,澳门特别行政区,820001,花地玛堂区,住宿服务,住宿服务相关,住宿服务相关,113.543293,22.203041,113.53817298900064,22.205969231427023
B0K1VRNM7P,绿洲(第一座),住宿服务;住宿服务相关;住宿服务相关,100000,"Tower 1m Green Island,Rda Ilha Verde,Macao",[],820000,澳门特别行政区,1853,澳门特别行政区,820001,花地玛堂区,住宿服务,住宿服务相关,住宿服务相关,113.541056,22.206582,113.5359291226604,22.209505903942485
B0JRAAHAOG,锦江之星澳门关口酒店大堂,住宿服务;住宿服务相关;住宿服务相关,100000,菜园涌北街与菜园涌巷交叉口西20米,[],820000,澳门特别行政区,1853,澳门特别行政区,820001,花地玛堂区,住宿服务,住宿服务相关,住宿服务相关,113.550287,22.211088,113.54518621888394,22.21403529292341
B0JK1CK791,我们这一家,住宿服务;住宿服务相关;住宿服务相关,100000,和乐大马路与青洲街交叉口东南20米,[],820000,澳门特别行政区,1853,澳门特别行政区,820001,花地玛堂区,住宿服务,住宿服务相关,住宿服务相关,113.548486,22.206271,113.54338059689216,22.20921260928565
B0FFHWSHAY,平民大厦温暖之家,住宿服务;住宿服务相关;住宿服务相关,100000,Moradias Economicas Bloco De Realojamento A,[],820000,澳门特别行政区,1853,澳门特别行政区,820001,花地玛堂区,住宿服务,住宿服务相关,住宿服务相关,113.552494,22.211058,113.54739910851428,22.214010101550045
B073D00DXO,澳门富华酒店,住宿服务;宾馆酒店;三星级宾馆,100104,澳门澳门半岛俾利喇街98-102号,00853-28553838,820000,澳门特别行政区,1853,澳门特别行政区,820002,花王堂区,住宿服务,宾馆酒店,三星级宾馆,113.551902,22.199367,113.54680629420052,22.20231383379603
B0FFF6YK1H,澳门天丽宾馆,住宿服务;宾馆酒店;宾馆酒店,100100,澳门半岛贾伯乐提督街77-A号1-4楼,[],820000,澳门特别行政区,1853,澳门特别行政区,820003,望德堂区,住宿服务,宾馆酒店,宾馆酒店,113.550774,22.196845,113.54567544442344,22.199788491198213
B0FFGCCFTB,澳门假期酒店,住宿服务;宾馆酒店;宾馆酒店,100100,镜湖马路,00853-28350161,820000,澳门特别行政区,1853,澳门特别行政区,820003,望德堂区,住宿服务,宾馆酒店,宾馆酒店,113.548731,22.194691,113.5436270156052,22.197629162778448
B073D00LMG,澳门富城宾馆,住宿服务;宾馆酒店;三星级宾馆,100104,澳门半岛新马路579/583号,[],820000,澳门特别行政区,1853,澳门特别行政区,820005,风顺堂区,住宿服务,宾馆酒店,三星级宾馆,113.54193,22.193099,113.53680659943262,22.19602041437636
B073D00M5A,澳门十六浦索菲特大酒店,住宿服务;宾馆酒店;五星级宾馆,100102,巴素打尔古街内港12A号-20号码头之间,00853-88610016;00853-88617305,820000,澳门特别行政区,1853,澳门特别行政区,820004,大堂区,住宿服务,宾馆酒店,五星级宾馆,113.541088,22.194259,113.53596200976564,22.19717872207197
B073D00JH5,澳门豪华宾馆,住宿服务;宾馆酒店;宾馆酒店,100100,沙梨头海边街86-D2层,[],820000,澳门特别行政区,1853,澳门特别行政区,820002,花王堂区,住宿服务,宾馆酒店,宾馆酒店,113.544729,22.199814,113.53961337829946,22.202744595675952
B073D00B92,皇都酒店,住宿服务;宾馆酒店;五星级宾馆,100102,得胜马路2-4号,00853-28552222,820000,澳门特别行政区,1853,澳门特别行政区,820003,望德堂区,住宿服务,宾馆酒店,五星级宾馆,113.55231,22.193155,113.54721576942768,22.1961005425382
B0KU3UM3J5,新东方商务宾馆北座,住宿服务;宾馆酒店;宾馆酒店,100100,澳门半岛亚美打利庇卢大马路(新马路)502号,00853-28777333,820000,澳门特别行政区,1853,澳门特别行政区,820004,大堂区,住宿服务,宾馆酒店,宾馆酒店,113.542481,22.19285,113.53735925011664,22.195772690215183
B0FFHWSA3A,澳门卡尔酒店,住宿服务;住宿服务相关;住宿服务相关,100000,半岛圣安多尼堂区海边新街96-126号,00853-28250108;00853-63487101,820000,澳门特别行政区,1853,澳门特别行政区,820002,花王堂区,住宿服务,住宿服务相关,住宿服务相关,113.542395,22.195046,113.53727285468386,22.19796925039582
B0JBN12FS6,澳门莲居宾馆,住宿服务;宾馆酒店;宾馆酒店,100100,澳门特别行政区花王堂区关前正街32及36号,00853-28351358,820000,澳门特别行政区,1853,澳门特别行政区,820002,花王堂区,住宿服务,宾馆酒店,宾馆酒店,113.544904,22.193474,113.5397892900348,22.196402800564204
B0JBT777PU,澳门家欣宾馆(美基街店),住宿服务;宾馆酒店;宾馆酒店,100100,美基街15A号,00853-28702701,820000,澳门特别行政区,1853,澳门特别行政区,820002,花王堂区,住宿服务,宾馆酒店,宾馆酒店,113.542314,22.194226,113.53719166733327,22.19714876235444
B0G0P7F351,城市客栈(十月初五日街店),住宿服务;旅馆招待所;旅馆招待所,100200,十月初五日街126-130号,00853-28717668,820000,澳门特别行政区,1853,澳门特别行政区,820004,大堂区,住宿服务,旅馆招待所,旅馆招待所,113.542662,22.193629,113.53754073517548,22.1965524107499
B0JAXM2FVK,澳门家欣宾馆(庇山耶街店),住宿服务;宾馆酒店;宾馆酒店,100100,庇山耶街11号-13号及陈家里2号,13923395675,820000,澳门特别行政区,1853,澳门特别行政区,820004,大堂区,住宿服务,宾馆酒店,宾馆酒店,113.544372,22.193146,113.53925577202054,22.19607340676808
B0JUFRUY1J,澳门国际酒店,住宿服务;住宿服务相关;住宿服务相关,100000,亚美打利庇卢大马路612号及通商新街5号,00853-28232888,820000,澳门特别行政区,1853,澳门特别行政区,820004,大堂区,住宿服务,住宿服务相关,住宿服务相关,113.541798,22.193536,113.53667417844731,22.19645724036025
B073D00II2,嘉明别墅,住宿服务;旅馆招待所;旅馆招待所,100200,新埗头街7号金豪大厦2-3层,00853-28308984;00853-28921959,820000,澳门特别行政区,1853,澳门特别行政区,820004,大堂区,住宿服务,旅馆招待所,旅馆招待所,113.54283,22.193265,113.5377092542514,22.19618869568745
B073D00DWP,New Golden Gate,住宿服务;宾馆酒店;宾馆酒店,100100,雅廉访大马路76号一楼C1和二楼E2及F2金门大厦,00853-28550430;00853-66380221,820000,澳门特别行政区,1853,澳门特别行政区,820002,花王堂区,住宿服务,宾馆酒店,宾馆酒店,113.552072,22.201824,113.54697658692004,22.204772050890096
B0FFGBITSI,马可菠萝酒店,住宿服务;宾馆酒店;宾馆酒店,100100,亚丰素雅布基街与连胜马路交叉口南20米,[],820000,澳门特别行政区,1853,澳门特别行政区,820002,花王堂区,住宿服务,宾馆酒店,宾馆酒店,113.549149,22.197545,113.54404598352042,22.200485108308
B0FFFHVSAN,珠海海洋王国度假酒店,住宿服务;宾馆酒店;宾馆酒店,100100,澳门半岛横琴,[],820000,澳门特别行政区,1853,澳门特别行政区,820002,花王堂区,住宿服务,宾馆酒店,宾馆酒店,113.550954,22.198233,113.54585583912989,22.201177371188983
B0FFF4VSJN,十六浦度假村酒店,住宿服务;宾馆酒店;宾馆酒店,100100,半岛内港巴素打尔古街十六浦,18928051706,820000,澳门特别行政区,1853,澳门特别行政区,820004,大堂区,住宿服务,宾馆酒店,宾馆酒店,113.541196,22.194175,113.53607033892456,22.19709496310638
B073D00I1V,富丽宾馆,住宿服务;宾馆酒店;宾馆酒店,100100,通商新街11号,[],820000,澳门特别行政区,1853,澳门特别行政区,820004,大堂区,住宿服务,宾馆酒店,宾馆酒店,113.541888,22.193601,113.5367644422504,22.196522486921413
B0KU59OP6H,The Arch,住宿服务;宾馆酒店;宾馆酒店,100100,罗德礼将军街与沙嘉都喇贾罢丽街交叉口东20米,[],820000,澳门特别行政区,1853,澳门特别行政区,820003,望德堂区,住宿服务,宾馆酒店,宾馆酒店,113.551483,22.196775,113.54638634677906,22.199720021227247
B0KU19Q6ET,Aparente Mae an,住宿服务;宾馆酒店;宾馆酒店,100100,"5GXV+GH2,Macao",[],820000,澳门特别行政区,1853,澳门特别行政区,820002,花王堂区,住宿服务,宾馆酒店,宾馆酒店,113.548996,22.19582,113.54389267347568,22.19875915975999
B0KDY9XLSS,Iron building in Macao,住宿服务;宾馆酒店;宾馆酒店,100100,"5GXP+7WX,Inner Harbour,Macao",[],820000,澳门特别行政区,1853,澳门特别行政区,820002,花王堂区,住宿服务,宾馆酒店,宾馆酒店,113.542467,22.195307,113.53734505107278,22.19823051963337
B0K6UKOO1Q,宜尚酒店,住宿服务;宾馆酒店;宾馆酒店,100100,西河街道嘉福大厦5楼,[],820000,澳门特别行政区,1853,澳门特别行政区,820002,花王堂区,住宿服务,宾馆酒店,宾馆酒店,113.546145,22.192734,113.54103389288208,22.195665487639445
B0K67N1S18,唐庭宾馆,住宿服务;宾馆酒店;宾馆酒店,100100,大庆路938号志明楼,[],820000,澳门特别行政区,1853,澳门特别行政区,820002,花王堂区,住宿服务,宾馆酒店,宾馆酒店,113.546309,22.195595,113.54119817575256,22.198527879403603
B0K3DZQU7O,Family Inn,住宿服务;宾馆酒店;宾馆酒店,100100,"Rua de Miguel Aires,No.15A,China",00853-28702701,820000,澳门特别行政区,1853,澳门特别行政区,820002,花王堂区,住宿服务,宾馆酒店,宾馆酒店,113.54234,22.194315,113.53721773866796,22.197237857889203
B0K2RAE5WZ,Hospitality,住宿服务;宾馆酒店;宾馆酒店,100100,新胜街与贾伯乐提督圆形地交叉口东南20米,00853-68576355,820000,澳门特别行政区,1853,澳门特别行政区,820003,望德堂区,住宿服务,宾馆酒店,宾馆酒店,113.548744,22.195083,113.5436400263836,22.19802132987652
B0K2796AT3,莲居House of Lotus,住宿服务;宾馆酒店;宾馆酒店,100100,关前正街,00853-28351358,820000,澳门特别行政区,1853,澳门特别行政区,820002,花王堂区,住宿服务,宾馆酒店,宾馆酒店,113.544835,22.193547,113.53972008624218,22.196475660970805
B0JRYCBZ2A,皇都酒店大堂,住宿服务;宾馆酒店;五星级宾馆,100102,得胜马路与东望洋斜巷交叉口东北40米,[],820000,澳门特别行政区,1853,澳门特别行政区,820003,望德堂区,住宿服务,宾馆酒店,五星级宾馆,113.552194,22.19318,113.54709946196948,22.196125301524773
B0JRYC8RQ9,家圆宾馆大堂,住宿服务;宾馆酒店;宾馆酒店,100100,鱼鳞巷与沙梨头海边街交叉口东南20米,[],820000,澳门特别行政区,1853,澳门特别行政区,820002,花王堂区,住宿服务,宾馆酒店,宾馆酒店,113.542906,22.198606,113.53778513562618,22.20153175142495
B0JRYABPPZ,澳门十六浦索菲特大酒店大堂,住宿服务;宾馆酒店;五星级宾馆,100102,巴素打尔古街与美基街交叉口西40米,[],820000,澳门特别行政区,1853,澳门特别行政区,820004,大堂区,住宿服务,宾馆酒店,五星级宾馆,113.541388,22.194209,113.53626291149898,22.197129455243005
B0JRY78CET,澳门富华酒店大堂,住宿服务;宾馆酒店;三星级宾馆,100104,俾利喇街与飞能便度街交叉口东北40米,[],820000,澳门特别行政区,1853,澳门特别行政区,820002,花王堂区,住宿服务,宾馆酒店,三星级宾馆,113.551914,22.199406,113.54681832349614,22.20235287330923
B0JK1CJGPE,高士德宾馆,住宿服务;宾馆酒店;宾馆酒店,100100,高地乌街与高士德大马路交叉口南40米,[],820000,澳门特别行政区,1853,澳门特别行政区,820002,花王堂区,住宿服务,宾馆酒店,宾馆酒店,113.5526,22.199091,113.547506152386,22.20203924130224
B0IRHRU3EE,Perfect Family Inn,住宿服务;宾馆酒店;宾馆酒店,100100,"Rua Da Ribeira Do Patane No.32,中国",00853-28702701,820000,澳门特别行政区,1853,澳门特别行政区,820002,花王堂区,住宿服务,宾馆酒店,宾馆酒店,113.543954,22.199649,113.53883613961008,22.20257766945196
B0JRCY6334,多米精品酒店,住宿服务;宾馆酒店;宾馆酒店,100100,史山斜巷12号码,00853-28788662,820000,澳门特别行政区,1853,澳门特别行政区,820004,大堂区,住宿服务,宾馆酒店,宾馆酒店,113.546844,22.192861,113.54173486560065,22.19579417168687
B0FFISN7TD,澳门怡富酒店,住宿服务;住宿服务相关;住宿服务相关,100000,澳门半岛燕主教街8号,00853-28920332,820000,澳门特别行政区,1853,澳门特别行政区,820002,花王堂区,住宿服务,住宿服务相关,住宿服务相关,113.542223,22.19452,113.5371003786579,22.197442640610404
B0KRBZVQ8T,高士德别墅,住宿服务;住宿服务相关;住宿服务相关,100000,高士德大马路11号二楼D,00853-66561176,820000,澳门特别行政区,1853,澳门特别行政区,820002,花王堂区,住宿服务,住宿服务相关,住宿服务相关,113.547525,22.20207,113.54241719025872,22.205007963653934
B0JK1CHVUE,安栈号,住宿服务;旅馆招待所;旅馆招待所,100200,十月初五日街与皇子街交叉口南20米,[],820000,澳门特别行政区,1853,澳门特别行政区,820002,花王堂区,住宿服务,旅馆招待所,旅馆招待所,113.542902,22.19471,113.53778137376246,22.197634380718075
B0FFFEEJ0P,澳门5步廊旅舍,住宿服务;住宿服务相关;住宿服务相关,100000,贡士旦甸奴街8号,00853-28923118,820000,澳门特别行政区,1853,澳门特别行政区,820004,大堂区,住宿服务,住宿服务相关,住宿服务相关,113.541892,22.193668,113.53676844985593,22.19658952044321
B073D00F49,澳门高士德别墅,住宿服务;旅馆招待所;旅馆招待所,100200,高士德大马路11-D号高运大厦2层D,00853-28526176,820000,澳门特别行政区,1853,澳门特别行政区,820002,花王堂区,住宿服务,旅馆招待所,旅馆招待所,113.552632,22.198981,113.54753824337902,22.20192927162704
B0KRAAAIBK,澳门家欣宾馆(康公庙店)FAMILY Inn(Hong Kung Temple),住宿服务;住宿服务相关;住宿服务相关,100000,海边新街233-237号及十月初五日街120-122号,[],820000,澳门特别行政区,1853,澳门特别行政区,820004,大堂区,住宿服务,住宿服务相关,住宿服务相关,113.542712,22.193903,113.53759086522606,22.19682663021748
B0FFJ9J3HM,恋爱七号旅馆,住宿服务;旅馆招待所;旅馆招待所,100200,恋爱巷7号,[],820000,澳门特别行政区,1853,澳门特别行政区,820002,花王堂区,住宿服务,旅馆招待所,旅馆招待所,113.545555,22.194293,113.54044210875702,22.19722364105527
B0LBAZ9V70,Abdhi Febriant,住宿服务;住宿服务相关;住宿服务相关,100000,"Rde Sacadura Cabral,Macao",[],820000,澳门特别行政区,1853,澳门特别行政区,820003,望德堂区,住宿服务,住宿服务相关,住宿服务相关,113.551416,22.196746,113.546319170047,22.199690864942035
B0L6NSPCAJ,耀辉大厦,住宿服务;住宿服务相关;住宿服务相关,100000,"飞能便度街7号,Edificio Iu Fai",[],820000,澳门特别行政区,1853,澳门特别行政区,820002,花王堂区,住宿服务,住宿服务相关,住宿服务相关,113.550546,22.200687,113.54544658448924,22.20363132229929
B0KU59R1ZB,Home,住宿服务;住宿服务相关;住宿服务相关,100000,圣庇道街与大兴街交叉口东北20米,[],820000,澳门特别行政区,1853,澳门特别行政区,820002,花王堂区,住宿服务,住宿服务相关,住宿服务相关,113.546524,22.19993,113.54141350783208,22.202864894005785
B0KU59L2Q5,My home,住宿服务;住宿服务相关;住宿服务相关,100000,"Andar A,Rua de Sacadura Cabral,No.76,EdfVang Cheong,1,Macao",[],820000,澳门特别行政区,1853,澳门特别行政区,820002,花王堂区,住宿服务,住宿服务相关,住宿服务相关,113.549838,22.197948,113.54473684131452,22.2008897973787
B0KRNZCQUE,Kerjaanku,住宿服务;住宿服务相关;住宿服务相关,100000,大三巴右街与大三巴巷交叉口西北20米,[],820000,澳门特别行政区,1853,澳门特别行政区,820002,花王堂区,住宿服务,住宿服务相关,住宿服务相关,113.545683,22.193867,113.54057050239548,22.196797794949173
B0KKZPBRSW,裕华花园大厦(正门),住宿服务;住宿服务相关;住宿服务相关,100000,大兴街,[],820000,澳门特别行政区,1853,澳门特别行政区,820002,花王堂区,住宿服务,住宿服务相关,住宿服务相关,113.546639,22.198519,113.54152892382588,22.20145367380765
B0KKSP3FQI,金门大厦,住宿服务;住宿服务相关;住宿服务相关,100000,飞能便度街26号,[],820000,澳门特别行政区,1853,澳门特别行政区,820002,花王堂区,住宿服务,住宿服务相关,住宿服务相关,113.551079,22.199607,113.54598108632396,22.202552122838924
B0KKMPF1A1,广悦居,住宿服务;住宿服务相关;住宿服务相关,100000,"97-97a号Rde Cinco de Outubro,澳门",[],820000,澳门特别行政区,1853,澳门特别行政区,820002,花王堂区,住宿服务,住宿服务相关,住宿服务相关,113.5429,22.194708,113.53777936799844,22.19763237510672
B0KKMP94BK,小山雅居,住宿服务;住宿服务相关;住宿服务相关,100000,田螺石级3号,[],820000,澳门特别行政区,1853,澳门特别行政区,820002,花王堂区,住宿服务,住宿服务相关,住宿服务相关,113.545559,22.198667,113.5404458398828,22.201599179095364
B0KKGG9WUQ,明海湾Grand Seaview Heights,住宿服务;住宿服务相关;住宿服务相关,100000,林茂海边大马路112号,[],820000,澳门特别行政区,1853,澳门特别行政区,820002,花王堂区,住宿服务,住宿服务相关,住宿服务相关,113.542985,22.201326,113.5378641937732,22.20425288715898
B0KKGG7LMZ,安记大厦,住宿服务;住宿服务相关;住宿服务相关,100000,罗白沙街19-21号富群楼,[],820000,澳门特别行政区,1853,澳门特别行政区,820002,花王堂区,住宿服务,住宿服务相关,住宿服务相关,113.546079,22.195972,113.54096749756096,22.198904469830754
B0KKGG51O2,盈纬轩,住宿服务;住宿服务相关;住宿服务相关,100000,木桥街30-34号,[],820000,澳门特别行政区,1853,澳门特别行政区,820004,大堂区,住宿服务,住宿服务相关,住宿服务相关,113.543457,22.193306,113.53833809425085,22.196231244698765
B0KKGG46XR,和安大厦,住宿服务;住宿服务相关;住宿服务相关,100000,麻子街10A号和安大厦,[],820000,澳门特别行政区,1853,澳门特别行政区,820002,花王堂区,住宿服务,住宿服务相关,住宿服务相关,113.543283,22.198233,113.5381632680841,22.201159544971485
B0KKGG21QH,桥乐轩Edificio Kio Lok Hin,住宿服务;住宿服务相关;住宿服务相关,100000,"明辉大厦、澳门渡船街60号Largo da Cordoaria,no.2D-2DA",[],820000,澳门特别行政区,1853,澳门特别行政区,820002,花王堂区,住宿服务,住宿服务相关,住宿服务相关,113.547754,22.199493,113.54264699572153,22.20243060185632
B0KKGG21PV,俾利𠶜街,住宿服务;住宿服务相关;住宿服务相关,100000,俾利喇街,[],820000,澳门特别行政区,1853,澳门特别行政区,820002,花王堂区,住宿服务,住宿服务相关,住宿服务相关,113.551168,22.19856,113.54607039157078,22.201504954580624
B0KKAPL4F1,𠜎鸡街,住宿服务;住宿服务相关;住宿服务相关,100000,"Tvdo Capao,澳门",[],820000,澳门特别行政区,1853,澳门特别行政区,820002,花王堂区,住宿服务,住宿服务相关,住宿服务相关,113.547433,22.199545,113.54232509424617,22.20248187835383
B0KKAP9LBN,鸿凯轩,住宿服务;住宿服务相关;住宿服务相关,100000,木桥街27号,[],820000,澳门特别行政区,1853,澳门特别行政区,820004,大堂区,住宿服务,住宿服务相关,住宿服务相关,113.543547,22.193295,113.53842835847158,22.19622046014157
B0KDY9ZMS2,Edf.Mei On,住宿服务;住宿服务相关;住宿服务相关,100000,"76 Rde Francisco Xavier Pereira,Macao",[],820000,澳门特别行政区,1853,澳门特别行政区,820002,花王堂区,住宿服务,住宿服务相关,住宿服务相关,113.550947,22.198277,113.54584881753256,22.20122137110417
B0KDY9WR29,La magnificence tower,住宿服务;住宿服务相关;住宿服务相关,100000,"6G3R+P2X,Macao",[],820000,澳门特别行政区,1853,澳门特别行政区,820002,花王堂区,住宿服务,住宿服务相关,住宿服务相关,113.545228,22.201424,113.54011371340911,22.20435634599877
B0KDY9VEOP,Patane Market,住宿服务;住宿服务相关;住宿服务相关,100000,"Escada do Caracol,Macao",[],820000,澳门特别行政区,1853,澳门特别行政区,820002,花王堂区,住宿服务,住宿服务相关,住宿服务相关,113.544873,22.1987,113.53975786558948,22.201630554456568
B0KDY1RCDK,Marissa macao,住宿服务;住宿服务相关;住宿服务相关,100000,"Edificio Seng Ip,28 Rde Pedro Coutinho,Macao",[],820000,澳门特别行政区,1853,澳门特别行政区,820002,花王堂区,住宿服务,住宿服务相关,住宿服务相关,113.551863,22.198833,113.54676722500412,22.201779563963665
B0K3MZTSZL,银星花园,住宿服务;住宿服务相关;住宿服务相关,100000,沙梨头巷9号,[],820000,澳门特别行政区,1853,澳门特别行政区,820002,花王堂区,住宿服务,住宿服务相关,住宿服务相关,113.543831,22.19708,113.53871294567848,22.200007477768327
B0K3MZTM63,中星大厦,住宿服务;住宿服务相关;住宿服务相关,100000,连胜马路no.92C号98B,[],820000,澳门特别行政区,1853,澳门特别行政区,820002,花王堂区,住宿服务,住宿服务相关,住宿服务相关,113.551174,22.201788,113.5460762010894,22.20473408492014
B0K3MZTLVP,永恒大厦,住宿服务;住宿服务相关;住宿服务相关,100000,"连胜马路16号,Edificio Veng Hang",[],820000,澳门特别行政区,1853,澳门特别行政区,820002,花王堂区,住宿服务,住宿服务相关,住宿服务相关,113.549108,22.197432,113.54400487815607,22.20037197626665
B0K3MZTDLZ,建宁楼,住宿服务;住宿服务相关;住宿服务相关,100000,"16B,no.16荷兰园二马路澳门",[],820000,澳门特别行政区,1853,澳门特别行政区,820003,望德堂区,住宿服务,住宿服务相关,住宿服务相关,113.551652,22.194347,113.54655595183392,22.19729153871353
B0K3MZTDI4,友信大厦,住宿服务;住宿服务相关;住宿服务相关,100000,澳门叉巷Edificio Iao Son,[],820000,澳门特别行政区,1853,澳门特别行政区,820002,花王堂区,住宿服务,住宿服务相关,住宿服务相关,113.547074,22.199076,113.54196511579354,22.202011882427392
B0K3MZT65S,东方明珠大厦,住宿服务;住宿服务相关;住宿服务相关,100000,大兴街42-46号,[],820000,澳门特别行政区,1853,澳门特别行政区,820002,花王堂区,住宿服务,住宿服务相关,住宿服务相关,113.546785,22.198377,113.54167534565173,22.20131196582239
B0K3MZT619,La Baie Du Noble,住宿服务;住宿服务相关;住宿服务相关,100000,渡船街与亚利鸦架街交叉口东20米,[],820000,澳门特别行政区,1853,澳门特别行政区,820002,花王堂区,住宿服务,住宿服务相关,住宿服务相关,113.550545,22.198872,113.54544569794054,22.201815691267782
B0K3MZSS9H,健盛大厦,住宿服务;住宿服务相关;住宿服务相关,100000,爹美刁施拿地大马路39号健盛大厦,[],820000,澳门特别行政区,1853,澳门特别行政区,820002,花王堂区,住宿服务,住宿服务相关,住宿服务相关,113.542186,22.197435,113.53706308185086,22.20035856906012
B0K3MZSJI3,丰宁大厦,住宿服务;住宿服务相关;住宿服务相关,100000,俾利喇街Edificio Fung Neng,[],820000,澳门特别行政区,1853,澳门特别行政区,820002,花王堂区,住宿服务,住宿服务相关,住宿服务相关,113.548985,22.196611,113.54388159257736,22.19955041146217
B0K3MZRWHH,雅景花园,住宿服务;住宿服务相关;住宿服务相关,100000,"Edificio Nga Keng,EdfNga Keng,Macau,10A号花王堂街澳门",[],820000,澳门特别行政区,1853,澳门特别行政区,820002,花王堂区,住宿服务,住宿服务相关,住宿服务相关,113.544515,22.195341,113.53939904586116,22.198269522698425
B0K3MZROIT,富丽楼,住宿服务;住宿服务相关;住宿服务相关,100000,"15A,no.15疯堂新街澳门",[],820000,澳门特别行政区,1853,澳门特别行政区,820003,望德堂区,住宿服务,住宿服务相关,住宿服务相关,113.549436,22.193342,113.54433403911828,22.196281282635614
B0K3MZRGPZ,Edificio Fa Wong Tong,住宿服务;住宿服务相关;住宿服务相关,100000,"宝德街2号,Edificio Fa Wong Tong",[],820000,澳门特别行政区,1853,澳门特别行政区,820002,花王堂区,住宿服务,住宿服务相关,住宿服务相关,113.54381,22.196153,113.53869194384087,22.1990801029535
B0K3MZQM8H,Hey,住宿服务;住宿服务相关;住宿服务相关,100000,海湾南街,[],820000,澳门特别行政区,1853,澳门特别行政区,820002,花王堂区,住宿服务,住宿服务相关,住宿服务相关,113.551962,22.199561,113.54686644069122,22.202508030951503
B0K3MZQM5Y,丰裕大厦,住宿服务;住宿服务相关;住宿服务相关,100000,澳门渡船台no.2-22号,[],820000,澳门特别行政区,1853,澳门特别行政区,820002,花王堂区,住宿服务,住宿服务相关,住宿服务相关,113.549583,22.199647,113.54448103733957,22.202588816202308
B0K3MZPYWV,威皇大厦,住宿服务;住宿服务相关;住宿服务相关,100000,"澳门大三巴围21号,Edificio Vai Vong",[],820000,澳门特别行政区,1853,澳门特别行政区,820002,花王堂区,住宿服务,住宿服务相关,住宿服务相关,113.544738,22.194338,113.5396227553723,22.197266706581942
B0K3MZPYRU,丰安台大厦(IJ座),住宿服务;住宿服务相关;住宿服务相关,100000,"14D,Edificio Fong On Toi,日头街澳门",[],820000,澳门特别行政区,1853,澳门特别行政区,820004,大堂区,住宿服务,住宿服务相关,住宿服务相关,113.547949,22.193083,113.54284295014249,22.196018809571683
B0K3MZPJMF,胜桥大厦EFGH座,住宿服务;住宿服务相关;住宿服务相关,100000,"19B,no.19新埗头街澳门",[],820000,澳门特别行政区,1853,澳门特别行政区,820004,大堂区,住宿服务,住宿服务相关,住宿服务相关,113.543146,22.193065,113.53802619722278,22.19598940004775
B0K3MZPJG1,顺益大厦,住宿服务;住宿服务相关;住宿服务相关,100000,澳门塘巷Edificio Son Iek,[],820000,澳门特别行政区,1853,澳门特别行政区,820002,花王堂区,住宿服务,住宿服务相关,住宿服务相关,113.548502,22.200098,113.5433970365245,22.2030375264245
B0K3MZPBUO,顺利大厦,住宿服务;住宿服务相关;住宿服务相关,100000,"嘉野度将军街no.1A号,Edificio Shum Lei,号",[],820000,澳门特别行政区,1853,澳门特别行政区,820002,花王堂区,住宿服务,住宿服务相关,住宿服务相关,113.548903,22.197854,113.54379928728842,22.2007936591806
B0K3MZOWHD,强盛大厦,住宿服务;住宿服务相关;住宿服务相关,100000,通商新街46号,[],820000,澳门特别行政区,1853,澳门特别行政区,820002,花王堂区,住宿服务,住宿服务相关,住宿服务相关,113.542268,22.194772,113.53714549594528,22.19769484040961
B0K3MZOWGY,华达大厦,住宿服务;住宿服务相关;住宿服务相关,100000,肥利喇亚美打大马路no.21号,[],820000,澳门特别行政区,1853,澳门特别行政区,820003,望德堂区,住宿服务,住宿服务相关,住宿服务相关,113.550145,22.193246,113.54504497621394,22.19618683543283
B0K3MZOW5F,晶品2期,住宿服务;住宿服务相关;住宿服务相关,100000,青草街12号,[],820000,澳门特别行政区,1853,澳门特别行政区,820002,花王堂区,住宿服务,住宿服务相关,住宿服务相关,113.54755,22.197186,113.54244257310243,22.2001223286752
B0K3MZO1MI,永和大厦,住宿服务;住宿服务相关;住宿服务相关,100000,澳门西瓜里no.1-11号,[],820000,澳门特别行政区,1853,澳门特别行政区,820002,花王堂区,住宿服务,住宿服务相关,住宿服务相关,113.544472,22.193992,113.53935600775247,22.19691994555913
B0K3MZO1I2,昌利大厦CD座,住宿服务;住宿服务相关;住宿服务相关,100000,区华利街Edificio Pou Chu,[],820000,澳门特别行政区,1853,澳门特别行政区,820003,望德堂区,住宿服务,住宿服务相关,住宿服务相关,113.549507,22.195665,113.5444050845888,22.198605258210467
B0K3MZO1CF,开利大厦,住宿服务;住宿服务相关;住宿服务相关,100000,"澳门道咩卑利士围22-28号,Edificio Hoi Lei",[],820000,澳门特别行政区,1853,澳门特别行政区,820002,花王堂区,住宿服务,住宿服务相关,住宿服务相关,113.549404,22.201607,113.54430142250202,22.20454909139039
B0K3MZNENP,宏益租车服务公司,住宿服务;住宿服务相关;住宿服务相关,100000,罅些喇提督大马路no.69-71号,[],820000,澳门特别行政区,1853,澳门特别行政区,820002,花王堂区,住宿服务,住宿服务相关,住宿服务相关,113.548057,22.201625,113.5429507038118,22.2045640358805
B0K3MZNEC8,新桥,住宿服务;住宿服务相关;住宿服务相关,100000,"Tvdo Capao,澳门",00853-66625832,820000,澳门特别行政区,1853,澳门特别行政区,820002,花王堂区,住宿服务,住宿服务相关,住宿服务相关,113.547433,22.199545,113.54232509424617,22.20248187835383
B0K3MZMZ5G,惠荣大厦,住宿服务;住宿服务相关;住宿服务相关,100000,"铜钱巷2-4号,Edificio Vai Weng",[],820000,澳门特别行政区,1853,澳门特别行政区,820002,花王堂区,住宿服务,住宿服务相关,住宿服务相关,113.548324,22.200333,113.5432185283084,22.20327220129453
B0K3MZMZ58,华兰台,住宿服务;住宿服务相关;住宿服务相关,100000,"6G2R+9G7,EdfOrchid Tower,Macau,澳门",[],820000,澳门特别行政区,1853,澳门特别行政区,820002,花王堂区,住宿服务,住宿服务相关,住宿服务相关,113.546403,22.197965,113.54129229070934,22.200898927837304
B0K3MZMZ4M,高富大厦,住宿服务;住宿服务相关;住宿服务相关,100000,"13B,Edificio High-fu,卢九街澳门",[],820000,澳门特别行政区,1853,澳门特别行政区,820002,花王堂区,住宿服务,住宿服务相关,住宿服务相关,113.549927,22.200569,113.5448259156741,22.20351190558244
B0K3MZMCGX,和发大厦,住宿服务;住宿服务相关;住宿服务相关,100000,马里和发大厦、澳门马里Edificio Wo Fat,[],820000,澳门特别行政区,1853,澳门特别行政区,820002,花王堂区,住宿服务,住宿服务相关,住宿服务相关,113.547574,22.198465,113.5424665583566,22.201401829541226
B0K3MZMCF2,德宝大厦,住宿服务;住宿服务相关;住宿服务相关,100000,"渡船街39号,Edificio Tak Pou",[],820000,澳门特别行政区,1853,澳门特别行政区,820002,花王堂区,住宿服务,住宿服务相关,住宿服务相关,113.548436,22.199723,113.54333087780353,22.20266224596029
B0K3MZMC8C,永恒大厦,住宿服务;住宿服务相关;住宿服务相关,100000,"田螺里11-13号,Edificio Veng Hang",[],820000,澳门特别行政区,1853,澳门特别行政区,820002,花王堂区,住宿服务,住宿服务相关,住宿服务相关,113.55268,22.202236,113.54758616108128,22.20518549956225
B0K3MZMC81,文丰楼,住宿服务;住宿服务相关;住宿服务相关,100000,"麻子街3号,Edificio Man Fung",[],820000,澳门特别行政区,1853,澳门特别行政区,820002,花王堂区,住宿服务,住宿服务相关,住宿服务相关,113.543162,22.198108,113.5380419207817,22.20103420561739
B0K3MZM4H0,泉裕楼,住宿服务;住宿服务相关;住宿服务相关,100000,"1B,Edificio Chuen Yu,1凉水街澳门",[],820000,澳门特别行政区,1853,澳门特别行政区,820002,花王堂区,住宿服务,住宿服务相关,住宿服务相关,113.545949,22.196718,113.5408370793304,22.19965042378988
B0K3MZLBNZ,信勤轩,住宿服务;住宿服务相关;住宿服务相关,100000,海边新街,[],820000,澳门特别行政区,1853,澳门特别行政区,820002,花王堂区,住宿服务,住宿服务相关,住宿服务相关,113.542613,22.194531,113.53749153256756,22.19745460726653
B0K3MZL3MH,生利大厦,住宿服务;住宿服务相关;住宿服务相关,100000,澳门Edificio Sun Mei,[],820000,澳门特别行政区,1853,澳门特别行政区,820002,花王堂区,住宿服务,住宿服务相关,住宿服务相关,113.549619,22.201333,113.5445170276969,22.2042754800244
B0K3MZKWAX,宝利大厦,住宿服务;住宿服务相关;住宿服务相关,100000,"何林围16号,Edificio Pou Lei",[],820000,澳门特别行政区,1853,澳门特别行政区,820002,花王堂区,住宿服务,住宿服务相关,住宿服务相关,113.543776,22.196685,113.53865781047428,22.19961220634
B0K3MZKH5Q,晶品1期,住宿服务;住宿服务相关;住宿服务相关,100000,青草街13号,[],820000,澳门特别行政区,1853,澳门特别行政区,820002,花王堂区,住宿服务,住宿服务相关,住宿服务相关,113.547317,22.197301,113.54220891258944,22.200236829337705
B0K3MZKH43,宝华大厦,住宿服务;住宿服务相关;住宿服务相关,100000,"澳门道咩卑利士围8号,Edificio Pou Va",[],820000,澳门特别行政区,1853,澳门特别行政区,820002,花王堂区,住宿服务,住宿服务相关,住宿服务相关,113.549134,22.201865,113.54403066575485,22.204806571402152
B0K3MZJTSY,Home,住宿服务;住宿服务相关;住宿服务相关,100000,塔石街63号,[],820000,澳门特别行政区,1853,澳门特别行政区,820003,望德堂区,住宿服务,住宿服务相关,住宿服务相关,113.552348,22.196594,113.54725364960905,22.19954083103112
B0K3MZIT4A,西坟马路Estrada do Cemiterio 1-1G,住宿服务;住宿服务相关;住宿服务相关,100000,"西坟马路1号,Edificio Pou Fong",[],820000,澳门特别行政区,1853,澳门特别行政区,820003,望德堂区,住宿服务,住宿服务相关,住宿服务相关,113.551162,22.194847,113.54606461305202,22.197790644656628
B0K3MZISYS,泉康大厦,住宿服务;住宿服务相关;住宿服务相关,100000,大关斜巷Edificio Chuen Heng,[],820000,澳门特别行政区,1853,澳门特别行政区,820002,花王堂区,住宿服务,住宿服务相关,住宿服务相关,113.545035,22.193684,113.53992065419064,22.19661318792857
B0K3MZIL6C,泉基楼,住宿服务;住宿服务相关;住宿服务相关,100000,沙梨头斜巷no.11号,[],820000,澳门特别行政区,1853,澳门特别行政区,820002,花王堂区,住宿服务,住宿服务相关,住宿服务相关,113.543352,22.197819,113.53823249706114,22.20074556939398
B0K3MZIL08,胜华楼,住宿服务;住宿服务相关;住宿服务相关,100000,"澳门桥巷19号,Edificio Seng Wa",[],820000,澳门特别行政区,1853,澳门特别行政区,820002,花王堂区,住宿服务,住宿服务相关,住宿服务相关,113.54672,22.198918,113.54161012732663,22.20185300191392
B0K3MZI5MI,明德大厦,住宿服务;住宿服务相关;住宿服务相关,100000,"何林围18号,Edificio Meng Tak",[],820000,澳门特别行政区,1853,澳门特别行政区,820002,花王堂区,住宿服务,住宿服务相关,住宿服务相关,113.543834,22.196699,113.53871597886516,22.19962635204419
B0K3MZI5JV,丽豪大厦,住宿服务;住宿服务相关;住宿服务相关,100000,"白鸽巢前地17号,Edificio Lai Hou",[],820000,澳门特别行政区,1853,澳门特别行政区,820002,花王堂区,住宿服务,住宿服务相关,住宿服务相关,113.544908,22.196468,113.53979310965624,22.199397860511738
B0K3MZHXZG,联胜大厦,住宿服务;住宿服务相关;住宿服务相关,100000,澳门鲜鱼里no.2号,[],820000,澳门特别行政区,1853,澳门特别行政区,820002,花王堂区,住宿服务,住宿服务相关,住宿服务相关,113.545614,22.199503,113.54050094377286,22.202435599813874
B0K3MZHPYU,桃丽花园,住宿服务;住宿服务相关;住宿服务相关,100000,福安街Edificio Tou Lai,[],820000,澳门特别行政区,1853,澳门特别行政区,820002,花王堂区,住宿服务,住宿服务相关,住宿服务相关,113.545729,22.198949,113.54061630823408,22.20188168024853
B0K3MZH4KK,基达大厦,住宿服务;住宿服务相关;住宿服务相关,100000,海边新街Edificio Kei Tat,[],820000,澳门特别行政区,1853,澳门特别行政区,820002,花王堂区,住宿服务,住宿服务相关,住宿服务相关,113.542293,22.195994,113.53717049165972,22.198917330486825
B0K3MDO9LL,Sharan,住宿服务;住宿服务相关;住宿服务相关,100000,"37 Rde Coelho do Amaral,Macao",[],820000,澳门特别行政区,1853,澳门特别行政区,820002,花王堂区,住宿服务,住宿服务相关,住宿服务相关,113.546728,22.196601,113.54161829838516,22.199535213602708
B0K279XE0W,方洋商业中心,住宿服务;住宿服务相关;住宿服务相关,100000,太平里3号,[],820000,澳门特别行政区,1853,澳门特别行政区,820002,花王堂区,住宿服务,住宿服务相关,住宿服务相关,113.543571,22.193944,113.53845238708284,22.196869747060912
B0K279BEBC,英华名苑,住宿服务;住宿服务相关;住宿服务相关,100000,通商新街55号,[],820000,澳门特别行政区,1853,澳门特别行政区,820002,花王堂区,住宿服务,住宿服务相关,住宿服务相关,113.542162,22.194717,113.53703918501738,22.19763955879735
B0K279AYK6,曼谷宾馆,住宿服务;住宿服务相关;住宿服务相关,100000,火船头街no.31-37号2o andar,[],820000,澳门特别行政区,1853,澳门特别行政区,820005,风顺堂区,住宿服务,住宿服务相关,住宿服务相关,113.541613,22.193161,113.53648865093236,22.19608164774809
B0K279AJM4,泰悦轩,住宿服务;住宿服务相关;住宿服务相关,100000,新埗头街44号,00853-28843222,820000,澳门特别行政区,1853,澳门特别行政区,820004,大堂区,住宿服务,住宿服务相关,住宿服务相关,113.543232,22.192807,113.53811246638816,22.19573151943107
B0K2797C62,Check mate,住宿服务;住宿服务相关;住宿服务相关,100000,玫瑰里Edificio Si Leong,[],820000,澳门特别行政区,1853,澳门特别行政区,820002,花王堂区,住宿服务,住宿服务相关,住宿服务相关,113.543947,22.193866,113.53882949004743,22.196792633004307
B0K279635O,Avenida Olympica,住宿服务;住宿服务相关;住宿服务相关,100000,"Chuang Fu court,Ka Yin Court tower 3,635 avenida olimpica,澳门",[],820000,澳门特别行政区,1853,澳门特别行政区,820002,花王堂区,住宿服务,住宿服务相关,住宿服务相关,113.549041,22.196918,113.54393772693618,22.19985764543537
B073D00CXJ,京都酒店,住宿服务;宾馆酒店;三星级宾馆,100104,南湾大马路493-501号,00853-28388166;13928033121,820000,澳门特别行政区,1853,澳门特别行政区,820005,风顺堂区,住宿服务,宾馆酒店,三星级宾馆,113.545379,22.189323,113.54026592268028,22.19225146498978
B073D00CKC,濠璟酒店,住宿服务;宾馆酒店;五星级宾馆,100102,风顺堂区高可宁绅士街7-13号,00853-28339955,820000,澳门特别行政区,1853,澳门特别行政区,820005,风顺堂区,住宿服务,宾馆酒店,五星级宾馆,113.540368,22.183297,113.5352405463847,22.18621100380473
B073D00B8Y,澳门新葡京酒店,住宿服务;宾馆酒店;五星级宾馆,100102,澳门半岛葡京路,00853-28283838,820000,澳门特别行政区,1853,澳门特别行政区,820004,大堂区,住宿服务,宾馆酒店,五星级宾馆,113.54848,22.187869,113.54337575855936,22.190804175413096
B073D00BG0,永利澳门酒店,住宿服务;宾馆酒店;五星级宾馆,100102,外港填海区仙德丽街(近友谊大马路葡京酒店对面),00853-28889966,820000,澳门特别行政区,1853,澳门特别行政区,820004,大堂区,住宿服务,宾馆酒店,五星级宾馆,113.551594,22.185066,113.54649839110064,22.18800711306829
B073D00BTM,澳门新丽华酒店,住宿服务;宾馆酒店;三星级宾馆,100104,约翰四世大马路58-62号,00853-28710111,820000,澳门特别行政区,1853,澳门特别行政区,820004,大堂区,住宿服务,宾馆酒店,三星级宾馆,113.546531,22.188094,113.54142128591786,22.191024748059853
B073D0M4VV,澳门之家,住宿服务;宾馆酒店;宾馆酒店,100100,"群兴新街4号二楼A,B和C",00853-28573629,820000,澳门特别行政区,1853,澳门特别行政区,820005,风顺堂区,住宿服务,宾馆酒店,宾馆酒店,113.541531,22.190413,113.53640658246016,22.19333247140316
B073D00LW5,澳门文华东方酒店,住宿服务;宾馆酒店;五星级宾馆,100102,澳门外港新填海区孙逸仙大马路,00853-88058888;00853-88058948,820000,澳门特别行政区,1853,澳门特别行政区,820004,大堂区,住宿服务,宾馆酒店,五星级宾馆,113.552264,22.181498,113.54717039341764,22.184439274990204
B0JUVOIO3E,澳门铧龙酒店,住宿服务;宾馆酒店;宾馆酒店,100100,澳门南湾大马路936-944号,00853-28301999,820000,澳门特别行政区,1853,澳门特别行政区,820004,大堂区,住宿服务,宾馆酒店,宾馆酒店,113.548892,22.188984,113.54378882478342,22.191920510175983
B073D00IHL,嘉华宾馆(大堂斜巷店),住宿服务;宾馆酒店;宾馆酒店,100100,南湾大堂斜巷5号(全座)时代商业中心后面,00853-28323063,820000,澳门特别行政区,1853,澳门特别行政区,820004,大堂区,住宿服务,宾馆酒店,宾馆酒店,113.546537,22.190209,113.5414271674435,22.19314051509195
B0G255UPNU,澳门家颖宾馆,住宿服务;宾馆酒店;宾馆酒店,100100,龙嵩正街4A号,13923395675,820000,澳门特别行政区,1853,澳门特别行政区,820005,风顺堂区,住宿服务,宾馆酒店,宾馆酒店,113.544832,22.189592,113.53971733107302,22.192519254225942
B073D00DJD,濠江酒店,住宿服务;宾馆酒店;宾馆酒店,100100,道德巷1号(岐关车站侧),00853-28312007,820000,澳门特别行政区,1853,澳门特别行政区,820005,风顺堂区,住宿服务,宾馆酒店,宾馆酒店,113.541447,22.192061,113.53632222574318,22.194980845466457
B073D00HM4,澳门东京宾馆,住宿服务;宾馆酒店;宾馆酒店,100100,广东省珠海市金湾区福隆新巷澳门市政厅10号3层,00853-28937722,820000,澳门特别行政区,1853,澳门特别行政区,820005,风顺堂区,住宿服务,宾馆酒店,宾馆酒店,113.542321,22.191746,113.53719884717476,22.19466790518249
B073D00BT0,富豪酒店,住宿服务;宾馆酒店;四星级宾馆,100103,罗理基博士大马路70-106号,00853-28782288,820000,澳门特别行政区,1853,澳门特别行政区,820004,大堂区,住宿服务,宾馆酒店,四星级宾馆,113.550833,22.188092,113.54573516296529,22.191032530930105
B073D00BT4,英皇娱乐酒店,住宿服务;宾馆酒店;五星级宾馆,100102,澳门半岛商业大马路288号,00853-28889988,820000,澳门特别行政区,1853,澳门特别行政区,820004,大堂区,住宿服务,宾馆酒店,五星级宾馆,113.546,22.187581,113.54088881012687,22.19051031572953
B073D0M4VU,澳门高华酒店,住宿服务;宾馆酒店;宾馆酒店,100100,福隆新街71号3楼,00853-28375599,820000,澳门特别行政区,1853,澳门特别行政区,820005,风顺堂区,住宿服务,宾馆酒店,宾馆酒店,113.542493,22.191866,113.53737134873856,22.194788372294607
B073D00D8F,澳门文华酒店,住宿服务;宾馆酒店;宾馆酒店,100100,白眼塘横街30-32-34号,00853-28388655;00853-28388656,820000,澳门特别行政区,1853,澳门特别行政区,820005,风顺堂区,住宿服务,宾馆酒店,宾馆酒店,113.542179,22.192242,113.5370563942581,22.195163729269765
B073D00DJF,澳门万事发酒店,住宿服务;宾馆酒店;宾馆酒店,100100,火船头街162-178号,[],820000,澳门特别行政区,1853,澳门特别行政区,820005,风顺堂区,住宿服务,宾馆酒店,宾馆酒店,113.540821,22.191947,113.53569435629902,22.194865236779
B073D00BG8,财神酒店,住宿服务;宾馆酒店;四星级宾馆,100103,广州街63号,00853-28786333,820000,澳门特别行政区,1853,澳门特别行政区,820004,大堂区,住宿服务,宾馆酒店,四星级宾馆,113.551145,22.187521,113.54604803613884,22.19046201252127
B0H2ZA9684,彼寓旅居,住宿服务;旅馆招待所;旅馆招待所,100200,河边新街44-48号,00853-28509110,820000,澳门特别行政区,1853,澳门特别行政区,820005,风顺堂区,住宿服务,旅馆招待所,旅馆招待所,113.539201,22.188793,113.53406965053556,22.19170600803563
B073D00H14,英京酒店,住宿服务;宾馆酒店;三星级宾馆,100104,澳门司打口4-6号,00853-28937761;00853-28937770,820000,澳门特别行政区,1853,澳门特别行政区,820005,风顺堂区,住宿服务,宾馆酒店,三星级宾馆,113.541338,22.190773,113.53621298242174,22.193692117203653
B0JRYUDCTY,澳门新葡京酒店大堂,住宿服务;宾馆酒店;五星级宾馆,100102,葡京路与罗理基博士大马路交叉口西北40米,[],820000,澳门特别行政区,1853,澳门特别行政区,820004,大堂区,住宿服务,宾馆酒店,五星级宾馆,113.548568,22.18753,113.54346402371836,22.190465254916266
B0KUR130UK,TONG KENG GUEST HOUSE,住宿服务;宾馆酒店;宾馆酒店,100100,"10 Tvda Felicidade,Macao",00853-28937722,820000,澳门特别行政区,1853,澳门特别行政区,820005,风顺堂区,住宿服务,宾馆酒店,宾馆酒店,113.542368,22.191758,113.53724598565071,22.19468002555644
B0FFF4VSJZ,皇宫大旅馆,住宿服务;旅馆招待所;旅馆招待所,100200,蓬莱新街与夜呣街交叉口西南20米,00853-28574016,820000,澳门特别行政区,1853,澳门特别行政区,820005,风顺堂区,住宿服务,旅馆招待所,旅馆招待所,113.541026,22.191221,113.53590001872594,22.19413949469841
B073D0MP2R,澳门群兴宾馆,住宿服务;宾馆酒店;宾馆酒店,100100,半岛司打口群兴新街2号3层(近新马路),[],820000,澳门特别行政区,1853,澳门特别行政区,820005,风顺堂区,住宿服务,宾馆酒店,宾馆酒店,113.542001,22.190087,113.53687800381503,22.19300752477485
B073D00HMO,和平大旅店,住宿服务;旅馆招待所;旅馆招待所,100200,白眼塘横街39号,[],820000,澳门特别行政区,1853,澳门特别行政区,820005,风顺堂区,住宿服务,旅馆招待所,旅馆招待所,113.542421,22.192345,113.5372991049394,22.19526736390652
B073D00LO3,晶晶宾馆,住宿服务;宾馆酒店;宾馆酒店,100100,南湾大马路998号,00853-28715037,820000,澳门特别行政区,1853,澳门特别行政区,820004,大堂区,住宿服务,宾馆酒店,宾馆酒店,113.548923,22.188375,113.54381994912276,22.1913113633949
B073D00AY1,南龙宾馆,住宿服务;宾馆酒店;宾馆酒店,100100,罗保博士街30号2-3层C,[],820000,澳门特别行政区,1853,澳门特别行政区,820004,大堂区,住宿服务,宾馆酒店,宾馆酒店,113.547018,22.189347,113.5419095812754,22.192279332387688
B073D00AXW,新南滨宾馆,住宿服务;宾馆酒店;宾馆酒店,100100,约翰四世大马路10号3层,00853-28482842,820000,澳门特别行政区,1853,澳门特别行政区,820004,大堂区,住宿服务,宾馆酒店,宾馆酒店,113.54814,22.189318,113.5430347227057,22.19225291446625
B0KU59Q74N,大利迎宾馆,住宿服务;宾馆酒店;宾馆酒店,100100,"MacaoRdo CmteMata e Oliveira,12号,Edificio Wong Kam,20号",[],820000,澳门特别行政区,1853,澳门特别行政区,820004,大堂区,住宿服务,宾馆酒店,宾馆酒店,113.547497,22.189127,113.54238994079677,22.19206036577874
B0KDY9VEJ2,The Waterside Macau,住宿服务;宾馆酒店;宾馆酒店,100100,"沙格斯大马路Tower Six,One Central Residences",00853-28888338,820000,澳门特别行政区,1853,澳门特别行政区,820004,大堂区,住宿服务,宾馆酒店,宾馆酒店,113.55157,22.182243,113.54647450773406,22.18518304222637
B0KDY9U4CT,Apartment macau,住宿服务;宾馆酒店;宾馆酒店,100100,"50 Rdo AlmSergio,Macao",[],820000,澳门特别行政区,1853,澳门特别行政区,820005,风顺堂区,住宿服务,宾馆酒店,宾馆酒店,113.539265,22.188889,113.53413383965852,22.191802205938423
B0K3MZJU4T,Zhuhai century new scenery apartment,住宿服务;宾馆酒店;宾馆酒店,100100,比厘喇马忌士街与河边新巷交叉口北20米,13928007125,820000,澳门特别行政区,1853,澳门特别行政区,820005,风顺堂区,住宿服务,宾馆酒店,宾馆酒店,113.538625,22.188727,113.53349189216716,22.19163850629975
B0K2RAF0OY,Fortuna,住宿服务;宾馆酒店;宾馆酒店,100100,罗理基博士大马路70号,[],820000,澳门特别行政区,1853,澳门特别行政区,820004,大堂区,住宿服务,宾馆酒店,宾馆酒店,113.550885,22.188159,113.54578729836084,22.19109966933258
B0K279AC02,大宴会厅THE GRAND BALLROOM,住宿服务;宾馆酒店;宾馆酒店,100100,孙逸仙大马路1101号,00853-88028888,820000,澳门特别行政区,1853,澳门特别行政区,820004,大堂区,住宿服务,宾馆酒店,宾馆酒店,113.552702,22.182192,113.54760950019867,22.18513446625523
B0K2799WJF,Man Wa,住宿服务;宾馆酒店;宾馆酒店,100100,"30 TRAVESSA DA CALDEIRA,30-32-34,中国",[],820000,澳门特别行政区,1853,澳门特别行政区,820005,风顺堂区,住宿服务,宾馆酒店,宾馆酒店,113.5423,22.192419,113.53717774176434,22.19534109112449
B0JULRPMCT,澳门半岛,住宿服务;宾馆酒店;宾馆酒店,100100,殷皇子大马路与罗保博士街交叉口西40米,[],820000,澳门特别行政区,1853,澳门特别行政区,820004,大堂区,住宿服务,宾馆酒店,宾馆酒店,113.546121,22.189008,113.54101006329404,22.19193811025505
B0JRYSDAWX,濠璟酒店大堂,住宿服务;宾馆酒店;五星级宾馆,100102,民国大马路与衣湾斜巷交叉口北100米,[],820000,澳门特别行政区,1853,澳门特别行政区,820005,风顺堂区,住宿服务,宾馆酒店,五星级宾馆,113.540458,22.183222,113.53533082285324,22.18613620401869
B0JRYHCBPO,澳门富都宾馆大堂,住宿服务;宾馆酒店;宾馆酒店,100100,亚美打利庇卢大马路与营地大街交叉口北60米,[],820000,澳门特别行政区,1853,澳门特别行政区,820004,大堂区,住宿服务,宾馆酒店,宾馆酒店,113.543836,22.19179,113.53871829947516,22.194715631493818
B0JRYH36JT,澳门假日酒店大堂,住宿服务;宾馆酒店;四星级宾馆,100103,北京街与上海街交叉口西南60米,[],820000,澳门特别行政区,1853,澳门特别行政区,820004,大堂区,住宿服务,宾馆酒店,四星级宾馆,113.552552,22.188431,113.54745870796609,22.19137538731033
B0JRPUMXFH,澳门新丽华酒店大堂,住宿服务;宾馆酒店;三星级宾馆,100104,约翰四世大马路与苏亚利斯博士大马路交叉口北20米,[],820000,澳门特别行政区,1853,澳门特别行政区,820004,大堂区,住宿服务,宾馆酒店,三星级宾馆,113.546617,22.188037,113.54150753304944,22.190967929179035
B0JRPSD9MY,英皇娱乐酒店大堂,住宿服务;宾馆酒店;五星级宾馆,100102,苏亚利斯博士大马路与约翰四世大马路交叉口西南80米,[],820000,澳门特别行政区,1853,澳门特别行政区,820004,大堂区,住宿服务,宾馆酒店,五星级宾馆,113.545851,22.187474,113.54073939202016,22.190402925393453
B0JRGC3GLE,富豪酒店大堂,住宿服务;宾馆酒店;四星级宾馆,100103,罗理基博士大马路与佛山街交叉口东40米,[],820000,澳门特别行政区,1853,澳门特别行政区,820004,大堂区,住宿服务,宾馆酒店,四星级宾馆,113.550721,22.188192,113.54562285539544,22.19113231971492
B0JRGC0JL9,澳门文华东方酒店大堂,住宿服务;宾馆酒店;五星级宾馆,100102,城市日前地与波尔图街交叉口南240米,[],820000,澳门特别行政区,1853,澳门特别行政区,820004,大堂区,住宿服务,宾馆酒店,五星级宾馆,113.552265,22.181464,113.5471713982268,22.18440526481166
B0JRGAYPNC,澳门文华酒店大堂,住宿服务;宾馆酒店;宾馆酒店,100100,亚美打利庇卢大马路与缆厂巷交叉口西南60米,[],820000,澳门特别行政区,1853,澳门特别行政区,820005,风顺堂区,住宿服务,宾馆酒店,宾馆酒店,113.542245,22.192254,113.53712258928424,22.195175896837235
B0JRAUQMOY,京都酒店大堂,住宿服务;宾馆酒店;三星级宾馆,100104,南湾大马路与傅礼士神父街交叉口北20米,[],820000,澳门特别行政区,1853,澳门特别行政区,820005,风顺堂区,住宿服务,宾馆酒店,三星级宾馆,113.545426,22.18925,113.5403130621916,22.19217855083475
B0JRA5OU4B,葡京酒店大堂,住宿服务;宾馆酒店;五星级宾馆,100102,殷皇子大马路与仙德丽街交叉口北40米,[],820000,澳门特别行政区,1853,澳门特别行政区,820004,大堂区,住宿服务,宾馆酒店,五星级宾馆,113.549349,22.186438,113.54424724280122,22.18937463343685
B0J0OCDJ6E,尚品铂家酒店,住宿服务;宾馆酒店;宾馆酒店,100100,章阁澳门工业区大道和富综合楼B座9-楼,[],820000,澳门特别行政区,1853,澳门特别行政区,820005,风顺堂区,住宿服务,宾馆酒店,宾馆酒店,113.540751,22.188106,113.5356243922523,22.191022696214603
B0IRHRVR5M,pensao lotus,住宿服务;宾馆酒店;宾馆酒店,100100,约翰四世大马路与买那韶巷交叉口西北20米,00853-28482842,820000,澳门特别行政区,1853,澳门特别行政区,820004,大堂区,住宿服务,宾馆酒店,宾馆酒店,113.548008,22.189232,113.54290236102068,22.19216658098178
B0IRHRTVWL,Billion Family Inn,住宿服务;宾馆酒店;宾馆酒店,100100,大堂斜巷与美丽街交叉口西20米,00853-66630949,820000,澳门特别行政区,1853,澳门特别行政区,820004,大堂区,住宿服务,宾馆酒店,宾馆酒店,113.546538,22.190141,113.54142817463158,22.19307249328837
B0G0DUAKTO,澳门新新酒店,住宿服务;宾馆酒店;宾馆酒店,100100,柯邦迪前地与聚宝街交叉口西北40米,[],820000,澳门特别行政区,1853,澳门特别行政区,820005,风顺堂区,住宿服务,宾馆酒店,宾馆酒店,113.541243,22.190808,113.53611769579408,22.19372689201765
B0FFH4ZWVL,明明宾馆,住宿服务;宾馆酒店;宾馆酒店,100100,罗保博士街与马统领街交叉口西南40米,[],820000,澳门特别行政区,1853,澳门特别行政区,820004,大堂区,住宿服务,宾馆酒店,宾馆酒店,113.54684,22.189154,113.54173109174266,22.192085848710487
B0FFFPU7OQ,天天宾馆,住宿服务;宾馆酒店;宾馆酒店,100100,罗保博士街与马统领街交叉口西南40米,[],820000,澳门特别行政区,1853,澳门特别行政区,820004,大堂区,住宿服务,宾馆酒店,宾馆酒店,113.546874,22.189071,113.54176519300556,22.19200289850291
B073D0M2VY,金利来别墅,住宿服务;旅馆招待所;旅馆招待所,100200,南湾大马路715号永利大厦2层,[],820000,澳门特别行政区,1853,澳门特别行政区,820004,大堂区,住宿服务,旅馆招待所,旅馆招待所,113.547298,22.190187,113.54219031487706,22.193120281718155
B073D00E48,曼谷宾馆,住宿服务;宾馆酒店;宾馆酒店,100100,火船头街231号,[],820000,澳门特别行政区,1853,澳门特别行政区,820005,风顺堂区,住宿服务,宾馆酒店,宾馆酒店,113.540901,22.191412,113.53577463110408,22.19433024855444
B0FFH52VRX,澳门富都宾馆,住宿服务;宾馆酒店;宾馆酒店,100100,澳门半岛澳门新马路平线里2号,[],820000,澳门特别行政区,1853,澳门特别行政区,820004,大堂区,住宿服务,宾馆酒店,宾馆酒店,113.543944,22.191789,113.53882661447342,22.19471489307212
B073D00BG2,葡京酒店,住宿服务;宾馆酒店;五星级宾馆,100102,葡京路2-4号,00853-28883888,820000,澳门特别行政区,1853,澳门特别行政区,820004,大堂区,住宿服务,宾馆酒店,五星级宾馆,113.549525,22.186785,113.5444237020506,22.18972215368778
B073D0M36M,澳门大利迎宾馆,住宿服务;宾馆酒店;宾馆酒店,100100,清平巷1(澳门澳门半岛福隆新街73号地下),00853-28573247,820000,澳门特别行政区,1853,澳门特别行政区,820005,风顺堂区,住宿服务,宾馆酒店,宾馆酒店,113.542491,22.191924,113.53736933910152,22.19484638786941
B073D00D8I,澳门康泰酒店,住宿服务;宾馆酒店;宾馆酒店,100100,十月初五日街177-179号,00853-28939199,820000,澳门特别行政区,1853,澳门特别行政区,820005,风顺堂区,住宿服务,宾馆酒店,宾馆酒店,113.541981,22.19264,113.53685778056472,22.19556137906474
B0FFIR2PVX,澳门新东方商务宾馆南座,住宿服务;宾馆酒店;宾馆酒店,100100,亚美打利庇卢大马路(新马路)488号新东方商务宾馆南座,00853-28999888,820000,澳门特别行政区,1853,澳门特别行政区,820004,大堂区,住宿服务,宾馆酒店,宾馆酒店,113.542682,22.192716,113.53756085279888,22.195639138195343
B0FFLO3RTT,澳门家逸酒店,住宿服务;宾馆酒店;宾馆酒店,100100,南湾巷4号,00853-28702701,820000,澳门特别行政区,1853,澳门特别行政区,820004,大堂区,住宿服务,宾馆酒店,宾馆酒店,113.547788,22.189291,113.5426817439662,22.19222509592913
B0J1RMNSVW,YOHO名胜世界酒店,住宿服务;宾馆酒店;宾馆酒店,100100,亚马喇前地附近,00853-28993300,820000,澳门特别行政区,1853,澳门特别行政区,820004,大堂区,住宿服务,宾馆酒店,宾馆酒店,113.547858,22.184156,113.54275226800694,22.18708841803669
B0FFH3S0CM,澳门遇莲客栈,住宿服务;住宿服务相关;住宿服务相关,100000,"约翰四世大马路8-10号,近南湾巷口",00853-28482842,820000,澳门特别行政区,1853,澳门特别行政区,820004,大堂区,住宿服务,住宿服务相关,住宿服务相关,113.548125,22.189328,113.54301968036864,22.192262883635586
B0FFJRRQNE,南苑宾馆,住宿服务;宾馆酒店;宾馆酒店,100100,南湾巷3号,[],820000,澳门特别行政区,1853,澳门特别行政区,820004,大堂区,住宿服务,宾馆酒店,宾馆酒店,113.5476,22.189225,113.54249322284286,22.192158638753387
B0KUUZLYCL,Augusters,住宿服务;旅馆招待所;旅馆招待所,100200,"24 Rdo DrPedro Jose Lobo,Macao",[],820000,澳门特别行政区,1853,澳门特别行政区,820004,大堂区,住宿服务,旅馆招待所,旅馆招待所,113.546824,22.189141,113.54171504741056,22.192072806731
B0K3MZMJR9,Pensao Eng Va,住宿服务;旅馆招待所;旅馆招待所,100200,"Macao,Travessa das Virtudes,no.20 e 26,2o andar",00853-28933381,820000,澳门特别行政区,1853,澳门特别行政区,820005,风顺堂区,住宿服务,旅馆招待所,旅馆招待所,113.541622,22.191573,113.53649777968424,22.19449310934781
B0J1ROR2HF,新华大旅店,住宿服务;旅馆招待所;旅馆招待所,100200,亚美打利庇卢大马路与庇山耶街交叉口西南80米,[],820000,澳门特别行政区,1853,澳门特别行政区,820005,风顺堂区,住宿服务,旅馆招待所,旅馆招待所,113.542513,22.191715,113.5373914175839,22.194637368214
B073D00BMP,澳门假日酒店,住宿服务;宾馆酒店;四星级宾馆,100103,澳门半岛新口岸北京街82-86号,00853-28783333,820000,澳门特别行政区,1853,澳门特别行政区,820004,大堂区,住宿服务,宾馆酒店,四星级宾馆,113.55251,22.188372,113.547416601422,22.191316276222533
B073D00CKE,澳门圣地牙哥古堡酒店,住宿服务;宾馆酒店;五星级宾馆,100102,西湾民国大马路,00853-28378111,820000,澳门特别行政区,1853,澳门特别行政区,820005,风顺堂区,住宿服务,宾馆酒店,五星级宾馆,113.535797,22.179721,113.53065569009208,22.18262187850206
B0FFHW7NU8,总统酒店,住宿服务;住宿服务相关;住宿服务相关,100000,友谊大马路355号,[],820000,澳门特别行政区,1853,澳门特别行政区,820004,大堂区,住宿服务,住宿服务相关,住宿服务相关,113.546925,22.19036,113.54181625430176,22.19329247570906
B0I2BU2NNE,泰兴栈(雀仔园店),住宿服务;旅馆招待所;旅馆招待所,100200,大堂区罗宪新街/公局市场巷28号,00853-28369911,820000,澳门特别行政区,1853,澳门特别行政区,820004,大堂区,住宿服务,旅馆招待所,旅馆招待所,113.550122,22.191739,113.54502201027182,22.19467925219328
B0FFKN24VK,澳门家亿宾馆,住宿服务;住宿服务相关;住宿服务相关,100000,龙眼围5-7号,00853-28828273;13923395675,820000,澳门特别行政区,1853,澳门特别行政区,820004,大堂区,住宿服务,住宿服务相关,住宿服务相关,113.54648,22.190317,113.54136999902488,22.19324841978721
B0K35CMI73,濠江精品宾馆,住宿服务;住宿服务相关;住宿服务相关,100000,"邻近罗宪新街及水坑尾街,胡椒厨房澳门水坑尾店旁",00853-28555999,820000,澳门特别行政区,1853,澳门特别行政区,820004,大堂区,住宿服务,住宿服务相关,住宿服务相关,113.549648,22.192202,113.54454669126912,22.19514135663545
B0I1LAGOL0,澳门百达翡丽,住宿服务;宾馆酒店;宾馆酒店,100100,城市日前地与波尔图街交叉口南120米,[],820000,澳门特别行政区,1853,澳门特别行政区,820004,大堂区,住宿服务,宾馆酒店,宾馆酒店,113.551994,22.182358,113.5468996254004,22.18529900393341
B0FFJ0FANE,澳门艺舍,住宿服务;宾馆酒店;宾馆酒店,100100,司打口14-16号,00853-28939393,820000,澳门特别行政区,1853,澳门特别行政区,820005,风顺堂区,住宿服务,宾馆酒店,宾馆酒店,113.541113,22.190882,113.5359873014694,22.193800592707976
B073D0MP2W,澳门大来宾馆,住宿服务;住宿服务相关;住宿服务相关,100000,清平街深巷横街20号2楼(近岐关车站),00853-28939315,820000,澳门特别行政区,1853,澳门特别行政区,820005,风顺堂区,住宿服务,住宿服务相关,住宿服务相关,113.541613,22.191607,113.5364887506464,22.194527098953447
B0FFFY3NIO,金湾宾馆,住宿服务;住宿服务相关;住宿服务相关,100000,贾罗布大马路与罗理基博士大马路交叉口东20米,00853-28780537,820000,澳门特别行政区,1853,澳门特别行政区,820004,大堂区,住宿服务,住宿服务相关,住宿服务相关,113.550169,22.187811,113.54506938900036,22.190749960576248
B0FFF4VSMF,京悦宾馆,住宿服务;宾馆酒店;宾馆酒店,100100,风顺堂区柯邦迪前地及(近马车巷),[],820000,澳门特别行政区,1853,澳门特别行政区,820005,风顺堂区,住宿服务,宾馆酒店,宾馆酒店,113.541035,22.191256,113.53590904348866,22.19417452966948
B073D0M6IJ,华发宾馆,住宿服务;宾馆酒店;宾馆酒店,100100,南湾大马路622号万胜大厦2层,00853-28716416,820000,澳门特别行政区,1853,澳门特别行政区,820004,大堂区,住宿服务,宾馆酒店,宾馆酒店,113.546652,22.189546,113.54154253542274,22.19247754880857
B073D0MP2X,澳门八月者旅店,住宿服务;旅馆招待所;旅馆招待所,100200,半岛罗保博士街24号金来大厦第4座4楼3J,[],820000,澳门特别行政区,1853,澳门特别行政区,820004,大堂区,住宿服务,旅馆招待所,旅馆招待所,113.546651,22.18931,113.54154154770984,22.192241462506768
B073D00H1S,威利别墅,住宿服务;宾馆酒店;宾馆酒店,100100,约翰四世大马路38号,[],820000,澳门特别行政区,1853,澳门特别行政区,820004,大堂区,住宿服务,宾馆酒店,宾馆酒店,113.547237,22.188731,113.54212923679516,22.19166362220504
B0KKZPIJ7E,励达轩,住宿服务;住宿服务相关;住宿服务相关,100000,河边新街241号,[],820000,澳门特别行政区,1853,澳门特别行政区,820005,风顺堂区,住宿服务,住宿服务相关,住宿服务相关,113.537784,22.186054,113.53264847433014,22.188962376454587
B0KKSP12VB,富丽楼,住宿服务;住宿服务相关;住宿服务相关,100000,"5A,Edificio Magnifico,5竹室正街澳门",[],820000,澳门特别行政区,1853,澳门特别行政区,820005,风顺堂区,住宿服务,住宿服务相关,住宿服务相关,113.541266,22.18433,113.53614118031037,22.18724663425796
B0KKGGBMIT,YOHO金银岛,住宿服务;住宿服务相关;住宿服务相关,100000,湖滨路12号,[],820000,澳门特别行政区,1853,澳门特别行政区,820004,大堂区,住宿服务,住宿服务相关,住宿服务相关,113.54805,22.184446,113.5429447842892,22.18737896381053
B0KKGG8GC8,利民大厦,住宿服务;住宿服务相关;住宿服务相关,100000,下环正街Edificio Tai Wai,[],820000,澳门特别行政区,1853,澳门特别行政区,820005,风顺堂区,住宿服务,住宿服务相关,住宿服务相关,113.541394,22.187426,113.53626936468848,22.190344065388405
B0KKGG4M74,祥顺楼,住宿服务;住宿服务相关;住宿服务相关,100000,"东望洋新街153-155号,Edificio Cheong Son",[],820000,澳门特别行政区,1853,澳门特别行政区,820004,大堂区,住宿服务,住宿服务相关,住宿服务相关,113.551201,22.191681,113.54610391988702,22.19462361455252
B0KKAPQL14,明珠台1期,住宿服务;住宿服务相关;住宿服务相关,100000,西坑街20号,[],820000,澳门特别行政区,1853,澳门特别行政区,820005,风顺堂区,住宿服务,住宿服务相关,住宿服务相关,113.540786,22.184886,113.53565970417463,22.187801630355484
B0KDY1YELP,Edf.Peak Garden(Bloco I),住宿服务;住宿服务相关;住宿服务相关,100000,"Edificio Peak Garden(bloco I)243 RNova a Guia,Macao",[],820000,澳门特别行政区,1853,澳门特别行政区,820004,大堂区,住宿服务,住宿服务相关,住宿服务相关,113.550708,22.191072,113.54560963618704,22.194013315110087
B0KA2CD6KU,1home一家,住宿服务;住宿服务相关;住宿服务相关,100000,"南湾大马路371号,Keng Ou Edf,23楼",[],820000,澳门特别行政区,1853,澳门特别行政区,820005,风顺堂区,住宿服务,住宿服务相关,住宿服务相关,113.544461,22.188523,113.53934532644035,22.191448982246747
B0K3MZTSWW,蓬莱宾馆,住宿服务;住宿服务相关;住宿服务相关,100000,"澳门Rua do Bocage,no 28,G-3,2o andar",00853-28574292,820000,澳门特别行政区,1853,澳门特别行政区,820005,风顺堂区,住宿服务,住宿服务相关,住宿服务相关,113.541529,22.191692,113.5364044944204,22.19461191961064
B0K3MZTM2V,喜运楼,住宿服务;住宿服务相关;住宿服务相关,100000,"43B,no.43公局市场巷澳门",[],820000,澳门特别行政区,1853,澳门特别行政区,820004,大堂区,住宿服务,住宿服务相关,住宿服务相关,113.549934,22.191308,113.54483352738248,22.194247680444704
B0K3MZT638,福星台,住宿服务;住宿服务相关;住宿服务相关,100000,罗宪新街1B号,[],820000,澳门特别行政区,1853,澳门特别行政区,820004,大堂区,住宿服务,住宿服务相关,住宿服务相关,113.549757,22.192084,113.54465599600992,22.19502355918551
B0K3MZSSCX,Edf.Pearl Terrace,住宿服务;住宿服务相关;住宿服务相关,100000,"西望洋斜巷2号,Edificio Pearl Terrace",[],820000,澳门特别行政区,1853,澳门特别行政区,820005,风顺堂区,住宿服务,住宿服务相关,住宿服务相关,113.540716,22.184753,113.53558950209006,22.187668406366647
B0K3MZSJF4,胜威大厦,住宿服务;住宿服务相关;住宿服务相关,100000,"澳门蕉园围8号,Edificio Seng Vai",[],820000,澳门特别行政区,1853,澳门特别行政区,820005,风顺堂区,住宿服务,住宿服务相关,住宿服务相关,113.541758,22.189412,113.53663432387042,22.19233168114776
B0K3MZSC05,利强大厦,住宿服务;住宿服务相关;住宿服务相关,100000,"夜呣巷29A号,Edificio Lei Keong",[],820000,澳门特别行政区,1853,澳门特别行政区,820005,风顺堂区,住宿服务,住宿服务相关,住宿服务相关,113.541909,22.190014,113.5367857348787,22.19293427049256
B0K3MZSBWO,西望洋花园(第十五座),住宿服务;住宿服务相关;住宿服务相关,100000,"西望洋巷56-60号,Jardim Da Penha",[],820000,澳门特别行政区,1853,澳门特别行政区,820005,风顺堂区,住宿服务,住宿服务相关,住宿服务相关,113.53958,22.184761,113.5344500642058,22.187673531919053
B0K3MZSBV1,泉庆楼,住宿服务;住宿服务相关;住宿服务相关,100000,吉庆巷no.41-43号,[],820000,澳门特别行政区,1853,澳门特别行政区,820004,大堂区,住宿服务,住宿服务相关,住宿服务相关,113.544819,22.192221,113.53970412504268,22.19514915494168
B0K3MZROTL,丽华大厦,住宿服务;住宿服务相关;住宿服务相关,100000,公局市场巷,[],820000,澳门特别行政区,1853,澳门特别行政区,820004,大堂区,住宿服务,住宿服务相关,住宿服务相关,113.550549,22.192166,113.54545013780287,22.19510735086998
B0K3MZRONN,永添大厦,住宿服务;住宿服务相关;住宿服务相关,100000,红窗门街Edificio Veng Tim,[],820000,澳门特别行政区,1853,澳门特别行政区,820005,风顺堂区,住宿服务,住宿服务相关,住宿服务相关,113.543225,22.190809,113.53810557396486,22.193732795701823
B0K3MZRGZA,泉兴楼,住宿服务;住宿服务相关;住宿服务相关,100000,安仿西街Edificio Chuen Heng,[],820000,澳门特别行政区,1853,澳门特别行政区,820005,风顺堂区,住宿服务,住宿服务相关,住宿服务相关,113.54144,22.190004,113.53631533681023,22.192923099084098
B0K3MZRGXR,利成大厦,住宿服务;住宿服务相关;住宿服务相关,100000,"高楼街39A号,Edificio Lei Seng",[],820000,澳门特别行政区,1853,澳门特别行政区,820005,风顺堂区,住宿服务,住宿服务相关,住宿服务相关,113.540692,22.186164,113.53556533930234,22.189079852869305
B0K3MZRGX1,伟成大厦,住宿服务;住宿服务相关;住宿服务相关,100000,蓬莱新巷Edificio Wai Seng,[],820000,澳门特别行政区,1853,澳门特别行政区,820005,风顺堂区,住宿服务,住宿服务相关,住宿服务相关,113.541752,22.192054,113.53662813648252,22.19497460312436
B0K3MZRGV4,联信大厦,住宿服务;住宿服务相关;住宿服务相关,100000,澳门钟家里13号,[],820000,澳门特别行政区,1853,澳门特别行政区,820004,大堂区,住宿服务,住宿服务相关,住宿服务相关,113.544086,22.192098,113.5389690081976,22.19502434617528
B0K3MZRGOH,金发大厦,住宿服务;住宿服务相关;住宿服务相关,100000,"19C,Edificio Kam Fat,偶像围澳门",[],820000,澳门特别行政区,1853,澳门特别行政区,820005,风顺堂区,住宿服务,住宿服务相关,住宿服务相关,113.538787,22.186732,113.53365451692471,22.18964321017141
B0K3MZR1KC,万成大厦,住宿服务;住宿服务相关;住宿服务相关,100000,庇山耶街45号,[],820000,澳门特别行政区,1853,澳门特别行政区,820004,大堂区,住宿服务,住宿服务相关,住宿服务相关,113.543767,22.192424,113.538649057429,22.195349688017345
B0K3MZR1JF,鸿利大厦,住宿服务;住宿服务相关;住宿服务相关,100000,澳门景观里10号,[],820000,澳门特别行政区,1853,澳门特别行政区,820004,大堂区,住宿服务,住宿服务相关,住宿服务相关,113.548711,22.192655,113.54360709074176,22.195592400666097
B0K3MZR1CT,兴发大厦,住宿服务;住宿服务相关;住宿服务相关,100000,和平斜巷与高楼街交叉口东南20米,[],820000,澳门特别行政区,1853,澳门特别行政区,820005,风顺堂区,住宿服务,住宿服务相关,住宿服务相关,113.541668,22.186732,113.5365442274968,22.189650500452643
B0K3MZQTVX,合兴大厦,住宿服务;住宿服务相关;住宿服务相关,100000,"比厘喇马忌士街35-37号,Edificio Hap Heng",[],820000,澳门特别行政区,1853,澳门特别行政区,820005,风顺堂区,住宿服务,住宿服务相关,住宿服务相关,113.539165,22.189081,113.53403352214416,22.19199401849676
B0K3MZQM8C,美景大厦,住宿服务;住宿服务相关;住宿服务相关,100000,"烧灰炉街4A号,Edificio Mei Keng",[],820000,澳门特别行政区,1853,澳门特别行政区,820005,风顺堂区,住宿服务,住宿服务相关,住宿服务相关,113.541956,22.184686,113.53683321646524,22.18760448186813
B0K3MZQM4Z,连发大厦,住宿服务;住宿服务相关;住宿服务相关,100000,下环街Edificio Lin Fat,[],820000,澳门特别行政区,1853,澳门特别行政区,820005,风顺堂区,住宿服务,住宿服务相关,住宿服务相关,113.53861,22.185573,113.53347704869704,22.188483339226742
B0K3MZQLVM,兴泰楼(ABC座),住宿服务;住宿服务相关;住宿服务相关,100000,山水园巷no.12号,[],820000,澳门特别行政区,1853,澳门特别行政区,820005,风顺堂区,住宿服务,住宿服务相关,住宿服务相关,113.541427,22.185918,113.5363025601045,22.188835607640584
B0K3MZPZ4N,西望洋花园(第十六座),住宿服务;住宿服务相关;住宿服务相关,100000,"西望洋巷78-82号,Jardim Da Penha",[],820000,澳门特别行政区,1853,澳门特别行政区,820005,风顺堂区,住宿服务,住宿服务相关,住宿服务相关,113.539405,22.184757,113.53427453173909,22.187669084092
B0K3MZPJEA,泉英楼,住宿服务;住宿服务相关;住宿服务相关,100000,河边新街Edificio Chun Ieng,[],820000,澳门特别行政区,1853,澳门特别行政区,820005,风顺堂区,住宿服务,住宿服务相关,住宿服务相关,113.538291,22.186586,113.53315700350886,22.1894958800353
B0K3MZPBZU,西望洋花园(第十四座),住宿服务;住宿服务相关;住宿服务相关,100000,"西望洋巷32-36号,Jardim Da Penha",[],820000,澳门特别行政区,1853,澳门特别行政区,820005,风顺堂区,住宿服务,住宿服务相关,住宿服务相关,113.539822,22.184736,113.53469280109483,22.187649138842264
B0K3MZPBLG,辉星大厦,住宿服务;住宿服务相关;住宿服务相关,100000,"澳门亚坚奴前地8-10号,Edificio Fai Seng",[],820000,澳门特别行政区,1853,澳门特别行政区,820005,风顺堂区,住宿服务,住宿服务相关,住宿服务相关,113.542036,22.189564,113.53691314139488,22.192484425696804
B0K3MZOWG9,永丰大厦,住宿服务;住宿服务相关;住宿服务相关,100000,三巴仔横街no.124-128号,[],820000,澳门特别行政区,1853,澳门特别行政区,820005,风顺堂区,住宿服务,住宿服务相关,住宿服务相关,113.54188,22.189067,113.53675670933082,22.19198686163644
B0K3MZOWDX,永业大厦,住宿服务;住宿服务相关;住宿服务相关,100000,"龙嵩正街35号,Edificio Veng Yip",[],820000,澳门特别行政区,1853,澳门特别行政区,820005,风顺堂区,住宿服务,住宿服务相关,住宿服务相关,113.543839,22.188659,113.5387215089632,22.191583527060267
B0K3MZOWDG,西望洋花园(第三第四座),住宿服务;住宿服务相关;住宿服务相关,100000,鲍公马路Jardim Da Penha,[],820000,澳门特别行政区,1853,澳门特别行政区,820005,风顺堂区,住宿服务,住宿服务相关,住宿服务相关,113.538758,22.183995,113.5336256038232,22.186905152097392
B0K3MZO1J5,福景阁,住宿服务;住宿服务相关;住宿服务相关,100000,"江沙路里20号,Edificio Fok Keng",[],820000,澳门特别行政区,1853,澳门特别行政区,820005,风顺堂区,住宿服务,住宿服务相关,住宿服务相关,113.544425,22.189627,113.53930915131696,22.192553288652864
B0K3MZNN5T,新光大厦,住宿服务;住宿服务相关;住宿服务相关,100000,"10A,Edificio San Kong,10下环旧巷澳门",[],820000,澳门特别行政区,1853,澳门特别行政区,820005,风顺堂区,住宿服务,住宿服务相关,住宿服务相关,113.538523,22.186842,113.53338970016496,22.189752570233647
B0K3MZNEBO,佑满大厦前座,住宿服务;住宿服务相关;住宿服务相关,100000,"龙嵩正街75号,Edificio Yau Mun",[],820000,澳门特别行政区,1853,澳门特别行政区,820005,风顺堂区,住宿服务,住宿服务相关,住宿服务相关,113.543222,22.188234,113.53810273027467,22.19115687246317
B0K3MZMZC7,南丰大厦,住宿服务;住宿服务相关;住宿服务相关,100000,"Rua de SJose,no.2AB,澳门",[],820000,澳门特别行政区,1853,澳门特别行政区,820005,风顺堂区,住宿服务,住宿服务相关,住宿服务相关,113.541783,22.188704,113.5366594437795,22.191623491210805
B0K3MZMZ8T,晓逸阁,住宿服务;住宿服务相关;住宿服务相关,100000,商人巷10-10a号,[],820000,澳门特别行政区,1853,澳门特别行政区,820004,大堂区,住宿服务,住宿服务相关,住宿服务相关,113.544213,22.192665,113.53909634117322,22.195591853432813
B0K3MZMJQZ,宝晖大厦,住宿服务;住宿服务相关;住宿服务相关,100000,"C号,9岗陵街澳门",[],820000,澳门特别行政区,1853,澳门特别行政区,820004,大堂区,住宿服务,住宿服务相关,住宿服务相关,113.550232,22.192454,113.54513226263396,22.19539474960432
B0K3MZLQ3Z,日升楼,住宿服务;住宿服务相关;住宿服务相关,100000,"3A,Edificio Iat Seng,蓬莱新巷澳门",00853-28250116,820000,澳门特别行政区,1853,澳门特别行政区,820005,风顺堂区,住宿服务,住宿服务相关,住宿服务相关,113.541764,22.192219,113.53664016165504,22.195139691283103
B0K3MZLQ1V,EDIFICIO SON FAT GARDEN孤发花园,住宿服务;住宿服务相关;住宿服务相关,100000,"民国大马路No.78号,Edificio Son Fat Garden",[],820000,澳门特别行政区,1853,澳门特别行政区,820005,风顺堂区,住宿服务,住宿服务相关,住宿服务相关,113.535928,22.179218,113.53078713366328,22.18211904161952
B0K3MZLPZ3,嘉盛楼,住宿服务;住宿服务相关;住宿服务相关,100000,"菜园围4号,Ca Seng Lau",[],820000,澳门特别行政区,1853,澳门特别行政区,820005,风顺堂区,住宿服务,住宿服务相关,住宿服务相关,113.541327,22.18908,113.53620205814047,22.19199848812275
B0K3MZLPW4,基业大厦,住宿服务;住宿服务相关;住宿服务相关,100000,龙嵩正街59-67号,[],820000,澳门特别行政区,1853,澳门特别行政区,820005,风顺堂区,住宿服务,住宿服务相关,住宿服务相关,113.543238,22.188262,113.53811877545677,22.191184921573004
B0K3MZLBKM,祥星大厦,住宿服务;住宿服务相关;住宿服务相关,100000,妈阁斜巷no.8-12号,[],820000,澳门特别行政区,1853,澳门特别行政区,820005,风顺堂区,住宿服务,住宿服务相关,住宿服务相关,113.53655,22.184109,113.53141076616228,22.18701345401068
B0K3MZLBF1,新胜村,住宿服务;住宿服务相关;住宿服务相关,100000,亚婆井街Vila San Seng,[],820000,澳门特别行政区,1853,澳门特别行政区,820005,风顺堂区,住宿服务,住宿服务相关,住宿服务相关,113.540399,22.185196,113.53527151811576,22.1881107663715
B0K3MZLBDW,西望洋花园(第十一座),住宿服务;住宿服务相关;住宿服务相关,100000,"西望洋巷107-133号,Jardim Da Penha",[],820000,澳门特别行政区,1853,澳门特别行政区,820005,风顺堂区,住宿服务,住宿服务相关,住宿服务相关,113.53915,22.184469,113.53401877246694,22.18738032848025
B0K3MZLBCA,和德大厦,住宿服务;住宿服务相关;住宿服务相关,100000,"5A,Edificio Vo Tak,5水手东街澳门",[],820000,澳门特别行政区,1853,澳门特别行政区,820005,风顺堂区,住宿服务,住宿服务相关,住宿服务相关,113.540678,22.188199,113.53555116655735,22.191115545651567
B0K3MZL3UW,添威大厦,住宿服务;住宿服务相关;住宿服务相关,100000,河边新街Edificio Tim Wai,[],820000,澳门特别行政区,1853,澳门特别行政区,820005,风顺堂区,住宿服务,住宿服务相关,住宿服务相关,113.538355,22.186834,113.53322118444136,22.18974413410934
B0K3MZKWBU,就胜大厦,住宿服务;住宿服务相关;住宿服务相关,100000,澳门圣方济各里,[],820000,澳门特别行政区,1853,澳门特别行政区,820004,大堂区,住宿服务,住宿服务相关,住宿服务相关,113.548227,22.190542,113.54312188604094,22.193477548695263
B0K3MZKWAE,建民楼,住宿服务;住宿服务相关;住宿服务相关,100000,高楼街与妈阁巷交叉口西南40米,[],820000,澳门特别行政区,1853,澳门特别行政区,820005,风顺堂区,住宿服务,住宿服务相关,住宿服务相关,113.538525,22.184949,113.53339182787316,22.18785889601501
B0K3MZKW5H,杏发大厦,住宿服务;住宿服务相关;住宿服务相关,100000,"安仿西街Edificio Hang Fat(a,B,C,D)",[],820000,澳门特别行政区,1853,澳门特别行政区,820005,风顺堂区,住宿服务,住宿服务相关,住宿服务相关,113.541623,22.189933,113.53649888789364,22.19285253029216
B0K3MZKGZI,鸿盛大厦,住宿服务;住宿服务相关;住宿服务相关,100000,得胜街Edificio Hung Seng,[],820000,澳门特别行政区,1853,澳门特别行政区,820004,大堂区,住宿服务,住宿服务相关,住宿服务相关,113.551064,22.192287,113.54596651442984,22.1952295284171
B0K3MZKGSP,西望洋花园(第九座),住宿服务;住宿服务相关;住宿服务相关,100000,"西望洋巷11-45号,Jardim Da Penha",[],820000,澳门特别行政区,1853,澳门特别行政区,820005,风顺堂区,住宿服务,住宿服务相关,住宿服务相关,113.539869,22.18451,113.53473995821533,22.18742317691936
B0K3MZK1K1,Gandmother Place,住宿服务;住宿服务相关;住宿服务相关,100000,澳门商业大马路与苏亚利斯博士大马路交叉口南80米,[],820000,澳门特别行政区,1853,澳门特别行政区,820004,大堂区,住宿服务,住宿服务相关,住宿服务相关,113.547794,22.185576,113.5426879985513,22.18850878154785
B0K3MZJTTL,金耀大厦,住宿服务;住宿服务相关;住宿服务相关,100000,小贩巷与下环街交叉口西60米,[],820000,澳门特别行政区,1853,澳门特别行政区,820005,风顺堂区,住宿服务,住宿服务相关,住宿服务相关,113.539147,22.186605,113.53401562616556,22.189517088047754
B0L6ARR3KU,海洋花园(焜苑),住宿服务;住宿服务相关;住宿服务相关,100000,海洋花园大马路与花园街交叉口东北220米,[],820000,澳门特别行政区,1853,澳门特别行政区,820006,嘉模堂区,住宿服务,住宿服务相关,住宿服务相关,113.550426,22.160603,113.54532882392792,22.163532497224896
B0KRKLF87R,Ocean Gardens Lotus Court,住宿服务;住宿服务相关;住宿服务相关,100000,"91-141号RUm dos Jardins do Oceano,Macao",[],820000,澳门特别行政区,1853,澳门特别行政区,820006,嘉模堂区,住宿服务,住宿服务相关,住宿服务相关,113.547865,22.160113,113.54276082586232,22.16303652507964
B0KDY9YTYZ,Bamboo Court,住宿服务;住宿服务相关;住宿服务相关,100000,"RSeis dos Jardins do Oceano,Macao",[],820000,澳门特别行政区,1853,澳门特别行政区,820006,嘉模堂区,住宿服务,住宿服务相关,住宿服务相关,113.546537,22.156894,113.54142930007016,22.15981321190595
B0KDY1TJJ0,Windsor Arch,住宿服务;住宿服务相关;住宿服务相关,100000,"EstrGovAlbano de Oliveira,Macao",[],820000,澳门特别行政区,1853,澳门特别行政区,820006,嘉模堂区,住宿服务,住宿服务相关,住宿服务相关,113.551072,22.154799,113.54597693209143,22.157727702987245
B0K3MZSZID,海洋花园(海兰苑),住宿服务;住宿服务相关;住宿服务相关,100000,海洋花园第一街177号,[],820000,澳门特别行政区,1853,澳门特别行政区,820006,嘉模堂区,住宿服务,住宿服务相关,住宿服务相关,113.548379,22.160355,113.54327623906448,22.16327979570934
B0K3MZSJIG,Pine Court松苑,住宿服务;住宿服务相关;住宿服务相关,100000,"海洋花园大马路1441C号,Jardins Do Oceano(cypress Court)",[],820000,澳门特别行政区,1853,澳门特别行政区,820006,嘉模堂区,住宿服务,住宿服务相关,住宿服务相关,113.552039,22.160953,113.54694611211524,22.16388616087477
B0K3MZS4B2,Plum Court李苑,住宿服务;住宿服务相关;住宿服务相关,100000,海洋花园大马路726D号,[],820000,澳门特别行政区,1853,澳门特别行政区,820006,嘉模堂区,住宿服务,住宿服务相关,住宿服务相关,113.549256,22.159897,113.54415568543064,22.16282361244187
B0K3MZRW9Z,海洋花园(桂苑),住宿服务;住宿服务相关;住宿服务相关,100000,海洋花园大马路Jardins Do Oceano(edfLaurel),[],820000,澳门特别行政区,1853,澳门特别行政区,820006,嘉模堂区,住宿服务,住宿服务相关,住宿服务相关,113.549099,22.157717,113.54399839400226,22.16064242632805
B0JRGZ0FO7,澳门罗斯福酒店大堂,住宿服务;宾馆酒店;宾馆酒店,100100,东亚运大马路与东亚运街交叉口东80米,[],820000,澳门特别行政区,1853,澳门特别行政区,820006,嘉模堂区,住宿服务,宾馆酒店,宾馆酒店,113.548461,22.152538,113.54335896592572,22.15545998665048
B0IRHRVYU7,The Macau Roosevelt,住宿服务;宾馆酒店;宾馆酒店,100100,"Avdos Jogos da asia Oriental,Macao",00853-28820100,820000,澳门特别行政区,1853,澳门特别行政区,820006,嘉模堂区,住宿服务,宾馆酒店,宾馆酒店,113.548571,22.152242,113.54346928912145,22.155164123069174
B0FFGZGPPM,YOHO荷里活罗斯福酒店,住宿服务;宾馆酒店;宾馆酒店,100100,凼仔东亚运大马路924-998号,00853-28820100,820000,澳门特别行政区,1853,澳门特别行政区,820006,嘉模堂区,住宿服务,宾馆酒店,宾馆酒店,113.548621,22.152186,113.54351943087258,22.15510821529431
B073D00ARM,星际酒店,住宿服务;宾馆酒店;五星级宾馆,100102,友谊大马路星际娱乐场,00853-28383838,820000,澳门特别行政区,1853,澳门特别行政区,820004,大堂区,住宿服务,宾馆酒店,五星级宾馆,113.553146,22.186752,113.5480543686058,22.189697054112504
B073D00BFW,澳门美高梅金殿,住宿服务;宾馆酒店;五星级宾馆,100102,外港新填海区孙逸仙大马路,00853-88028888,820000,澳门特别行政区,1853,澳门特别行政区,820004,大堂区,住宿服务,宾馆酒店,五星级宾馆,113.552973,22.182962,113.54788115974904,22.185905322889926
B073D0M2Y3,澳门回力酒店,住宿服务;宾馆酒店;宾馆酒店,100100,友谊大马路回力球综合大楼,00853-28725599;00853-88012788,820000,澳门特别行政区,1853,澳门特别行政区,820004,大堂区,住宿服务,宾馆酒店,宾馆酒店,113.559836,22.194553,113.55476044924806,22.19751420247233
B073D00BLQ,澳门金沙,住宿服务;宾馆酒店;五星级宾馆,100102,蒙地卡罗前地203号,00853-28883388,820000,澳门特别行政区,1853,澳门特别行政区,820004,大堂区,住宿服务,宾馆酒店,五星级宾馆,113.55993,22.188699,113.55485504324312,22.191658307339587
B0FFFONIXO,澳门励庭海景酒店,住宿服务;宾馆酒店;宾馆酒店,100100,澳门半岛孙逸仙大马路渔人码头,00853-87996688,820000,澳门特别行政区,1853,澳门特别行政区,820004,大堂区,住宿服务,宾馆酒店,宾馆酒店,113.561214,22.187675,113.55614208548091,22.19063631222404
B073D00C6D,澳门维多利亚酒店,住宿服务;宾馆酒店;三星级宾馆,100104,澳门半岛黑沙环拱形马路118号,[],820000,澳门特别行政区,1853,澳门特别行政区,820001,花地玛堂区,住宿服务,宾馆酒店,三星级宾馆,113.55367,22.207034,113.54857843167352,22.209987240384624
B073D00BFE,金龙酒店,住宿服务;宾馆酒店;四星级宾馆,100103,马六甲街,00853-28361999;00853-28362852,820000,澳门特别行政区,1853,澳门特别行政区,820004,大堂区,住宿服务,宾馆酒店,四星级宾馆,113.559572,22.192367,113.554495967409,22.19532693639464
B073D00BF8,皇家金堡酒店,住宿服务;宾馆酒店;四星级宾馆,100103,澳门半岛罗理基博士大马路1118号,00853-28726288,820000,澳门特别行政区,1853,澳门特别行政区,820004,大堂区,住宿服务,宾馆酒店,四星级宾馆,113.558742,22.193744,113.5536639081376,22.196702844269872
B073D00KYD,利澳酒店,住宿服务;宾馆酒店;四星级宾馆,100103,新口岸高美士街33号,00853-28718718,820000,澳门特别行政区,1853,澳门特别行政区,820004,大堂区,住宿服务,宾馆酒店,四星级宾馆,113.554963,22.189851,113.54987584167628,22.192800956984737
B073D00ARG,澳门维景酒店,住宿服务;宾馆酒店;四星级宾馆,100103,澳门半岛新口岸北京街199号,00853-28781233,820000,澳门特别行政区,1853,澳门特别行政区,820004,大堂区,住宿服务,宾馆酒店,四星级宾馆,113.553377,22.189265,113.5482858085986,22.19221144059081
B0KUCAYMRV,澳门城悦酒店(原万龙酒店),住宿服务;宾馆酒店;宾馆酒店,100100,厦门街59号,00853-28800888,820000,澳门特别行政区,1853,澳门特别行政区,820004,大堂区,住宿服务,宾馆酒店,宾馆酒店,113.55704,22.190183,113.5519580082028,22.19313726865789
B073D00G46,澳门华都酒店,住宿服务;宾馆酒店;三星级宾馆,100104,澳门澳门半岛澳门友谊大马路1071号,00853-28703328;00853-28886688,820000,澳门特别行政区,1853,澳门特别行政区,820004,大堂区,住宿服务,宾馆酒店,三星级宾馆,113.558055,22.190293,113.5529754760746,22.19324929885212
B073D00BMI,澳门帝濠酒店,住宿服务;宾馆酒店;三星级宾馆,100104,澳门澳门半岛上海街51号,00853-28781888;00853-87982097,820000,澳门特别行政区,1853,澳门特别行政区,820004,大堂区,住宿服务,宾馆酒店,三星级宾馆,113.553068,22.188078,113.54797608061844,22.19102336256236
B073D00DFN,东望洋酒店,住宿服务;宾馆酒店;三星级宾馆,100104,澳门澳门半岛松山马路1-5号,00853-28513888,820000,澳门特别行政区,1853,澳门特别行政区,820003,望德堂区,住宿服务,宾馆酒店,三星级宾馆,113.553665,22.192934,113.548574320182,22.1958823478252
B0FFGCBG21,澳门皇冠假日酒店,住宿服务;宾馆酒店;五星级宾馆,100102,东方明珠街君悦湾第7座(近友谊桥大马路),00853-28886888,820000,澳门特别行政区,1853,澳门特别行政区,820001,花地玛堂区,住宿服务,宾馆酒店,五星级宾馆,113.563193,22.209324,113.55812416210516,22.212296363047376
B073D00M70,澳门莱斯酒店,住宿服务;宾馆酒店;三星级宾馆,100104,孙逸仙大马路澳门渔人码头(东南角),00853-28782782;00853-28783635,820000,澳门特别行政区,1853,澳门特别行政区,820004,大堂区,住宿服务,宾馆酒店,三星级宾馆,113.563124,22.186938,113.5580564365415,22.18990245476325
B073D00ARJ,澳门置地广场酒店,住宿服务;宾馆酒店;五星级宾馆,100102,新口岸友谊大马路555号置地广场,00853-28781781,820000,澳门特别行政区,1853,澳门特别行政区,820004,大堂区,住宿服务,宾馆酒店,五星级宾馆,113.553809,22.188263,113.54871899059036,22.19120999349828
B0FFHQ96H9,澳门励宫酒店,住宿服务;宾馆酒店;宾馆酒店,100100,友谊大马路1315-1339号,00853-88018801,820000,澳门特别行政区,1853,澳门特别行政区,820004,大堂区,住宿服务,宾馆酒店,宾馆酒店,113.561315,22.192604,113.55624300252502,22.19556724636207
B073D00CP0,望厦迎宾馆,住宿服务;宾馆酒店;三星级宾馆,100104,望厦山,[],820000,澳门特别行政区,1853,澳门特别行政区,820001,花地玛堂区,住宿服务,宾馆酒店,三星级宾馆,113.553903,22.203516,113.54881225801137,22.206468528568934
B0FFF6WIDZ,澳门文化酒店,住宿服务;宾馆酒店;宾馆酒店,100100,新马路金碧文化中心后边,[],820000,澳门特别行政区,1853,澳门特别行政区,820004,大堂区,住宿服务,宾馆酒店,宾馆酒店,113.558491,22.18885,113.55341261892382,22.19180662905576
B073D00LW7,万利酒店,住宿服务;宾馆酒店;宾馆酒店,100100,城市日大马路与科英布拉街交叉口西80米,[],820000,澳门特别行政区,1853,澳门特别行政区,820004,大堂区,住宿服务,宾馆酒店,宾馆酒店,113.552855,22.184993,113.5477627216658,22.18793680375137
B0KU77D35W,Romantic Double Room with Private Bath,住宿服务;宾馆酒店;宾馆酒店,100100,"Edificio Lun On7 Rdo Monte,China",[],820000,澳门特别行政区,1853,澳门特别行政区,820003,望德堂区,住宿服务,宾馆酒店,宾馆酒店,113.557978,22.196006,113.5528979250559,22.198964162679086
B0KU773Q25,Warm 2 bedroom 2 bathroom 1 hall,住宿服务;宾馆酒店;宾馆酒店,100100,"Edificio Lun On7 Rdo Monte,China",[],820000,澳门特别行政区,1853,澳门特别行政区,820003,望德堂区,住宿服务,宾馆酒店,宾馆酒店,113.557888,22.195759,113.5528077227158,22.198716900981218
B0KU3YKSJT,the pavillion shenzhen,住宿服务;宾馆酒店;宾馆酒店,100100,"Largo do Terminal Maritimo,Macao",[],820000,澳门特别行政区,1853,澳门特别行政区,820001,花地玛堂区,住宿服务,宾馆酒店,宾馆酒店,113.56534,22.194764,113.56027674193808,22.19773499789476
B0KA2CHL5V,Residencia SuitesMacau澳门君寓,住宿服务;宾馆酒店;宾馆酒店,100100,澳门MO,[],820000,澳门特别行政区,1853,澳门特别行政区,820001,花地玛堂区,住宿服务,宾馆酒店,宾馆酒店,113.56309,22.209334,113.5580209334494,22.21230618672224
B0JRYS5ASA,澳门励庭海景酒店大堂,住宿服务;宾馆酒店;宾馆酒店,100100,冼星海大马路与罗马街交叉口东240米,[],820000,澳门特别行政区,1853,澳门特别行政区,820004,大堂区,住宿服务,宾馆酒店,宾馆酒店,113.560934,22.187636,113.55586144447103,22.190596786877425
B0JRYCCRZR,澳门置地广场酒店大堂,住宿服务;宾馆酒店;五星级宾馆,100102,友谊大马路与宋玉生广场辅路交叉口西60米,[],820000,澳门特别行政区,1853,澳门特别行政区,820004,大堂区,住宿服务,宾馆酒店,五星级宾馆,113.553877,22.188153,113.54878717296788,22.1911000968761
B0JRYA3KU2,澳门雅辰酒店大堂,住宿服务;宾馆酒店;五星级宾馆,100102,友谊大马路与友谊大马路辅路交叉口东40米,[],820000,澳门特别行政区,1853,澳门特别行政区,820004,大堂区,住宿服务,宾馆酒店,五星级宾馆,113.558708,22.189844,113.55363007567978,22.192801399819885
B0JRPHN3GB,澳门皇冠假日酒店大堂,住宿服务;宾馆酒店;五星级宾馆,100102,友谊桥大马路与友谊圆形地交叉口西北140米,[],820000,澳门特别行政区,1853,澳门特别行政区,820001,花地玛堂区,住宿服务,宾馆酒店,五星级宾馆,113.563157,22.209332,113.55808808194936,22.21230430298821
B0JRPHJXBJ,澳门新口岸智选假日酒店大堂,住宿服务;宾馆酒店;宾馆酒店,100100,上海街与罗理基博士大马路辅路交叉口东南20米,[],820000,澳门特别行政区,1853,澳门特别行政区,820004,大堂区,住宿服务,宾馆酒店,宾馆酒店,113.552824,22.189461,113.5477313550068,22.19240633583122
B0JRPCVQTX,星际酒店大堂,住宿服务;宾馆酒店;五星级宾馆,100102,仙德丽街与伦斯泰特大马路交叉口西南40米,[],820000,澳门特别行政区,1853,澳门特别行政区,820004,大堂区,住宿服务,宾馆酒店,五星级宾馆,113.553083,22.186878,113.54799119641608,22.189822965455352
B0JRGC0K1U,澳门凯旋门酒店大堂,住宿服务;宾馆酒店;五星级宾馆,100102,城市日大马路与科英布拉街交叉口北60米,[],820000,澳门特别行政区,1853,澳门特别行政区,820004,大堂区,住宿服务,宾馆酒店,五星级宾馆,113.553475,22.18542,113.54838430852617,22.18836527263242
B0JRGAYP5F,澳门维景酒店大堂,住宿服务;宾馆酒店;四星级宾馆,100103,北京街与上海街交叉口东北60米,[],820000,澳门特别行政区,1853,澳门特别行政区,820004,大堂区,住宿服务,宾馆酒店,四星级宾馆,113.553447,22.189125,113.54835599916248,22.192071538654453
B0JRGAUT69,万利酒店大堂,住宿服务;宾馆酒店;宾馆酒店,100100,城市日大马路与科英布拉街交叉口西北60米,[],820000,澳门特别行政区,1853,澳门特别行政区,820004,大堂区,住宿服务,宾馆酒店,宾馆酒店,113.553019,22.185065,113.54792714539576,22.18800917890684
B0JRAUTDA5,澳门励宫酒店大堂,住宿服务;宾馆酒店;宾馆酒店,100100,友谊大马路与海港街交叉口东南80米,[],820000,澳门特别行政区,1853,澳门特别行政区,820004,大堂区,住宿服务,宾馆酒店,宾馆酒店,113.561217,22.192602,113.55614477818396,22.19556506739942
B0JRAUP5X5,澳门莱斯酒店大堂,住宿服务;宾馆酒店;三星级宾馆,100104,冼星海大马路与马徳里街交叉口东400米,[],820000,澳门特别行政区,1853,澳门特别行政区,820004,大堂区,住宿服务,宾馆酒店,三星级宾馆,113.563057,22.186817,113.55798929581432,22.189781294414896
B0JRAAI5KH,澳门美高梅金殿大堂,住宿服务;宾馆酒店;五星级宾馆,100102,孙逸仙大马路与城市日大马路交叉口西120米,[],820000,澳门特别行政区,1853,澳门特别行政区,820004,大堂区,住宿服务,宾馆酒店,五星级宾馆,113.553178,22.18242,113.54808672875475,22.18536356244984
B0JRA5PYL0,利澳酒店大堂,住宿服务;宾馆酒店;四星级宾馆,100103,高美士街与宋玉生广场交叉口东北40米,[],820000,澳门特别行政区,1853,澳门特别行政区,820004,大堂区,住宿服务,宾馆酒店,四星级宾馆,113.554928,22.189651,113.54984076563372,22.1926008138661
B0IRHRW6IW,Ascott Macau,住宿服务;宾馆酒店;宾馆酒店,100100,"339号RCidade de Braga,Macao",00853-28220688,820000,澳门特别行政区,1853,澳门特别行政区,820004,大堂区,住宿服务,宾馆酒店,宾馆酒店,113.554458,22.18378,113.54936994354829,22.18672673972289
B0HR7AOEKO,Million Dragon Hotel Macau,住宿服务;宾馆酒店;宾馆酒店,100100,口岸厦门街59号(澳门特别行政区大堂区高美士街230号),[],820000,澳门特别行政区,1853,澳门特别行政区,820004,大堂区,住宿服务,宾馆酒店,宾馆酒店,113.557048,22.190096,113.5519660334198,22.19305025360616
B0FFLNVGE4,澳门新口岸智选假日酒店,住宿服务;宾馆酒店;宾馆酒店,100100,罗理基博士大马路338-362B,00853-85908888,820000,澳门特别行政区,1853,澳门特别行政区,820004,大堂区,住宿服务,宾馆酒店,宾馆酒店,113.552915,22.189492,113.54782259092832,22.19243754087272
B0KU59PJYJ,悦子公寓,住宿服务;旅馆招待所;旅馆招待所,100200,"7A Avdo CelMesquita,Macao",[],820000,澳门特别行政区,1853,澳门特别行政区,820003,望德堂区,住宿服务,旅馆招待所,旅馆招待所,113.556328,22.199845,113.55124363126497,22.20280123804085
B073D00C5Q,玉珠公寓,住宿服务;旅馆招待所;旅馆招待所,100200,美副将大马路7号,[],820000,澳门特别行政区,1853,澳门特别行政区,820003,望德堂区,住宿服务,旅馆招待所,旅馆招待所,113.556505,22.199808,113.55142107296813,22.20276457991312
B0FFIR57S0,澳门御龙酒店,住宿服务;住宿服务相关;住宿服务相关,100000,果亚街61-77,00853-28261999,820000,澳门特别行政区,1853,澳门特别行政区,820004,大堂区,住宿服务,住宿服务相关,住宿服务相关,113.55531,22.19046,113.55022368086384,22.19341088490312
B0FFLHU4BO,澳门城悦酒店(原万龙酒店),住宿服务;住宿服务相关;住宿服务相关,100000,新口岸厦门街59号(高美士街230号),[],820000,澳门特别行政区,1853,澳门特别行政区,820004,大堂区,住宿服务,住宿服务相关,住宿服务相关,113.55705,22.190169,113.5519680336746,22.19312328349196
B0FFKC8O82,澳门雅诗阁,住宿服务;住宿服务相关;住宿服务相关,100000,澳门半岛柏嘉街339号,[],820000,澳门特别行政区,1853,澳门特别行政区,820004,大堂区,住宿服务,住宿服务相关,住宿服务相关,113.554353,22.183987,113.54926466176325,22.186933596251432
B073D00C5P,胜利别墅,住宿服务;旅馆招待所;旅馆招待所,100200,美副将大马路7-A,[],820000,澳门特别行政区,1853,澳门特别行政区,820003,望德堂区,住宿服务,旅馆招待所,旅馆招待所,113.55637,22.199938,113.55128572968285,22.20289435451992
B0J1UZ47GS,绿悠旅舍,住宿服务;住宿服务相关;住宿服务相关,100000,花地玛堂区澳门拱形马路21号,00853-28339993,820000,澳门特别行政区,1853,澳门特别行政区,820001,花地玛堂区,住宿服务,住宿服务相关,住宿服务相关,113.55306,22.207354,113.54796682728876,22.210306059216272
B0FFHRKBGB,澳门美丽居旅馆,住宿服务;旅馆招待所;旅馆招待所,100200,澳门澳门半岛外港新填海区B区B2街,[],820000,澳门特别行政区,1853,澳门特别行政区,820004,大堂区,住宿服务,旅馆招待所,旅馆招待所,113.553594,22.183443,113.54850374305218,22.186387811537948
B0FFJYJOHK,澳门新东方置地酒店,住宿服务;住宿服务相关;住宿服务相关,100000,"友谊大马路555号,近上海街宋玉生广场对面",00853-83998888,820000,澳门特别行政区,1853,澳门特别行政区,820004,大堂区,住宿服务,住宿服务相关,住宿服务相关,113.553786,22.188326,113.54869592721693,22.191272967694445
B0GKYNED9V,澳门雅辰酒店,住宿服务;宾馆酒店;五星级宾馆,100102,友谊大马路956-1110号,00853-28567888,820000,澳门特别行政区,1853,澳门特别行政区,820004,大堂区,住宿服务,宾馆酒店,五星级宾馆,113.558393,22.189419,113.55331434708448,22.192375642691207
B0JK1CJZCN,君荟(君悦湾第六座),住宿服务;住宿服务相关;住宿服务相关,100000,东方明珠街237号,[],820000,澳门特别行政区,1853,澳门特别行政区,820001,花地玛堂区,住宿服务,住宿服务相关,住宿服务相关,113.563309,22.208991,113.55824043961184,22.211963452448888
B0L6KHDEJA,澳门不象民宿,住宿服务;住宿服务相关;住宿服务相关,100000,北京街244号,15018257365,820000,澳门特别行政区,1853,澳门特别行政区,820004,大堂区,住宿服务,住宿服务相关,住宿服务相关,113.553497,22.188672,113.54840615772888,22.19161848281773
B0LG6HI8P3,莲德大厦第2座,住宿服务;住宿服务相关;住宿服务相关,100000,"MacaoTvdo Templo Lin-Fong,14b号号",[],820000,澳门特别行政区,1853,澳门特别行政区,820001,花地玛堂区,住宿服务,住宿服务相关,住宿服务相关,113.554478,22.204384,113.5493886780301,22.207338024859588
B0KU77B5Q0,Macau Homestays Feeling,住宿服务;住宿服务相关;住宿服务相关,100000,马六甲街与高美士街交叉口东北60米,[],820000,澳门特别行政区,1853,澳门特别行政区,820004,大堂区,住宿服务,住宿服务相关,住宿服务相关,113.559392,22.193499,113.55431546997204,22.19645899570598
B0KKSP3830,CooLiving Macau,住宿服务;住宿服务相关;住宿服务相关,100000,"文第士街13号,Nantong Quarters",00853-65872817,820000,澳门特别行政区,1853,澳门特别行政区,820003,望德堂区,住宿服务,住宿服务相关,住宿服务相关,113.554905,22.197997,113.5498171739948,22.20094970295417
B0KKMPF8YV,望厦社屋望善楼I,住宿服务;住宿服务相关;住宿服务相关,100000,慕拉士大马路望厦社屋望信楼,[],820000,澳门特别行政区,1853,澳门特别行政区,820001,花地玛堂区,住宿服务,住宿服务相关,住宿服务相关,113.557136,22.203811,113.55205337374404,22.206770214296075
B0KKGG80YB,广胜汇,住宿服务;住宿服务相关;住宿服务相关,100000,得胜马路28B号,[],820000,澳门特别行政区,1853,澳门特别行政区,820003,望德堂区,住宿服务,住宿服务相关,住宿服务相关,113.554546,22.195464,113.54945742182832,22.19841507675057
B0KKDPUQ4R,마카오에어비앤비住宿,住宿服务;住宿服务相关;住宿服务相关,100000,宋玉生广场431号,[],820000,澳门特别行政区,1853,澳门特别行政区,820004,大堂区,住宿服务,住宿服务相关,住宿服务相关,113.553828,22.186619,113.54873814465078,22.18956544561469
B0KKAP8YBJ,崔宅,住宿服务;住宿服务相关;住宿服务相关,100000,雅廉访大马路50号,[],820000,澳门特别行政区,1853,澳门特别行政区,820002,花王堂区,住宿服务,住宿服务相关,住宿服务相关,113.553874,22.200384,113.54878338350602,22.20333538893203
B0KDY9ZF3V,Edf.Jade Garden,住宿服务;住宿服务相关;住宿服务相关,100000,"38G,Edificio Jade Garden,Rde Silva Mendes,Macao",[],820000,澳门特别行政区,1853,澳门特别行政区,820003,望德堂区,住宿服务,住宿服务相关,住宿服务相关,113.556644,22.199409,113.55156044262998,22.202365719344044
B0KDY1T22Z,Dynasty Garden,住宿服务;住宿服务相关;住宿服务相关,100000,"no.392-438 AvSir Anders Ljungstedt,Macao",[],820000,澳门特别行政区,1853,澳门特别行政区,820004,大堂区,住宿服务,住宿服务相关,住宿服务相关,113.553992,22.186958,113.54890254547963,22.189904910603914
B0K3MZTMDV,清雅园大厦,住宿服务;住宿服务相关;住宿服务相关,100000,"澳门雅廉访里6号,Edificio Elegant Park",[],820000,澳门特别行政区,1853,澳门特别行政区,820003,望德堂区,住宿服务,住宿服务相关,住宿服务相关,113.555039,22.198627,113.5499514736753,22.201580197679984
B0K3MZTDPR,佑升大厦第2座,住宿服务;住宿服务相关;住宿服务相关,100000,黑沙环街Edificio Yau Seng Bloco 2,[],820000,澳门特别行政区,1853,澳门特别行政区,820001,花地玛堂区,住宿服务,住宿服务相关,住宿服务相关,113.554756,22.204025,113.54966740994831,22.206979477318576
B0K3MZSSG0,华安楼,住宿服务;住宿服务相关;住宿服务相关,100000,华大新村第一街31号,[],820000,澳门特别行政区,1853,澳门特别行政区,820001,花地玛堂区,住宿服务,住宿服务相关,住宿服务相关,113.553731,22.210813,113.5486393476406,22.213767645858
B0K3MZSBVZ,Yvonne Garden绮云台,住宿服务;住宿服务相关;住宿服务相关,100000,马交石炮台马路18号,[],820000,澳门特别行政区,1853,澳门特别行政区,820001,花地玛堂区,住宿服务,住宿服务相关,住宿服务相关,113.561208,22.200963,113.55613522426938,22.203928970411265
B0K3MZSBPZ,家,住宿服务;住宿服务相关;住宿服务相关,100000,"第六座,广福祥花园,黑沙环中街澳门",[],820000,澳门特别行政区,1853,澳门特别行政区,820001,花地玛堂区,住宿服务,住宿服务相关,住宿服务相关,113.561041,22.207316,113.55596743543448,22.21028384120281
B0K3MZRWFY,Jardim da Flora,住宿服务;住宿服务相关;住宿服务相关,100000,澳门Jardim Flora,[],820000,澳门特别行政区,1853,澳门特别行政区,820003,望德堂区,住宿服务,住宿服务相关,住宿服务相关,113.555755,22.198073,113.55066931400576,22.201027466638344
B0K3MZRWDE,楹峰叠翠,住宿服务;住宿服务相关;住宿服务相关,100000,士多鸟拜斯大马路47号,[],820000,澳门特别行政区,1853,澳门特别行政区,820003,望德堂区,住宿服务,住宿服务相关,住宿服务相关,113.556235,22.198381,113.551150493465,22.20133654311701
B0K3MZRGVA,八达新村(瑞安楼),住宿服务;住宿服务相关;住宿服务相关,100000,澳门Edificio Pat Tat Sun Chuen,[],820000,澳门特别行政区,1853,澳门特别行政区,820001,花地玛堂区,住宿服务,住宿服务相关,住宿服务相关,113.557724,22.203215,113.55264284837877,22.20617516594056
B0K3MZRGRP,澳门,住宿服务;住宿服务相关;住宿服务相关,100000,涌河新街Edificio U Wa(bloco 4),[],820000,澳门特别行政区,1853,澳门特别行政区,820001,花地玛堂区,住宿服务,住宿服务相关,住宿服务相关,113.56012,22.20596,113.55504438664032,22.2089256801088
B0K3MZR1LM,乐平楼,住宿服务;住宿服务相关;住宿服务相关,100000,永康街Edificio Lok Ping,[],820000,澳门特别行政区,1853,澳门特别行政区,820001,花地玛堂区,住宿服务,住宿服务相关,住宿服务相关,113.556672,22.207118,113.55158801941036,22.21007742126889
B0K3MZR1ID,祐喜大厦第一座(A.B.C.D),住宿服务;住宿服务相关;住宿服务相关,100000,"75号,观音堂街澳门",[],820000,澳门特别行政区,1853,澳门特别行政区,820001,花地玛堂区,住宿服务,住宿服务相关,住宿服务相关,113.555829,22.202773,113.55074319915796,22.205729242179306
B0K3MZR1HI,莲德大厦(三期),住宿服务;住宿服务相关;住宿服务相关,100000,莲峰巷14f号号,[],820000,澳门特别行政区,1853,澳门特别行政区,820001,花地玛堂区,住宿服务,住宿服务相关,住宿服务相关,113.554493,22.204341,113.54940371910628,22.20729504126001
B0K3MZR1BD,翠怡花园(怡晖阁),住宿服务;住宿服务相关;住宿服务相关,100000,"亚马喇土腰15号,I Fai Kok",[],820000,澳门特别行政区,1853,澳门特别行政区,820001,花地玛堂区,住宿服务,住宿服务相关,住宿服务相关,113.553086,22.207607,113.5479928788956,22.21055920031309
B0K3MZQLV2,Yo-yos house,住宿服务;住宿服务相关;住宿服务相关,100000,"士多鸟拜斯大马路15A号,Edificio Iau Yin",[],820000,澳门特别行政区,1853,澳门特别行政区,820003,望德堂区,住宿服务,住宿服务相关,住宿服务相关,113.555085,22.197045,113.54999769130336,22.199997741253764
B0K3MZPBKT,海名居(第五座),住宿服务;住宿服务相关;住宿服务相关,100000,黑沙环中街海名居第5座,[],820000,澳门特别行政区,1853,澳门特别行政区,820001,花地玛堂区,住宿服务,住宿服务相关,住宿服务相关,113.562629,22.207708,113.55755901123408,22.210678827079946
B0K3MZOWFU,hap si lau,住宿服务;住宿服务相关;住宿服务相关,100000,黑沙环马路,[],820000,澳门特别行政区,1853,澳门特别行政区,820001,花地玛堂区,住宿服务,住宿服务相关,住宿服务相关,113.55489,22.205123,113.54980168046744,22.208078129217384
B0K3MZOWDC,MAN LEI LAU,住宿服务;住宿服务相关;住宿服务相关,100000,黑沙环第二街与黑沙环第七街交叉口东40米,[],820000,澳门特别行政区,1853,澳门特别行政区,820001,花地玛堂区,住宿服务,住宿服务相关,住宿服务相关,113.555122,22.206602,113.55003417421916,22.20955811022114
B0K3MZO936,Edf.Kuong Ian,住宿服务;住宿服务相关;住宿服务相关,100000,"27A,29文第士街澳门",[],820000,澳门特别行政区,1853,澳门特别行政区,820003,望德堂区,住宿服务,住宿服务相关,住宿服务相关,113.555884,22.199192,113.55079856564652,22.2021471168317
B0K3MZO1N1,望贤楼,住宿服务;住宿服务相关;住宿服务相关,100000,俾利喇街望贤楼,[],820000,澳门特别行政区,1853,澳门特别行政区,820001,花地玛堂区,住宿服务,住宿服务相关,住宿服务相关,113.554918,22.202666,113.54982990861728,22.20562034494348
B0K3MZMZCP,永和大厦,住宿服务;住宿服务相关;住宿服务相关,100000,"文第士围1号,Edificio Yungho",[],820000,澳门特别行政区,1853,澳门特别行政区,820003,望德堂区,住宿服务,住宿服务相关,住宿服务相关,113.556516,22.19926,113.55143213523571,22.2022164119388
B0K3MZMK0Q,江昌大厦,住宿服务;住宿服务相关;住宿服务相关,100000,士多鸟拜斯大马路43号,[],820000,澳门特别行政区,1853,澳门特别行政区,820003,望德堂区,住宿服务,住宿服务相关,住宿服务相关,113.555682,22.198016,113.55059613451208,22.200970298638804
B0K3MZMCCW,乐安楼,住宿服务;住宿服务相关;住宿服务相关,100000,永乐街Edificio Lok On,[],820000,澳门特别行政区,1853,澳门特别行政区,820001,花地玛堂区,住宿服务,住宿服务相关,住宿服务相关,113.556916,22.206972,113.55183263087976,22.20993185719908
B0K3MZM4KF,威利阁,住宿服务;住宿服务相关;住宿服务相关,100000,"15A,no.13劏狗环巷澳门",[],820000,澳门特别行政区,1853,澳门特别行政区,820001,花地玛堂区,住宿服务,住宿服务相关,住宿服务相关,113.554601,22.204665,113.54951197410443,22.20761937590158
B0K3MZLQ79,康和广场(第二座),住宿服务;住宿服务相关;住宿服务相关,100000,"看台街82C号,Edificio Concordia Square(bloco 2)号",[],820000,澳门特别行政区,1853,澳门特别行政区,820001,花地玛堂区,住宿服务,住宿服务相关,住宿服务相关,113.554431,22.21011,113.5493411917972,22.21306587154928
B0K3MZL3VZ,国际中心7.8.9座,住宿服务;住宿服务相关;住宿服务相关,100000,"马六甲街124号,Centro Internacional De Macau(torre Vii)",[],820000,澳门特别行政区,1853,澳门特别行政区,820004,大堂区,住宿服务,住宿服务相关,住宿服务相关,113.559593,22.192891,113.55451698350085,22.195851160893103
B0K3MZKWBH,合富188(第一座),住宿服务;住宿服务相关;住宿服务相关,100000,慕拉士大马路Edificio Industrial Perfekta,[],820000,澳门特别行政区,1853,澳门特别行政区,820001,花地玛堂区,住宿服务,住宿服务相关,住宿服务相关,113.557376,22.203378,113.55229398937554,22.20633753923771
B0K3MZKGR6,东南亚花园,住宿服务;住宿服务相关;住宿服务相关,100000,"伦敦街41-115号,Tong Nam Ah Jardim",[],820000,澳门特别行政区,1853,澳门特别行政区,820004,大堂区,住宿服务,住宿服务相关,住宿服务相关,113.557533,22.186035,113.55245248005416,22.18898876010013
B0K3MZJ8F9,海景豪园(第一座),住宿服务;住宿服务相关;住宿服务相关,100000,渔翁街Edificio Marbela,[],820000,澳门特别行政区,1853,澳门特别行政区,820001,花地玛堂区,住宿服务,住宿服务相关,住宿服务相关,113.564962,22.201965,113.5598974782023,22.204937873109365
B0K3MZJ87A,家,住宿服务;住宿服务相关;住宿服务相关,100000,"涌河新街191号,Edificio U Wa(bloco 3)",[],820000,澳门特别行政区,1853,澳门特别行政区,820001,花地玛堂区,住宿服务,住宿服务相关,住宿服务相关,113.560017,22.205743,113.55494115956448,22.208708413988344
B0K3MZISTU,海景豪园(第二座),住宿服务;住宿服务相关;住宿服务相关,100000,渔翁街Edificio Marbela,[],820000,澳门特别行政区,1853,澳门特别行政区,820001,花地玛堂区,住宿服务,住宿服务相关,住宿服务相关,113.56512,22.202048,113.56005581010076,22.20502116524377
B0K3MZIL61,海湾大厦,住宿服务;住宿服务相关;住宿服务相关,100000,渔翁街Edificio Hoi Van,[],820000,澳门特别行政区,1853,澳门特别行政区,820001,花地玛堂区,住宿服务,住宿服务相关,住宿服务相关,113.561005,22.201184,113.55593174385456,22.20414967620068
B0K3MZI5LF,福海花园(福宁阁),住宿服务;住宿服务相关;住宿服务相关,100000,"新雅马路22-26号,Edificio Fok Hoi(edfFok Leng Court)",[],820000,澳门特别行政区,1853,澳门特别行政区,820001,花地玛堂区,住宿服务,住宿服务相关,住宿服务相关,113.557353,22.20183,113.55227103199032,22.204788961666736
B0K3MZH4IK,威钻大厦,住宿服务;住宿服务相关;住宿服务相关,100000,黑沙环马路Edificio Vai Chun,[],820000,澳门特别行政区,1853,澳门特别行政区,820001,花地玛堂区,住宿服务,住宿服务相关,住宿服务相关,113.553645,22.207946,113.5485533087046,22.210899497244675
B0K3MZH499,南方花园第18座,住宿服务;住宿服务相关;住宿服务相关,100000,"黑沙环马路13号,Nam Fong Garden",[],820000,澳门特别行政区,1853,澳门特别行政区,820001,花地玛堂区,住宿服务,住宿服务相关,住宿服务相关,113.55395,22.206006,113.54885921987312,22.208959478255288
B0K3MSO1NN,福海花园(福华阁),住宿服务;住宿服务相关;住宿服务相关,100000,"马交石斜坡22号,Edificio Fok Hoi(edfFok Wa Court)",[],820000,澳门特别行政区,1853,澳门特别行政区,820001,花地玛堂区,住宿服务,住宿服务相关,住宿服务相关,113.556936,22.201894,113.55185300451149,22.20485215938364
B0K3MSJ8G6,信誉天汇,住宿服务;住宿服务相关;住宿服务相关,100000,马交石炮台马路14号,[],820000,澳门特别行政区,1853,澳门特别行政区,820001,花地玛堂区,住宿服务,住宿服务相关,住宿服务相关,113.561867,22.200878,113.5567957319365,22.20384513270512
B0K3MDTMYD,八达新村(泰康楼),住宿服务;住宿服务相关;住宿服务相关,100000,区神父街no.323号,[],820000,澳门特别行政区,1853,澳门特别行政区,820001,花地玛堂区,住宿服务,住宿服务相关,住宿服务相关,113.558343,22.20274,113.55326337645782,22.20570120574504
B0K3DZUH98,My bed,住宿服务;住宿服务相关;住宿服务相关,100000,马六甲街与高美士街交叉口北80米,[],820000,澳门特别行政区,1853,澳门特别行政区,820004,大堂区,住宿服务,住宿服务相关,住宿服务相关,113.55922,22.193629,113.55414305415826,22.196588715539704
B0K279Y0MU,忠贤阁,住宿服务;住宿服务相关;住宿服务相关,100000,"永安息巷9号,Edificio Chong In Court",[],820000,澳门特别行政区,1853,澳门特别行政区,820002,花王堂区,住宿服务,住宿服务相关,住宿服务相关,113.553185,22.202132,113.54809248693202,22.205082539303813
B0K279XE4K,The Carat双钻,住宿服务;住宿服务相关;住宿服务相关,100000,孙逸仙大马路1561号,00853-28225618,820000,澳门特别行政区,1853,澳门特别行政区,820004,大堂区,住宿服务,住宿服务相关,住宿服务相关,113.556486,22.183702,113.55140305434804,22.186652845779022
B0K279UE9R,Edificio Marina Plaza,住宿服务;住宿服务相关;住宿服务相关,100000,"北京街183号,Edificio Marina Plaza",00853-28782208,820000,澳门特别行政区,1853,澳门特别行政区,820004,大堂区,住宿服务,住宿服务相关,住宿服务相关,113.553112,22.189249,113.54802012044928,22.192194873418625
B0JK1CJGO1,目作舍,住宿服务;住宿服务相关;住宿服务相关,100000,看台街与市场街交叉口北40米,[],820000,澳门特别行政区,1853,澳门特别行政区,820001,花地玛堂区,住宿服务,住宿服务相关,住宿服务相关,113.556819,22.208903,113.55173526840738,22.211863318864275
B0J2Z4CV21,望厦社屋(望善楼II),住宿服务;住宿服务相关;住宿服务相关,100000,区神父街,[],820000,澳门特别行政区,1853,澳门特别行政区,820001,花地玛堂区,住宿服务,住宿服务相关,住宿服务相关,113.556899,22.203517,113.55181580971262,22.20647564385908
B0J1RSLK1Z,恒基花园,住宿服务;住宿服务相关;住宿服务相关,100000,罗马街Jardim Hang Kei,[],820000,澳门特别行政区,1853,澳门特别行政区,820004,大堂区,住宿服务,住宿服务相关,住宿服务相关,113.557825,22.187054,113.55274512550068,22.190008696589302
B0IRHRQPGR,金龙酒店,住宿服务;住宿服务相关;住宿服务相关,100000,马六甲街17-103号,00853-28361999,820000,澳门特别行政区,1853,澳门特别行政区,820003,望德堂区,住宿服务,住宿服务相关,住宿服务相关,113.554746,22.195183,113.54965794958386,22.19813439199053
B0KDY9Z9HZ,得胜斜路,住宿服务;宾馆酒店;宾馆酒店|商务住宅;商务住宅相关;商务住宅相关,100100|120000,得胜斜路与东望洋斜巷交叉口西北20米,[],820000,澳门特别行政区,1853,澳门特别行政区,820003,望德堂区,住宿服务,宾馆酒店,宾馆酒店|商务住宅,113.553299,22.193092,113.5482073614015,22.19603963114166
B0FFHWRIHK,Fu Hong Garden,住宿服务;住宿服务相关;住宿服务相关,100000,"Fu Hong Garden,Keng I Garden,11布巷澳门",[],820000,澳门特别行政区,1853,澳门特别行政区,820002,花王堂区,住宿服务,住宿服务相关,住宿服务相关,113.553209,22.201863,113.54811656659672,22.204813497545626
B0KUK6Z4VB,信菱宝花园Sharpness Garden,住宿服务;宾馆酒店;宾馆酒店|住宿服务;旅馆招待所;旅馆招待所,100100|100200,黑沙环马路54号,[],820000,澳门特别行政区,1853,澳门特别行政区,820001,花地玛堂区,住宿服务,宾馆酒店,宾馆酒店|住宿服务,113.555524,22.204107,113.55043734824388,22.20706308035961
B0KUK6Z4VB,信菱宝花园Sharpness Garden,住宿服务;宾馆酒店;宾馆酒店|住宿服务;旅馆招待所;旅馆招待所,100100|100200,黑沙环马路54号,[],820000,澳门特别行政区,1853,澳门特别行政区,820001,花地玛堂区,住宿服务,宾馆酒店,宾馆酒店|住宿服务,113.555524,22.204107,113.55043734824388,22.20706308035961
B0KDY1WR43,新竹公寓,住宿服务;旅馆招待所;旅馆招待所|商务住宅;商务住宅相关;商务住宅相关,100200|120000,"576-600 Avdo DrRodrigo Rodrigues,Macao",[],820000,澳门特别行政区,1853,澳门特别行政区,820004,大堂区,住宿服务,旅馆招待所,旅馆招待所|商务住宅,113.554195,22.190894,113.549105815573,22.193842736597123
B0FFM4F1WI,尚寓,住宿服务;旅馆招待所;旅馆招待所,100200,荷兰园正街109A号,[],820000,澳门特别行政区,1853,澳门特别行政区,820003,望德堂区,住宿服务,旅馆招待所,旅馆招待所,113.554355,22.198705,113.54926572644165,22.201656811094544
B0FFH4ZWPF,右近橘次郎之家,住宿服务;住宿服务相关;住宿服务相关,100000,"雅廉访大马路12号,Edificio Nga Nang Bloco Ii,右近橘次郎之家地下C座",[],820000,澳门特别行政区,1853,澳门特别行政区,820003,望德堂区,住宿服务,住宿服务相关,住宿服务相关,113.554896,22.198514,113.54980811810098,22.201466864254165
B0JK1CJSEQ,澳门客如云,住宿服务;宾馆酒店;宾馆酒店|餐饮服务;中餐厅;中餐厅,100100|050100,黑沙环第六街与高利亚海军上将大马路交叉口西北80米,[],820000,澳门特别行政区,1853,澳门特别行政区,820001,花地玛堂区,住宿服务,宾馆酒店,宾馆酒店|餐饮服务,113.557055,22.205699,113.55197205419844,22.20865869947399
B073D00I8I,君怡酒店,住宿服务;宾馆酒店;四星级宾馆,100103,氹仔柯维纳马路142号,00853-28388533;00853-28837777;00853-28837788,820000,澳门特别行政区,1853,澳门特别行政区,820006,嘉模堂区,住宿服务,宾馆酒店,四星级宾馆,113.557076,22.154269,113.55199638794583,22.157210038289
B073D00ID4,金皇冠中国大酒店,住宿服务;宾馆酒店;四星级宾馆,100103,氹仔鸡颈马路澳门国际机场对面,00853-28851166,820000,澳门特别行政区,1853,澳门特别行政区,820006,嘉模堂区,住宿服务,宾馆酒店,四星级宾馆,113.579019,22.155496,113.57398314146724,22.158471247147425
B073D00I8K,丽景湾酒店,住宿服务;宾馆酒店;五星级宾馆,100102,史伯泰海军将军马路2号,00853-28831234,820000,澳门特别行政区,1853,澳门特别行政区,820006,嘉模堂区,住宿服务,宾馆酒店,五星级宾馆,113.558736,22.15925,113.55366009375535,22.162196180309657
B073D0M3IB,澳门悦榕庄,住宿服务;宾馆酒店;五星级宾馆,100102,银河度假城路凼城莲花海滨大马路,00853-88836888,820000,澳门特别行政区,1853,澳门特别行政区,820007,路氹填海区,住宿服务,宾馆酒店,五星级宾馆,113.557502,22.145859,113.5524239666958,22.148797612993786
B0J3DGG3VY,伦敦人御园,住宿服务;住宿服务相关;住宿服务相关,100000,"伦敦人,澳门路氹连贯公路",00853-28886388,820000,澳门特别行政区,1853,澳门特别行政区,820007,路氹填海区,住宿服务,住宿服务相关,住宿服务相关,113.571282,22.144618,113.56623377261428,22.14757943376691
B0FFFHBX41,澳门盛世酒店,住宿服务;住宿服务相关;住宿服务相关,100000,"澳门特别行政区嘉模堂区凼仔嘉乐庇总督大马路822号,近美副将马路",00853-28821666,820000,澳门特别行政区,1853,澳门特别行政区,820006,嘉模堂区,住宿服务,住宿服务相关,住宿服务相关,113.565301,22.153818,113.56024026568018,22.15677384063424
B0JUYDMOKC,澳门安达仕酒店,住宿服务;宾馆酒店;宾馆酒店,100100,莲花海滨大马路e1010铺,00853-28880888,820000,澳门特别行政区,1853,澳门特别行政区,820007,路氹填海区,住宿服务,宾馆酒店,宾馆酒店,113.561618,22.142434,113.55654989012852,22.14537902624197
B0FFM1RSNW,迎尚酒店,住宿服务;住宿服务相关;住宿服务相关,100000,"MacaoEstrdo Istmo,MO The Countdown City of Dreams",[],820000,澳门特别行政区,1853,澳门特别行政区,820007,路氹填海区,住宿服务,住宿服务相关,住宿服务相关,113.570964,22.145636,113.56591511349907,22.14859738312639
B0GKNA7ZG4,澳门伦敦人酒店,住宿服务;宾馆酒店;宾馆酒店,100100,路凼连贯公路澳门伦敦人购物中心L1层,00853-28822878,820000,澳门特别行政区,1853,澳门特别行政区,820007,路氹填海区,住宿服务,宾馆酒店,宾馆酒店,113.569918,22.143474,113.56486726381276,22.146433025173447
B0JAUDRFY8,新濠影汇-映星汇,住宿服务;宾馆酒店;宾馆酒店,100100,路氹连贯公路,00853-88656868;00853-88658888,820000,澳门特别行政区,1853,澳门特别行政区,820007,路氹填海区,住宿服务,宾馆酒店,宾馆酒店,113.563824,22.138161,113.55876108108744,22.14110822155507
B073D00JLI,澳门四季酒店,住宿服务;宾馆酒店;五星级宾馆,100102,望德圣母湾大马路以南地段1第7区,00853-28818888,820000,澳门特别行政区,1853,澳门特别行政区,820007,路氹填海区,住宿服务,宾馆酒店,五星级宾馆,113.566827,22.142602,113.56177016775337,22.14555595183677
B073D0M3I9,澳门银河酒店,住宿服务;宾馆酒店;五星级宾馆,100102,澳门银河综合度假城,00853-28880888,820000,澳门特别行政区,1853,澳门特别行政区,820007,路氹填海区,住宿服务,宾馆酒店,五星级宾馆,113.55875,22.146093,113.55367496560426,22.14903412558349
B0FFJXNOAV,澳门瑞吉酒店,住宿服务;住宿服务相关;住宿服务相关,100000,澳门路氹连贯公路澳门伦敦人,00853-28828898,820000,澳门特别行政区,1853,澳门特别行政区,820007,路氹填海区,住宿服务,住宿服务相关,住宿服务相关,113.570488,22.14452,113.56543828614502,22.14748026444529
B073D0M4FP,澳门威尼斯人,住宿服务;宾馆酒店;五星级宾馆,100102,路氹金光大道连贯公路,00853-28828888,820000,澳门特别行政区,1853,澳门特别行政区,820007,路氹填海区,住宿服务,宾馆酒店,五星级宾馆,113.566661,22.145351,113.56160365096244,22.14830576648564
B0I64R18SL,澳门范思哲豪华酒店大楼,住宿服务;宾馆酒店;五星级宾馆,100102,路氹射击路,00853-88812000,820000,澳门特别行政区,1853,澳门特别行政区,820007,路氹填海区,住宿服务,宾馆酒店,五星级宾馆,113.578202,22.140502,113.57316584221842,22.14347051385588
B0IGUMVL8U,Londoner Court,住宿服务;住宿服务相关;住宿服务相关,100000,澳门路氹连贯公路,[],820000,澳门特别行政区,1853,澳门特别行政区,820007,路氹填海区,住宿服务,住宿服务相关,住宿服务相关,113.571289,22.144642,113.56624078412592,22.14760345303392
B073D0M3IA,澳门大仓酒店,住宿服务;宾馆酒店;五星级宾馆,100102,澳门银河综合度假城,00853-88833838;00853-88838883,820000,澳门特别行政区,1853,澳门特别行政区,820007,路氹填海区,住宿服务,宾馆酒店,五星级宾馆,113.557343,22.146236,113.55226455433412,22.14917444784982
B0FFGHG8X5,澳门JW万豪酒店(望德圣母湾大马路),住宿服务;宾馆酒店;五星级宾馆,100102,澳门路凼城澳门银河综合度假城,00853-88866888,820000,澳门特别行政区,1853,澳门特别行政区,820007,路氹填海区,住宿服务,宾馆酒店,五星级宾馆,113.560215,22.143595,113.55514358406246,22.146537912037413
B073D00IIL,澳门皇庭海景酒店,住宿服务;宾馆酒店;四星级宾馆,100103,氹仔南部路填海区莲花海滨路,00853-28838333,820000,澳门特别行政区,1853,澳门特别行政区,820007,路氹填海区,住宿服务,宾馆酒店,四星级宾馆,113.555664,22.146719,113.55058136342444,22.1496542776168
B0IKTSDG7P,澳门新濠影汇W酒店,住宿服务;宾馆酒店;宾馆酒店,100100,中国澳门路氹城大马路,00853-88651188,820000,澳门特别行政区,1853,澳门特别行政区,820007,路氹填海区,住宿服务,宾馆酒店,宾馆酒店,113.564025,22.138381,113.5589625052647,22.14132865326829
B0FFLNR3I9,City of Dreams·The Countdown Hotel,住宿服务;宾馆酒店;四星级宾馆,100103,澳门路氹连贯公路新濠天地,[],820000,澳门特别行政区,1853,澳门特别行政区,820007,路氹填海区,住宿服务,宾馆酒店,四星级宾馆,113.570961,22.145532,113.56591211447324,22.148493338131864
B073D0M5NX,澳门康莱德酒店,住宿服务;宾馆酒店;五星级宾馆,100102,路凼连贯公路澳门伦敦人购物中心L1层,00853-28829000;00853-81136000,820000,澳门特别行政区,1853,澳门特别行政区,820007,路氹填海区,住宿服务,宾馆酒店,五星级宾馆,113.57021,22.143558,113.5651598180162,22.1465174842789
B0KDY9U4I8,澳门悦榕SPA,住宿服务;宾馆酒店;宾馆酒店,100100,"4HX3+944,Macao",00853-88836633,820000,澳门特别行政区,1853,澳门特别行政区,820007,路氹填海区,住宿服务,宾馆酒店,宾馆酒店,113.55789,22.145445,113.5528129365868,22.14838420986436
B0K6K71Z2Q,金宝来酒店,住宿服务;宾馆酒店;三星级宾馆,100104,澳门国际机场出境大厅对面,00853-28850188,820000,澳门特别行政区,1853,澳门特别行政区,820006,嘉模堂区,住宿服务,宾馆酒店,三星级宾馆,113.578515,22.155019,113.57347840430508,22.1579935192084
B0FFGBDY91,新濠影汇,住宿服务;宾馆酒店;五星级宾馆,100102,路氹连贯公路,[],820000,澳门特别行政区,1853,澳门特别行政区,820007,路氹填海区,住宿服务,宾馆酒店,五星级宾馆,113.566598,22.137926,113.56154099274772,22.14087773576074
B0K3MSTT94,艺居酒店,住宿服务;宾馆酒店;宾馆酒店,100100,孙逸仙博士大马路586至598号,00853-28822820,820000,澳门特别行政区,1853,澳门特别行政区,820006,嘉模堂区,住宿服务,宾馆酒店,宾馆酒店,113.561415,22.158387,113.55634541172714,22.16133784801524
B0FFHD0ADQ,澳门美狮美高梅酒店,住宿服务;宾馆酒店;宾馆酒店,100100,体育馆大马路,00853-88068888,820000,澳门特别行政区,1853,澳门特别行政区,820007,路氹填海区,住宿服务,宾馆酒店,宾馆酒店,113.572932,22.142849,113.5678868970793,22.145812002195605
B0FFFYHAP9,丽思卡尔顿酒店(澳门银河店),住宿服务;宾馆酒店;宾馆酒店,100100,"综合度假城,忘德圣母湾大马路,路凼城,澳门特别行政区",00853-88866868,820000,澳门特别行政区,1853,澳门特别行政区,820007,路氹填海区,住宿服务,宾馆酒店,宾馆酒店,113.559978,22.143335,113.55490604678953,22.146277367905345
B0KDY9RJU5,Fengyu International Apartment,住宿服务;宾馆酒店;宾馆酒店,100100,莲花海滨大马路与西堤圆形地交叉口东北300米,15811669976,820000,澳门特别行政区,1853,澳门特别行政区,820007,路氹填海区,住宿服务,宾馆酒店,宾馆酒店,113.559255,22.142891,113.55418137167383,22.14583183175155
B0KU7771PP,The Karl Lagerfeld Macau,住宿服务;宾馆酒店;宾馆酒店,100100,"The Karl Lagerfeld Rua do Tiro,Cotai,Macao",00853-88818000,820000,澳门特别行政区,1853,澳门特别行政区,820007,路氹填海区,住宿服务,宾馆酒店,宾馆酒店,113.580342,22.141072,113.57530902381068,22.144043011866263
B0JRGAPW2Y,澳门银河酒店大堂,住宿服务;宾馆酒店;五星级宾馆,100102,学院路与望德圣母湾大马路交叉口西南180米,[],820000,澳门特别行政区,1853,澳门特别行政区,820007,路氹填海区,住宿服务,宾馆酒店,五星级宾馆,113.557334,22.147175,113.5522554724783,22.15011379708812
B0JRG716ZC,澳门威尼斯人大堂,住宿服务;宾馆酒店;五星级宾馆,100102,路凼连贯公路与路凼连贯公路圆形地交叉口南320米,[],820000,澳门特别行政区,1853,澳门特别行政区,820007,路氹填海区,住宿服务,宾馆酒店,五星级宾馆,113.567746,22.144864,113.56269089625376,22.147820288932863
B0KU59TL7F,EPIC TOWER映星汇,住宿服务;宾馆酒店;宾馆酒店,100100,"Studio City,Epic Tower,Estrdo Istmo,Macao",00853-88656868,820000,澳门特别行政区,1853,澳门特别行政区,820007,路氹填海区,住宿服务,宾馆酒店,宾馆酒店,113.568702,22.138071,113.5636492366388,22.141026076711835
B0KR1HLBUR,酒店西翼大堂,住宿服务;宾馆酒店;宾馆酒店,100100,望德圣母湾大马路与望德圣母湾街交叉口东南160米,[],820000,澳门特别行政区,1853,澳门特别行政区,820007,路氹填海区,住宿服务,宾馆酒店,宾馆酒店,113.564449,22.145818,113.5593869510613,22.148769306275028
B0JUYHLUBR,澳门银河莱佛士Raffles At Galaxy Macau,住宿服务;宾馆酒店;宾馆酒店,100100,澳门银河综合度假城澳门路氹城,[],820000,澳门特别行政区,1853,澳门特别行政区,820007,路氹填海区,住宿服务,宾馆酒店,宾馆酒店,113.559279,22.145879,113.55420523824236,22.14882105018851
B0JRGC4YHS,永利皇宫大堂,住宿服务;宾馆酒店;五星级宾馆,100102,机场大马路与溜冰路交叉口西280米,[],820000,澳门特别行政区,1853,澳门特别行政区,820007,路氹填海区,住宿服务,宾馆酒店,五星级宾馆,113.576321,22.145363,113.57128153976508,22.1483312692546
B0I3L5YSPU,御匾峰酒店 Paiza Lofts Hotel,住宿服务;宾馆酒店;宾馆酒店,100100,路凼城大马路与路凼连贯公路交叉口西240米,[],820000,澳门特别行政区,1853,澳门特别行政区,820007,路氹填海区,住宿服务,宾馆酒店,宾馆酒店,113.56565,22.139829,113.56059089327722,22.142779951239444
B073D00JV5,澳门新濠锋酒店,住宿服务;宾馆酒店;五星级宾馆,100102,广东大马路,00853-28868888;00853-28868866,820000,澳门特别行政区,1853,澳门特别行政区,820006,嘉模堂区,住宿服务,宾馆酒店,五星级宾馆,113.560086,22.158729,113.55501331896372,22.161677534399647
B0LBO79PZI,莱佛士酒店,住宿服务;宾馆酒店;宾馆酒店,100100,巴波沙总督街30号,[],820000,澳门特别行政区,1853,澳门特别行政区,820007,路氹填海区,住宿服务,宾馆酒店,宾馆酒店,113.559564,22.145931,113.5544909086214,22.14887360934974
B0KUT79ASW,Outdoor amphitheater,住宿服务;宾馆酒店;宾馆酒店,100100,"Rda Restauracao,Macao",[],820000,澳门特别行政区,1853,澳门特别行政区,820007,路氹填海区,住宿服务,宾馆酒店,宾馆酒店,113.56554,22.151038,113.56047994850783,22.153993161304875
B0KUR1CN9B,饭店,住宿服务;宾馆酒店;宾馆酒店,100100,"MacaoRdo Tiro,Level 3号Grand Lisboa Palace",[],820000,澳门特别行政区,1853,澳门特别行政区,820007,路氹填海区,住宿服务,宾馆酒店,宾馆酒店,113.579207,22.139287,113.57417245217437,22.14225612170124
B0KU9K035S,espa at the ritz-carlton macau,住宿服务;宾馆酒店;宾馆酒店,100100,"Macao,3F The Ritz-Carlton",00853-88866868,820000,澳门特别行政区,1853,澳门特别行政区,820007,路氹填海区,住宿服务,宾馆酒店,宾馆酒店,113.558505,22.146149,113.55342937519768,22.14908967686885
B0KU59U87H,Celebrity Tower,住宿服务;宾馆酒店;宾馆酒店,100100,"MacaoEstrdo Istmo,Celebrity Tower,Studio City",00853-88656868,820000,澳门特别行政区,1853,澳门特别行政区,820007,路氹填海区,住宿服务,宾馆酒店,宾馆酒店,113.567499,22.138851,113.56244377870864,22.14180453154133
B0KKDP2EM7,Lisboeta Macau-LINE FRIENDS PRESENTS CASA DE AMIGO,住宿服务;宾馆酒店;宾馆酒店,100100,"4HVF+636,Rua da Patinagem,中国",[],820000,澳门特别行政区,1853,澳门特别行政区,820007,路氹填海区,住宿服务,宾馆酒店,宾馆酒店,113.577674,22.14006,113.5726370461813,22.14302774901471
B0KKAS9LPV,澳门范思哲酒店,住宿服务;宾馆酒店;宾馆酒店,100100,溜冰路116号,00853-88812888,820000,澳门特别行政区,1853,澳门特别行政区,820007,路氹填海区,住宿服务,宾馆酒店,宾馆酒店,113.577664,22.140111,113.57262702721742,22.14307875790414
B0KDZAPLKR,The Grand Suites at Four Seasons,住宿服务;宾馆酒店;宾馆酒店,100100,望德圣母湾大马路,00853-28818888,820000,澳门特别行政区,1853,澳门特别行政区,820007,路氹填海区,住宿服务,宾馆酒店,宾馆酒店,113.566876,22.143085,113.5618192377989,22.146039220083253
B0KDY1Y77Q,Yinxin Holiday Apartment,住宿服务;宾馆酒店;宾馆酒店,100100,望德圣母湾大马路与学院路交叉口西南440米,[],820000,澳门特别行政区,1853,澳门特别行政区,820007,路氹填海区,住宿服务,宾馆酒店,宾馆酒店,113.556219,22.145017,113.55113785901072,22.14795273329436
B0KDY1URM3,点睛品澳门澳门银河综合渡假城店,住宿服务;宾馆酒店;宾馆酒店,100100,"Macao,MO澳门路氹(澳门银河)综合渡假城第一期G016号",00853-28576348,820000,澳门特别行政区,1853,澳门特别行政区,820007,路氹填海区,住宿服务,宾馆酒店,宾馆酒店,113.558567,22.147217,113.55349145588514,22.150158213577555
B0K3MZO180,丽斯卡尔顿,住宿服务;宾馆酒店;宾馆酒店,100100,莲花海滨大马路与西堤圆形地交叉口东北380米,[],820000,澳门特别行政区,1853,澳门特别行政区,820007,路氹填海区,住宿服务,宾馆酒店,宾馆酒店,113.559344,22.143656,113.55427053376047,22.14659730135841
B0K3MZMZ9Q,定山溪,住宿服务;宾馆酒店;宾馆酒店,100100,"Nova Taipa Gardens,Macao",[],820000,澳门特别行政区,1853,澳门特别行政区,820006,嘉模堂区,住宿服务,宾馆酒店,宾馆酒店,113.558757,22.155601,113.55368137652113,22.15854582468393
B0K3MZMJUU,Grand Lisboa Palace Macau,住宿服务;宾馆酒店;宾馆酒店,100100,"Rua do Tiro,中国",00853-88818000,820000,澳门特别行政区,1853,澳门特别行政区,820007,路氹填海区,住宿服务,宾馆酒店,宾馆酒店,113.577025,22.142126,113.57198688472094,22.145093822991
B0K3DZSZCH,银河,住宿服务;宾馆酒店;宾馆酒店,100100,路氹城大马路与路氹连贯公路交叉口西北460米,[],820000,澳门特别行政区,1853,澳门特别行政区,820007,路氹填海区,住宿服务,宾馆酒店,宾馆酒店,113.566716,22.14354,113.56165887953996,22.1464941436926
B0K2XLBE7R,御匾会(澳门巴黎人购物中心),住宿服务;宾馆酒店;宾馆酒店,100100,路凼城大马路与路凼连贯公路交叉口西北200米澳门巴黎人购物中心L3层,[],820000,澳门特别行政区,1853,澳门特别行政区,820007,路氹填海区,住宿服务,宾馆酒店,宾馆酒店,113.565543,22.140948,113.5604835964208,22.143899217757244
B0K2RAF0QO,上葡京的西门,住宿服务;宾馆酒店;宾馆酒店,100100,溜冰路116号,[],820000,澳门特别行政区,1853,澳门特别行政区,820007,路氹填海区,住宿服务,宾馆酒店,宾馆酒店,113.577399,22.140916,113.5723615576376,22.143883775340893
B0K2799WMM,Home Away Home Max,住宿服务;宾馆酒店;宾馆酒店,100100,"5H84+37F,Ocean Garden,Avenida dos Jardins do Oceano,中国",[],820000,澳门特别行政区,1853,澳门特别行政区,820006,嘉模堂区,住宿服务,宾馆酒店,宾馆酒店,113.560756,22.162234,113.5556846528048,22.16518510748576
B0K279632B,港澳跨境直通巴士侯车区,住宿服务;宾馆酒店;宾馆酒店,100100,澳门威尼斯人,[],820000,澳门特别行政区,1853,澳门特别行政区,820007,路氹填海区,住宿服务,宾馆酒店,宾馆酒店,113.567735,22.14489,113.56267987240685,22.147846282004465
B0K279220Y,Li Jing Aprt,住宿服务;宾馆酒店;宾馆酒店,100100,"Ocean Garden,Avenida dos Jardins do Oceano Macau,中国",[],820000,澳门特别行政区,1853,澳门特别行政区,820006,嘉模堂区,住宿服务,宾馆酒店,宾馆酒店,113.560819,22.162259,113.55574779670108,22.165210232726373
B0K27921Z6,Bed Eng Resorts,住宿服务;宾馆酒店;宾馆酒店,100100,菜园路84号,[],820000,澳门特别行政区,1853,澳门特别行政区,820006,嘉模堂区,住宿服务,宾馆酒店,宾馆酒店,113.564092,22.157783,113.55902841668927,22.160738328899
B0K22CG3HH,凤凰殿(威尼斯人购物中心),住宿服务;宾馆酒店;宾馆酒店,100100,望德圣母湾大马路威尼斯人购物中心L1层,[],820000,澳门特别行政区,1853,澳门特别行政区,820007,路氹填海区,住宿服务,宾馆酒店,宾馆酒店,113.566872,22.144687,113.56181512775817,22.147641843166948
B0K1VRNM7Q,Taipa Ferry Terminal,住宿服务;宾馆酒店;宾馆酒店,100100,"Estrde Pac On,Macao",00853-28559922,820000,澳门特别行政区,1853,澳门特别行政区,820006,嘉模堂区,住宿服务,宾馆酒店,宾馆酒店,113.581751,22.160969,113.57671875816426,22.16394910005277
B0JUFAMLA5,君乐皇府公寓式酒店高级公寓式客房(城景),住宿服务;宾馆酒店;宾馆酒店,100100,莲花海滨大马路与奥林匹克游泳馆圆形地交叉口南320米,[],820000,澳门特别行政区,1853,澳门特别行政区,820007,路氹填海区,住宿服务,宾馆酒店,宾馆酒店,113.555631,22.146223,113.55054831220843,22.14915801662642
B0JRYZD51O,澳门悦榕庄大堂,住宿服务;宾馆酒店;五星级宾馆,100102,望德圣母湾大马路与学院路交叉口南320米,[],820000,澳门特别行政区,1853,澳门特别行政区,820007,路氹填海区,住宿服务,宾馆酒店,五星级宾馆,113.557554,22.145841,113.55247609463262,22.14877970799673
B0JRYZD4TL,澳门皇庭海景酒店大堂,住宿服务;宾馆酒店;四星级宾馆,100103,莲花海滨大马路与奥林匹克游泳馆圆形地交叉口南280米,[],820000,澳门特别行政区,1853,澳门特别行政区,820007,路氹填海区,住宿服务,宾馆酒店,四星级宾馆,113.555785,22.146714,113.5507026671492,22.149649521221992
B0JRYZ35LZ,澳门JW万豪酒店望德圣母湾大马路大堂,住宿服务;宾馆酒店;五星级宾馆,100102,新城大马路与望德圣母湾大马路交叉口西南440米,[],820000,澳门特别行政区,1853,澳门特别行政区,820007,路氹填海区,住宿服务,宾馆酒店,五星级宾馆,113.560616,22.143702,113.5555455091799,22.14664569681037
B0JRYCCRZ5,丽景湾酒店大堂,住宿服务;宾馆酒店;五星级宾馆,100102,史伯泰海军将军马路与宋玉生博士圆形地交叉口西100米,[],820000,澳门特别行政区,1853,澳门特别行政区,820006,嘉模堂区,住宿服务,宾馆酒店,五星级宾馆,113.558756,22.159246,113.553680141827,22.162192217113304
B0JRPSAXGI,澳门丽思卡尔顿酒店大堂,住宿服务;宾馆酒店;宾馆酒店,100100,莲花海滨大马路与西堤圆形地交叉口东北380米,[],820000,澳门特别行政区,1853,澳门特别行政区,820007,路氹填海区,住宿服务,宾馆酒店,宾馆酒店,113.559962,22.143327,113.5548900098286,22.146269334848007
B0JRGH024V,澳门大仓酒店大堂,住宿服务;宾馆酒店;五星级宾馆,100102,望德圣母湾大马路与学院路交叉口南280米,[],820000,澳门特别行政区,1853,澳门特别行政区,820007,路氹填海区,住宿服务,宾馆酒店,五星级宾馆,113.557331,22.146274,113.55225252256416,22.149212439077537
B0JRGCBDU9,君怡酒店大堂,住宿服务;宾馆酒店;四星级宾馆,100103,佛山街与柯维纳马路交叉口东北20米,[],820000,澳门特别行政区,1853,澳门特别行政区,820006,嘉模堂区,住宿服务,宾馆酒店,四星级宾馆,113.556803,22.154218,113.55172271929275,22.15715847688649
B0JRGC3OAW,澳门四季酒店大堂,住宿服务;宾馆酒店;五星级宾馆,100102,路氹城大马路与路氹连贯公路交叉口西北360米,[],820000,澳门特别行政区,1853,澳门特别行政区,820007,路氹填海区,住宿服务,宾馆酒店,五星级宾馆,113.566965,22.142599,113.56190845140556,22.145553170334832
B0JRGC1EGP,City of Dreams·The Countdown Hotel大堂,住宿服务;宾馆酒店;四星级宾馆,100103,霍英东博士大马路与路凼连贯公路圆形地交叉口东南300米,[],820000,澳门特别行政区,1853,澳门特别行政区,820007,路氹填海区,住宿服务,宾馆酒店,四星级宾馆,113.570833,22.145375,113.56578388387244,22.14833609438613
B0JRGAYPLP,澳门君悦酒店大堂,住宿服务;宾馆酒店;五星级宾馆,100102,体育馆大马路与科技大学圆形地交叉口南140米,[],820000,澳门特别行政区,1853,澳门特别行政区,820007,路氹填海区,住宿服务,宾馆酒店,五星级宾馆,113.573168,22.145608,113.5681231428524,22.14857239975587
B0JRAANI39,澳门新濠影汇酒店大堂,住宿服务;宾馆酒店;五星级宾馆,100102,路凼连贯公路与路凼城大马路交叉口西南220米,[],820000,澳门特别行政区,1853,澳门特别行政区,820007,路氹填海区,住宿服务,宾馆酒店,五星级宾馆,113.566951,22.138161,113.5618947047154,22.141113392813768
B0JRA5RNKA,澳门新濠锋酒店大堂,住宿服务;宾馆酒店;五星级宾馆,100102,广东大马路与宋玉生博士圆形地交叉口南20米,[],820000,澳门特别行政区,1853,澳门特别行政区,820006,嘉模堂区,住宿服务,宾馆酒店,五星级宾馆,113.559996,22.159028,113.55492308937384,22.161976480434323
B0JK1CKNMH,澳门凡赛斯宫殿酒店,住宿服务;宾馆酒店;宾馆酒店,100100,溜冰路与网球路交叉口东北40米,[],820000,澳门特别行政区,1853,澳门特别行政区,820007,路氹填海区,住宿服务,宾馆酒店,宾馆酒店,113.577666,22.140113,113.5726290302372,22.143080760954536
B0JK1CJGPG,老佛爷酒店,住宿服务;宾馆酒店;宾馆酒店,100100,网球路与机场大马路交叉口西80米,[],820000,澳门特别行政区,1853,澳门特别行政区,820007,路氹填海区,住宿服务,宾馆酒店,宾馆酒店,113.580329,22.141106,113.57529600281828,22.144077012164075
B0JK1CG6DF,拉格斐奢华酒店,住宿服务;宾馆酒店;宾馆酒店,100100,网球路与机场大马路交叉口西80米,[],820000,澳门特别行政区,1853,澳门特别行政区,820007,路氹填海区,住宿服务,宾馆酒店,宾馆酒店,113.580344,22.141074,113.57531102658145,22.144045014675942
B0JK1CEC5Z,酒店,住宿服务;宾馆酒店;宾馆酒店,100100,柯维纳马路与沙维斯街交叉口西北40米,[],820000,澳门特别行政区,1853,澳门特别行政区,820006,嘉模堂区,住宿服务,宾馆酒店,宾馆酒店,113.555289,22.154741,113.55020490794328,22.15767862359065
B0JA91BJCM,Asia Boutique Inn.,住宿服务;宾馆酒店;宾馆酒店,100100,"告利雅施利华街21号,Edificio Yu Cheong",[],820000,澳门特别行政区,1853,澳门特别行政区,820006,嘉模堂区,住宿服务,宾馆酒店,宾馆酒店,113.561848,22.149721,113.55677994854972,22.15266929155776
B0FFL4ZKDJ,新濠影汇-巨星汇,住宿服务;宾馆酒店;宾馆酒店,100100,路凼连贯公路,[],820000,澳门特别行政区,1853,澳门特别行政区,820007,路氹填海区,住宿服务,宾馆酒店,宾馆酒店,113.567038,22.137736,113.56198191005004,22.140688362105458
B0FFG9BM6O,新濠影涯,住宿服务;宾馆酒店;宾馆酒店,100100,路凼城大马路与路凼连贯公路交叉口西北40米,[],820000,澳门特别行政区,1853,澳门特别行政区,820007,路氹填海区,住宿服务,宾馆酒店,宾馆酒店,113.568188,22.139916,113.56313409810504,22.142871023226668
B0J29ZY8SP,葡京人酒店-欧舒丹主题住宿,住宿服务;住宿服务相关;住宿服务相关,100000,溜冰路,00853-88826888,820000,澳门特别行政区,1853,澳门特别行政区,820007,路氹填海区,住宿服务,住宿服务相关,住宿服务相关,113.577852,22.13782,113.5728154674054,22.140787060968915
B0FFFT3DU3,澳门亚洲精品旅馆,住宿服务;住宿服务相关;住宿服务相关,100000,告利雅施利华街21号(澳门告利雅施利华街146号),00853-28222899,820000,澳门特别行政区,1853,澳门特别行政区,820006,嘉模堂区,住宿服务,住宿服务相关,住宿服务相关,113.561959,22.14982,113.55689119352208,22.15276852913602
B0JRM6LO6X,君乐皇府公寓式酒店,住宿服务;住宿服务相关;住宿服务相关,100000,黄牛P图新增百老汇旁,00853-28226222,820000,澳门特别行政区,1853,澳门特别行政区,820007,路氹填海区,住宿服务,住宿服务相关,住宿服务相关,113.555795,22.146268,113.55071272063697,22.14920336712136
B0FFGTH885,澳门巴黎人,住宿服务;宾馆酒店;宾馆酒店,100100,"路氹填海区澳门路凼金光大道连贯公路,近路凼城大马路",00853-28828827;00853-28828833,820000,澳门特别行政区,1853,澳门特别行政区,820007,路氹填海区,住宿服务,宾馆酒店,宾馆酒店,113.566726,22.140644,113.56166908421568,22.143597017937783
B0H0SR6W95,澳门卡尔拉格斐奢华酒店大楼,住宿服务;住宿服务相关;住宿服务相关,100000,路氹填海区射击路南150米,00853-88813000,820000,澳门特别行政区,1853,澳门特别行政区,820007,路氹填海区,住宿服务,住宿服务相关,住宿服务相关,113.580058,22.140993,113.57502461548684,22.14396369205401
B0FFKDDPHI,澳门骏龙酒店,住宿服务;住宿服务相关;住宿服务相关,100000,沙维斯街36-58号,00853-28839933,820000,澳门特别行政区,1853,澳门特别行政区,820006,嘉模堂区,住宿服务,住宿服务相关,住宿服务相关,113.556029,22.154647,113.55094677142031,22.15758609096437
B073D00M43,澳门君悦酒店,住宿服务;宾馆酒店;五星级宾馆,100102,氹仔路氹连贯公路新濠天地,00853-88681234,820000,澳门特别行政区,1853,澳门特别行政区,820007,路氹填海区,住宿服务,宾馆酒店,五星级宾馆,113.573386,22.145832,113.5683415151862,22.14879677555625
B0FFIBO55Z,新濠天地-澳门颐居,住宿服务;住宿服务相关;住宿服务相关,100000,路凼连贯公路,00853-88686688,820000,澳门特别行政区,1853,澳门特别行政区,820007,路氹填海区,住宿服务,住宿服务相关,住宿服务相关,113.570289,22.146906,113.56523875612864,22.149866911054453
B0FFJBZ0LK,澳门新濠天地-摩珀斯,住宿服务;宾馆酒店;五星级宾馆,100102,澳门科技大学南门旁侧新濠天地,00853-88686688,820000,澳门特别行政区,1853,澳门特别行政区,820007,路氹填海区,住宿服务,宾馆酒店,五星级宾馆,113.571588,22.146884,113.56654019654826,22.149846749601046
B0JD762WBF,澳门君悦酒店,住宿服务;住宿服务相关;住宿服务相关,100000,路氹连贯公路新濠天地,00853-88681234,820000,澳门特别行政区,1853,澳门特别行政区,820007,路氹填海区,住宿服务,住宿服务相关,住宿服务相关,113.567365,22.149448,113.56230883311288,22.15240548272613
B0FFG6YHY1,澳门百老汇酒店,住宿服务;宾馆酒店;五星级宾馆,100102,莲花海滨大马路,00853-88833338,820000,澳门特别行政区,1853,澳门特别行政区,820007,路氹填海区,住宿服务,宾馆酒店,五星级宾馆,113.556902,22.142527,113.5518227085263,22.14546311974624
B0K3MHH4T4,葡京人酒店-LINE FRIENDS PRESENTS CASA DE AMIGO,住宿服务;宾馆酒店;宾馆酒店,100100,溜冰路澳门葡京人,00853-88826888,820000,澳门特别行政区,1853,澳门特别行政区,820007,路氹填海区,住宿服务,宾馆酒店,宾馆酒店,113.578003,22.137398,113.5729667298875,22.140365062004577
B0FFH53HJN,澳门威尼斯人酒店,住宿服务;住宿服务相关;住宿服务相关,100000,氹仔望德圣母湾大马路,[],820000,澳门特别行政区,1853,澳门特别行政区,820007,路氹填海区,住宿服务,住宿服务相关,住宿服务相关,113.564774,22.144036,113.5597127635486,22.146987155260724
B0H1C42JYP,澳门上葡京,住宿服务;住宿服务相关;住宿服务相关,100000,路氹填海区射击路南150米,00853-88818000,820000,澳门特别行政区,1853,澳门特别行政区,820007,路氹填海区,住宿服务,住宿服务相关,住宿服务相关,113.579075,22.141187,113.57404013308816,22.14415673293701
B0G39SNNZW,澳门葡京人,住宿服务;住宿服务相关;住宿服务相关,100000,澳门路凼溜冰路澳门东亚运动会体育馆的对面,00853-88826888,820000,澳门特别行政区,1853,澳门特别行政区,820007,路氹填海区,住宿服务,住宿服务相关,住宿服务相关,113.577817,22.137974,113.57278040285372,22.140941082888627
B0K2TSPT9W,伦敦人名汇(Londoner Grand),住宿服务;住宿服务相关;住宿服务相关,100000,"伦敦人,路氹城路氹连贯公路,中国澳门",00853-28802000,820000,澳门特别行政区,1853,澳门特别行政区,820007,路氹填海区,住宿服务,住宿服务相关,住宿服务相关,113.570324,22.141854,113.5652741436519,22.144812978612524
B0FFHCKW6C,亚洲精品旅馆,住宿服务;住宿服务相关;住宿服务相关,100000,澳门氹仔告丽雅施利华街146号新陶陶居斜对面,00853-28223899,820000,澳门特别行政区,1853,澳门特别行政区,820006,嘉模堂区,住宿服务,住宿服务相关,住宿服务相关,113.556869,22.152927,113.5517889643063,22.15586711037277
B0LDYCZLP7,欧舒丹主题住宿,住宿服务;住宿服务相关;住宿服务相关,100000,澳门路氹溜冰路澳门葡京人,00853-88826888,820000,澳门特别行政区,1853,澳门特别行政区,820007,路氹填海区,住宿服务,住宿服务相关,住宿服务相关,113.572905,22.141487,113.56785993520418,22.14444942919941
B0KUK6Z4V7,Island Park(Bloco 1),住宿服务;住宿服务相关;住宿服务相关,100000,"Island Park(bloco 1)EstrNordeste da Taipa,Macao",[],820000,澳门特别行政区,1853,澳门特别行政区,820006,嘉模堂区,住宿服务,住宿服务相关,住宿服务相关,113.561103,22.161691,113.55603248674386,22.16464253747335
B0KUK6WKHU,My T Home,住宿服务;住宿服务相关;住宿服务相关,100000,"Caminho das Hortas,Macao",[],820000,澳门特别行政区,1853,澳门特别行政区,820006,嘉模堂区,住宿服务,住宿服务相关,住宿服务相关,113.563024,22.158768,113.55795800914454,22.16172185956645
B0KUK6VHT2,Edf.do Lago(Block 2),住宿服务;住宿服务相关;住宿服务相关,100000,美副将马路与司徒泽雄神父马路交叉口西40米,[],820000,澳门特别行政区,1853,澳门特别行政区,820006,嘉模堂区,住宿服务,住宿服务相关,住宿服务相关,113.566708,22.155669,113.5616500919451,22.158627844043007
B0KUK6VHSR,Flower City(Edf.Lei Yip),住宿服务;住宿服务相关;住宿服务相关,100000,"190号Rde Tai Lin,Macao",[],820000,澳门特别行政区,1853,澳门特别行政区,820006,嘉模堂区,住宿服务,住宿服务相关,住宿服务相关,113.561534,22.154454,113.55646493366515,22.157403555880595
B0KUK6V2GF,Island Park(Bloco 4),住宿服务;住宿服务相关;住宿服务相关,100000,"Island Park(bloco 4)EstrNordeste da Taipa,Macao",[],820000,澳门特别行政区,1853,澳门特别行政区,820006,嘉模堂区,住宿服务,住宿服务相关,住宿服务相关,113.561089,22.162073,113.55601843025444,22.165024656690445
B0KRKLC1O1,汇景花园(第二座),住宿服务;住宿服务相关;住宿服务相关,100000,"Wui Keng Garden(torre 2)Rde Aveiro,Macao",[],820000,澳门特别行政区,1853,澳门特别行政区,820006,嘉模堂区,住宿服务,住宿服务相关,住宿服务相关,113.557845,22.154478,113.55276725177616,22.1574206298243
B0KDY9Z1MG,Edf.Kinglight Garden(Block 1-Kam Yuen),住宿服务;住宿服务相关;住宿服务相关,100000,"Edificio Kinglight Garden(lei Yuen)Rde Fat San,Macao",[],820000,澳门特别行政区,1853,澳门特别行政区,820006,嘉模堂区,住宿服务,住宿服务相关,住宿服务相关,113.557706,22.154892,113.55262788778286,22.15783451759281
