id,name,type,typecode,address,tel,pcode,pname,citycode,cityname,adcode,adname,bigType,midType,smallType,lon_gcj02,lat_gcj02,lon_wgs84,lat_wgs84
B0KDY9YEHT,MANON万安防盗系统工程,科教文化服务;传媒机构;传媒机构|公司企业;公司;公司|餐饮服务;餐饮相关场所;餐饮相关,141100|170200|050000,"2G Beco do Gamboa,Macao",00853-28481648,820000,澳门特别行政区,1853,澳门特别行政区,820005,风顺堂区,科教文化服务,传媒机构,传媒机构|公司企业,113.542658,22.190756,113.53753690764388,22.19367838581968
B073D0M6RC,筷子基社屋(筷子基街),科教文化服务;学校;幼儿园|生活服务;生活服务场所;生活服务场所,141204|070000,高士德街1号23号,[],820000,澳门特别行政区,1853,澳门特别行政区,820001,花地玛堂区,科教文化服务,学校,幼儿园|生活服务,113.544377,22.203809,113.53926010281069,22.20674012569385
B073D00HIV,小宝宝督课中心(总社),科教文化服务;培训机构;培训机构|生活服务;生活服务场所;生活服务场所,141400|070000,消防队巷2号A-B,[],820000,澳门特别行政区,1853,澳门特别行政区,820002,花王堂区,科教文化服务,培训机构,培训机构|生活服务,113.549061,22.197002,113.5439577765373,22.19994172000268
B0IRFM85WK,威尼斯人综艺馆,科教文化服务;会展中心;会展中心|体育休闲服务;体育休闲服务场所;体育休闲服务场所,140300|080000,望德圣母湾大马路路氹金光大道澳门威尼斯人西翼大堂1层,00853-28828877,820000,澳门特别行政区,1853,澳门特别行政区,820007,路氹填海区,科教文化服务,会展中心,会展中心|体育休闲服务,113.564265,22.14492,113.55920261037907,22.14787064240669
B0KDY9YEHT,MANON万安防盗系统工程,科教文化服务;传媒机构;传媒机构|公司企业;公司;公司|餐饮服务;餐饮相关场所;餐饮相关,141100|170200|050000,"2G Beco do Gamboa,Macao",00853-28481648,820000,澳门特别行政区,1853,澳门特别行政区,820005,风顺堂区,科教文化服务,传媒机构,传媒机构|公司企业,113.542658,22.190756,113.53753690764388,22.19367838581968
B073D0M6RC,筷子基社屋(筷子基街),科教文化服务;学校;幼儿园|生活服务;生活服务场所;生活服务场所,141204|070000,高士德街1号23号,[],820000,澳门特别行政区,1853,澳门特别行政区,820001,花地玛堂区,科教文化服务,学校,幼儿园|生活服务,113.544377,22.203809,113.53926010281069,22.20674012569385
B073D00HIV,小宝宝督课中心(总社),科教文化服务;培训机构;培训机构|生活服务;生活服务场所;生活服务场所,141400|070000,消防队巷2号A-B,[],820000,澳门特别行政区,1853,澳门特别行政区,820002,花王堂区,科教文化服务,培训机构,培训机构|生活服务,113.549061,22.197002,113.5439577765373,22.19994172000268
B0IRFM85WK,威尼斯人综艺馆,科教文化服务;会展中心;会展中心|体育休闲服务;体育休闲服务场所;体育休闲服务场所,140300|080000,望德圣母湾大马路路氹金光大道澳门威尼斯人西翼大堂1层,00853-28828877,820000,澳门特别行政区,1853,澳门特别行政区,820007,路氹填海区,科教文化服务,会展中心,会展中心|体育休闲服务,113.564265,22.14492,113.55920261037907,22.14787064240669
B073D00I7S,路环图书馆,科教文化服务;图书馆;图书馆,140500,路环十月初五马路,00853-28882254,820000,澳门特别行政区,1853,澳门特别行政区,820008,圣方济各堂区,科教文化服务,图书馆,图书馆,113.556106,22.113702,113.55102657276974,22.11662487734252
B0ID5HP4GI,石排湾图书馆,科教文化服务;图书馆;图书馆,140500,澳门路环蝴蝶谷大马路石排湾社区综合大楼六楼右转,[],820000,澳门特别行政区,1853,澳门特别行政区,820008,圣方济各堂区,科教文化服务,图书馆,图书馆,113.567119,22.125631,113.56206384476076,22.128578627196312
B0HGSS3M1T,石排湾公立学校,科教文化服务;学校;学校,141200,澳门路环石排湾蝴蝶谷大马路CN6a地段,00853-28314031,820000,澳门特别行政区,1853,澳门特别行政区,820008,圣方济各堂区,科教文化服务,学校,学校,113.565607,22.125684,113.5605487015782,22.128629208579422
B0J6ZCTNAZ,澳门镜湖护理学院,科教文化服务;科教文化场所;科教文化场所,140000,离岛医院大马路447号医疗综合体,[],820000,澳门特别行政区,1853,澳门特别行政区,820007,路氹填海区,科教文化服务,科教文化场所,科教文化场所,113.572834,22.133088,113.5677893409357,22.136046993328662
B0JABNJPTS,伦敦人综艺馆,科教文化服务;展览馆;展览馆,140200,路凼连贯公路澳门伦敦人购物中心L4层,00853-28828818,820000,澳门特别行政区,1853,澳门特别行政区,820007,路氹填海区,科教文化服务,展览馆,展览馆,113.571296,22.143882,113.5662478454116,22.146843164475616
B073D00ID3,澳门科技大学,科教文化服务;学校;高等院校,141201,伟龙马路,00853-28831622;00853-28881122;00853-88972221,820000,澳门特别行政区,1853,澳门特别行政区,820007,路氹填海区,科教文化服务,学校,高等院校,113.573138,22.149323,113.56809285369708,22.152288809659368
B0HUN1BYWF,新濠天地水舞间,科教文化服务;培训机构;培训机构,141400,澳门澳门路氹连贯公路新濠天地水舞间剧院(澳门澳门路氹澳门路氹连贯公路,00853-88686688;00853-88686767,820000,澳门特别行政区,1853,澳门特别行政区,820007,路氹填海区,科教文化服务,培训机构,培训机构,113.57311,22.146955,113.56806495415736,22.14991984960894
B073D00JQF,澳门国际学校,科教文化服务;学校;中学,141202,伟龙马路澳门科技大学K座与Q座,00853-28533700,820000,澳门特别行政区,1853,澳门特别行政区,820007,路氹填海区,科教文化服务,学校,中学,113.574019,22.14812,113.56897548027392,22.151086494114963
B073D00IU5,龙环葡韵住宅式博物馆,科教文化服务;博物馆;博物馆,140100,官也街,00853-28827527;00853-89884000,820000,澳门特别行政区,1853,澳门特别行政区,820007,路氹填海区,科教文化服务,博物馆,博物馆,113.564998,22.15105,113.55993679675592,22.15400426692394
B073D00J5B,路氹历史馆,科教文化服务;展览馆;展览馆,140200,告利雅施利华街(澳门特别行政区嘉模堂区施督宪正街西50米),[],820000,澳门特别行政区,1853,澳门特别行政区,820006,嘉模堂区,科教文化服务,展览馆,展览馆,113.560659,22.149525,113.55558823796862,22.152471052107227
B0FFHWSWR9,军事展览馆,科教文化服务;科教文化场所;科教文化场所,140000,望德圣母湾大马路与望德圣母湾街交叉口西北40米,[],820000,澳门特别行政区,1853,澳门特别行政区,820007,路氹填海区,科教文化服务,科教文化场所,科教文化场所,113.562391,22.147486,113.55732431519591,22.150434390756367
B0FFHWR5QC,纪念孙中山公园黄营均图书馆,科教文化服务;科教文化场所;科教文化场所,140000,何贤绅士大马路澳门纪念孙中山市政公园内(东侧),00853-28228162,820000,澳门特别行政区,1853,澳门特别行政区,820001,花地玛堂区,科教文化服务,科教文化场所,科教文化场所,113.551385,22.213316,113.54628702706005,22.21626645733753
B0K0KN29XR,保利美高梅博物馆,科教文化服务;博物馆;博物馆,140100,美高梅酒店1层,[],820000,澳门特别行政区,1853,澳门特别行政区,820004,大堂区,科教文化服务,博物馆,博物馆,113.552981,22.18286,113.54788918714952,22.185803303046484
B073D00KDP,澳门旅游塔会展娱乐中心,科教文化服务;会展中心;会展中心,140300,澳门南湾新填海区d区域1号地段,00853-28933339,820000,澳门特别行政区,1853,澳门特别行政区,820004,大堂区,科教文化服务,会展中心,会展中心,113.54276,22.177044,113.53764008794644,22.179961692282625
B073D00FJM,母亲会圣约翰托儿所(波尔图街),科教文化服务;学校;幼儿园,141204,波尔图街403号光辉苑地下及二楼,00853-28725290;00853-28725291,820000,澳门特别行政区,1853,澳门特别行政区,820004,大堂区,科教文化服务,学校,幼儿园,113.554873,22.184728,113.54978594043612,22.187675939485075
B0FFL196JK,包剪揼托儿所,科教文化服务;学校;幼儿园,141204,"伦斯泰特大马路258号,Edificio Pak Tak,ER/C包剪揼托儿所地下及三楼",00853-28725135,820000,澳门特别行政区,1853,澳门特别行政区,820004,大堂区,科教文化服务,学校,幼儿园,113.554409,22.185601,113.54932070194435,22.188548293394955
B073D0M2ZF,澳门科学馆,科教文化服务;科技馆;科技馆,140600,孙逸仙大马路,[],820000,澳门特别行政区,1853,澳门特别行政区,820004,大堂区,科教文化服务,科技馆,科技馆,113.562085,22.18336,113.55701534184294,22.186321333472875
B073D0M4R5,圣若瑟大学,科教文化服务;培训机构;培训机构,141400,伦敦街60号,[],820000,澳门特别行政区,1853,澳门特别行政区,820004,大堂区,科教文化服务,培训机构,培训机构,113.557429,22.185276,113.55234827464926,22.18822928328131
B073D00B3L,创新中学,科教文化服务;学校;中学,141202,宋玉生广场255、263号中土大厦8-9层,[],820000,澳门特别行政区,1853,澳门特别行政区,820004,大堂区,科教文化服务,学校,中学,113.555074,22.18574,113.54998738564478,22.1886887166597
B073D00AXA,永利澳门招聘及培训中心,科教文化服务;培训机构;培训机构,141400,宋玉生广场255、263号中土大厦4层,[],820000,澳门特别行政区,1853,澳门特别行政区,820004,大堂区,科教文化服务,培训机构,培训机构,113.555074,22.18574,113.54998738564478,22.1886887166597
B073D00B3K,澳门中西创新学院(中土大厦校区),科教文化服务;学校;高等院校,141201,宋玉生广场255、263号中土大厦8层,00853-87964220,820000,澳门特别行政区,1853,澳门特别行政区,820004,大堂区,科教文化服务,学校,高等院校,113.555346,22.185938,113.55026006052567,22.188887344835067
B073D00B3G,南湾出版有限公司,科教文化服务;传媒机构;出版社,141105,宋玉生广场255、263号中土大厦I座7层,[],820000,澳门特别行政区,1853,澳门特别行政区,820004,大堂区,科教文化服务,传媒机构,出版社,113.555074,22.18574,113.54998738564478,22.1886887166597
B0FFI7FJ05,莲花卫视,科教文化服务;科教文化场所;科教文化场所,140000,宋玉生广场180号东南亚商业中心22楼A-V座,00853-28787606,820000,澳门特别行政区,1853,澳门特别行政区,820004,大堂区,科教文化服务,科教文化场所,科教文化场所,113.556492,22.185517,113.551408953353,22.18846851116462
B0FFHWT298,澳门蒙特梭利教育中心,科教文化服务;培训机构;培训机构,141400,宋玉生广场与伦敦街交叉口北40米,00853-28229949,820000,澳门特别行政区,1853,澳门特别行政区,820004,大堂区,科教文化服务,培训机构,培训机构,113.556708,22.18563,113.55162548070456,22.18858198312257
B073D00F8K,健康生活教育中心,科教文化服务;培训机构;培训机构,141400,飞南第街11号,[],820000,澳门特别行政区,1853,澳门特别行政区,820004,大堂区,科教文化服务,培训机构,培训机构,113.554155,22.1861,113.5490660192255,22.18904694371939
B0HD3RQQ75,Macao Science Center,科教文化服务;科教文化场所;科教文化场所,140000,孙逸仙大马路与冼星海大马路交叉口东南300米,00853-28880822,820000,澳门特别行政区,1853,澳门特别行政区,820004,大堂区,科教文化服务,科教文化场所,科教文化场所,113.561912,22.183101,113.55684196729538,22.18606193023702
B073D0M4I3,澳门城市大学(金龙校区),科教文化服务;学校;成人教育,141205,澳门新口岸冼星海大马路金龙中心4层,00853-28781698;00853-85902222,820000,澳门特别行政区,1853,澳门特别行政区,820004,大堂区,科教文化服务,学校,成人教育,113.55914,22.185825,113.55406336212948,22.188781789326192
B073D00KBJ,同善堂中学附属幼稚园,科教文化服务;学校;幼儿园,141204,圣德伦街405号,00853-28727505,820000,澳门特别行政区,1853,澳门特别行政区,820004,大堂区,科教文化服务,学校,幼儿园,113.553918,22.186634,113.5488283756689,22.18958063966697
B073D00BLN,澳门艺术博物馆,科教文化服务;博物馆;博物馆,140100,冼星海大马路澳门文化中心,00853-87919800;00853-87919814,820000,澳门特别行政区,1853,澳门特别行政区,820004,大堂区,科教文化服务,博物馆,博物馆,113.559729,22.185772,113.55465375792764,22.18872988353676
B073D0M4TF,教业中学(冼星海大马路),科教文化服务;学校;中学,141202,新口岸冼星海大马路,00853-28750013,820000,澳门特别行政区,1853,澳门特别行政区,820004,大堂区,科教文化服务,学校,中学,113.558376,22.186291,113.55329750579344,22.189246492724447
B073D00DR2,澳门工会联合总会主办业余进修中心,科教文化服务;培训机构;培训机构,141400,新口岸外港填海区罗马街85号建兴龙广场,00853-28750063,820000,澳门特别行政区,1853,澳门特别行政区,820004,大堂区,科教文化服务,培训机构,培训机构,113.557137,22.186356,113.55205549074864,22.189309095210053
B0KARLEGVN,澳艺文化艺术馆,科教文化服务;科教文化场所;科教文化场所,140000,葡京路2-4号,[],820000,澳门特别行政区,1853,澳门特别行政区,820004,大堂区,科教文化服务,科教文化场所,科教文化场所,113.5493,22.186627,113.5441980964782,22.189563590741663
B0FFLJ5W2N,铁赤道澳门重型机车藏馆,科教文化服务;展览馆;展览馆,140200,澳门友谊大马路197-223号新建业大厦M层铁赤道澳门重型机车藏馆,00853-28786120,820000,澳门特别行政区,1853,澳门特别行政区,820004,大堂区,科教文化服务,展览馆,展览馆,113.550713,22.186904,113.54561491624789,22.189843841702384
B0J0TDWUFB,七田真教育中心,科教文化服务;培训机构;培训机构,141400,圣德伦街423号,[],820000,澳门特别行政区,1853,澳门特别行政区,820004,大堂区,科教文化服务,培训机构,培训机构,113.554154,22.186713,113.5490649774942,22.189660161345223
B0KKSPXO11,Eye Level创意思维教育中心2,科教文化服务;培训机构;培训机构,141400,"宋玉生广场258号,Praca Kin Heng Long,C皇朝5楼",00853-68816206,820000,澳门特别行政区,1853,澳门特别行政区,820004,大堂区,科教文化服务,培训机构,培训机构,113.556413,22.186303,113.55132970721218,22.18925463502089
B073D00H98,教业中学附属小学暨幼稚园分校,科教文化服务;学校;幼儿园,141204,罗马街210号,00853-28750543,820000,澳门特别行政区,1853,澳门特别行政区,820004,大堂区,科教文化服务,学校,幼儿园,113.55866,22.185785,113.55358221976716,22.188740857920973
B0G3APACVQ,澳门博彩业历史资料馆,科教文化服务;展览馆;展览馆,140200,澳门葡京酒店,[],820000,澳门特别行政区,1853,澳门特别行政区,820004,大堂区,科教文化服务,展览馆,展览馆,113.549521,22.186791,113.5444196907364,22.18972814684916
B0FFHD1JIO,沙梨头图书馆,科教文化服务;图书馆;图书馆,140500,沙梨头海边街69-81号,00853-28259220;00853-28259221,820000,澳门特别行政区,1853,澳门特别行政区,820002,花王堂区,科教文化服务,图书馆,图书馆,113.542702,22.198986,113.5375805096225,22.2019113821043
B0KKZPRWJ8,Stemie International Education Center科创国际教育中心,科教文化服务;培训机构;培训机构,141400,"澳门筷子基俾若翰街东方海岸(第一座)地下H座02铺,",00853-62857137,820000,澳门特别行政区,1853,澳门特别行政区,820001,花地玛堂区,科教文化服务,培训机构,培训机构,113.543063,22.203646,113.53794227444732,22.206573876374343
B0FFG8YJV2,广大中学,科教文化服务;学校;中学,141202,筷子基街(筷子基社屋南侧),[],820000,澳门特别行政区,1853,澳门特别行政区,820001,花地玛堂区,科教文化服务,学校,中学,113.544254,22.203267,113.53913678047908,22.20619764304839
B073D00I05,沙梨头坊众托儿中心,科教文化服务;学校;幼儿园,141204,"沙梨头麻子街21号A社学大厦地下,阁楼及一楼A,B单位",00853-28950640,820000,澳门特别行政区,1853,澳门特别行政区,820002,花王堂区,科教文化服务,学校,幼儿园,113.543204,22.198513,113.53808401818728,22.20143944922383
B0H3DCUG3N,澳门圣若瑟教区中学第六校,科教文化服务;科教文化场所;科教文化场所,140000,青洲河边马路14-17号,00853-28270240,820000,澳门特别行政区,1853,澳门特别行政区,820001,花地玛堂区,科教文化服务,科教文化场所,科教文化场所,113.544453,22.208034,113.5393360522414,22.21096674867488
B073D00BL9,澳门自来水化验研究中心,科教文化服务;科研机构;科研机构,141300,青洲大马路718号,00853-28220088,820000,澳门特别行政区,1853,澳门特别行政区,820001,花地玛堂区,科教文化服务,科研机构,科研机构,113.545114,22.207973,113.5399989655824,22.210907313241545
B0FFHWCAMB,圣若瑟大学,科教文化服务;学校;高等院校,141201,青洲河边马路14-17号,00853-87925600;00853-87964400,820000,澳门特别行政区,1853,澳门特别行政区,820001,花地玛堂区,科教文化服务,学校,高等院校,113.544029,22.20825,113.53891080641552,22.211181798000897
B0L6ARZ6O2,拉撒路青少年中心,科教文化服务;文化宫;文化宫,140800,青洲里与青洲河边马路交叉口南80米,00853-28552435,820000,澳门特别行政区,1853,澳门特别行政区,820001,花地玛堂区,科教文化服务,文化宫,文化宫,113.54362,22.206115,113.538500749759,22.20904508017124
B0FFH74ICL,圣德兰学校(青洲大马路),科教文化服务;学校;学校,141200,青洲大马路66号,00853-28573494,820000,澳门特别行政区,1853,澳门特别行政区,820001,花地玛堂区,科教文化服务,学校,学校,113.546978,22.208227,113.5418682590238,22.21116579671208
B0KDXAZKVL,协同特殊教育学校,科教文化服务;学校;学校,141200,收容所街13号,[],820000,澳门特别行政区,1853,澳门特别行政区,820001,花地玛堂区,科教文化服务,学校,学校,113.546976,22.206853,113.54186634144192,22.20979132587728
B0FFG83W4G,澳门中华总商会附设青洲中学,科教文化服务;学校;学校,141200,青洲大马路60号,[],820000,澳门特别行政区,1853,澳门特别行政区,820001,花地玛堂区,科教文化服务,学校,学校,113.547537,22.208308,113.5424288241964,22.211248121491792
B0FFI7HIR5,青少年普法中心,科教文化服务;科教文化场所;科教文化场所,140000,青洲新马路与青洲河边马路交叉口南40米,00853-89873471,820000,澳门特别行政区,1853,澳门特别行政区,820001,花地玛堂区,科教文化服务,科教文化场所,科教文化场所,113.543649,22.209866,113.53852959389964,22.212797421807043
B073D00CWN,仁爱传教修女会托儿所,科教文化服务;学校;幼儿园,141204,"青洲大马路no 448号,R/C",00853-28222538,820000,澳门特别行政区,1853,澳门特别行政区,820001,花地玛堂区,科教文化服务,学校,幼儿园,113.547703,22.207989,113.54259530898184,22.210929396769927
B0FFI7HRU8,星汇教育中心,科教文化服务;培训机构;培训机构,141400,青洲新马路与青洲河边马路交叉口东南20米,00853-28270470,820000,澳门特别行政区,1853,澳门特别行政区,820001,花地玛堂区,科教文化服务,培训机构,培训机构,113.543712,22.210017,113.53859276835168,22.212948625885563
B0FFHWQGVQ,卓英教育中心,科教文化服务;科教文化场所;科教文化场所,140000,青洲街与和乐围交叉口西南60米,00853-62371000,820000,澳门特别行政区,1853,澳门特别行政区,820001,花地玛堂区,科教文化服务,科教文化场所,科教文化场所,113.547443,22.205757,113.54233472430538,22.208696037313977
B0K2792ORH,铭威驾驶学校,科教文化服务;驾校;驾校,141500,沙梨头北街与俾若翰街交叉口东北60米,00853-28262378,820000,澳门特别行政区,1853,澳门特别行政区,820001,花地玛堂区,科教文化服务,驾校,驾校,113.547424,22.205434,113.54231569173643,22.2083728831506
B073D00HPF,劳校中学,科教文化服务;学校;中学,141202,乐坊二街163号,[],820000,澳门特别行政区,1853,澳门特别行政区,820001,花地玛堂区,科教文化服务,学校,中学,113.548479,22.206655,113.5433735529173,22.20959672398798
B0KAZUI0SA,MathConcept数学思维教室(林茂塘店),科教文化服务;培训机构;培训机构,141400,筷子基南街467号宝翠花园地下,[],820000,澳门特别行政区,1853,澳门特别行政区,820001,花地玛堂区,科教文化服务,培训机构,培训机构,113.546025,22.203957,113.5409128320104,22.20689210753376
B073D00G9R,玛大肋纳嘉诺撒学校,科教文化服务;学校;学校,141200,花地玛堂区俾若翰街28号,00853-28225739;00853-28564110,820000,澳门特别行政区,1853,澳门特别行政区,820001,花地玛堂区,科教文化服务,学校,学校,113.547364,22.204524,113.54225558176115,22.20746243324196
B0FFKZO8CU,儒林补习教育中心7,科教文化服务;培训机构;培训机构,141400,俾若翰街238-242号,[],820000,澳门特别行政区,1853,澳门特别行政区,820001,花地玛堂区,科教文化服务,培训机构,培训机构,113.547665,22.205093,113.54255738831252,22.208032323835933
B0KUSMFD22,Monkey Tree English Learning Center筷子基,科教文化服务;培训机构;培训机构,141400,沙利头南街337号绿杨花园第一及第二座地下C铺,[],820000,澳门特别行政区,1853,澳门特别行政区,820001,花地玛堂区,科教文化服务,培训机构,培训机构,113.54714,22.204469,113.54203095599186,22.20740689451393
B0KKGGUCMA,劳工事务局青洲坊职业培训中心,科教文化服务;学校;职业技术学校,141206,李宝椿街青洲坊大厦第一座1楼A1,00853-82914888,820000,澳门特别行政区,1853,澳门特别行政区,820001,花地玛堂区,科教文化服务,学校,职业技术学校,113.547998,22.209035,113.54289106489853,22.21197642972272
B0KKGG46XH,中国澳门残疾人奥委会暨伤残人士文娱暨体育总会,科教文化服务;科教文化场所;科教文化场所,140000,船澳街与海湾南街交叉口北80米,00853-28263057,820000,澳门特别行政区,1853,澳门特别行政区,820001,花地玛堂区,科教文化服务,科教文化场所,科教文化场所,113.545895,22.203863,113.5407824673626,22.20679776827418
B0FFHZUQ7E,新一代驾驶学校有限公司,科教文化服务;科教文化场所;科教文化场所,140000,船澳街与海湾南街交叉口北80米,00853-28220773,820000,澳门特别行政区,1853,澳门特别行政区,820001,花地玛堂区,科教文化服务,科教文化场所,科教文化场所,113.54583,22.203848,113.54071728278448,22.20678260941097
B0FFHWSKJU,国际才位教育中心,科教文化服务;培训机构;培训机构,141400,和乐大马路与白朗古将军街交叉口西20米,00853-62186353,820000,澳门特别行政区,1853,澳门特别行政区,820001,花地玛堂区,科教文化服务,培训机构,培训机构,113.548192,22.205805,113.54308581141768,22.208745778483387
B0FFKT6TML,家国情怀馆,科教文化服务;科教文化场所;科教文化场所,140000,白朗古将军大马路与台山中街交叉口西80米,[],820000,澳门特别行政区,1853,澳门特别行政区,820001,花地玛堂区,科教文化服务,科教文化场所,科教文化场所,113.548557,22.208379,113.54345165833068,22.21132148678621
B073D0M6RR,新华学校(小幼部),科教文化服务;学校;幼儿园,141204,青洲大马路355号美居广场第三期-嘉应花园(第三座)2-3楼,00853-28233858;00853-28233996,820000,澳门特别行政区,1853,澳门特别行政区,820001,花地玛堂区,科教文化服务,学校,幼儿园,113.54885,22.20761,113.54374551654648,22.21055289246224
B073D00FYL,新华夜中学,科教文化服务;学校;中学,141202,青洲大马路355号嘉应花园三层,00853-28261651;00853-28263669,820000,澳门特别行政区,1853,澳门特别行政区,820001,花地玛堂区,科教文化服务,学校,中学,113.54885,22.20761,113.54374551654648,22.21055289246224
B0KKMPF1A2,智研教育中心,科教文化服务;培训机构;培训机构,141400,"和乐坊二街113号,Edificio Wang Son,地下R座",00853-68868126,820000,澳门特别行政区,1853,澳门特别行政区,820001,花地玛堂区,科教文化服务,培训机构,培训机构,113.548692,22.206248,113.54358716791256,22.20919007065596
B073D00FZ1,青洲坊图书馆,科教文化服务;图书馆;图书馆,140500,李宝椿街122号青洲坊大厦第2座1楼B,[],820000,澳门特别行政区,1853,澳门特别行政区,820001,花地玛堂区,科教文化服务,图书馆,图书馆,113.5486,22.209206,113.54349472426,22.21214886435565
B0LDD5B092,教业托儿所,科教文化服务;科教文化场所;科教文化场所,140000,青洲大马路348-358号,[],820000,澳门特别行政区,1853,澳门特别行政区,820001,花地玛堂区,科教文化服务,科教文化场所,科教文化场所,113.548643,22.208639,113.54353787942073,22.21158177061224
B0KKGGYMGI,蔚祺教育有限公司,科教文化服务;培训机构;培训机构,141400,"和乐坊二街107号,Edificio Wang Son,筷子基地下Q座",00853-66818904,820000,澳门特别行政区,1853,澳门特别行政区,820001,花地玛堂区,科教文化服务,培训机构,培训机构,113.548689,22.206243,113.5435841599487,22.20918506213048
B0FFLCDMJI,敦仁补习教育中心4,科教文化服务;培训机构;培训机构,141400,和乐坊二街与白朗古将军街交叉口北40米,00853-65657375,820000,澳门特别行政区,1853,澳门特别行政区,820001,花地玛堂区,科教文化服务,培训机构,培训机构,113.548842,22.206198,113.54373758493044,22.209140394404223
B073D0M6WJ,优格补习中心,科教文化服务;培训机构;培训机构,141400,青洲大马路与白朗古将军大马路交叉口西60米,[],820000,澳门特别行政区,1853,澳门特别行政区,820001,花地玛堂区,科教文化服务,培训机构,培训机构,113.549028,22.207832,113.54392399235589,22.210775371120107
B0FFHWQOMU,恒丰驾驶学校,科教文化服务;科教文化场所;科教文化场所,140000,白朗古将军街与和乐坊一街交叉口东北20米,00853-28220687,820000,澳门特别行政区,1853,澳门特别行政区,820001,花地玛堂区,科教文化服务,科教文化场所,科教文化场所,113.549266,22.20605,113.54416275999026,22.208993303230912
B0J6JU5WZR,公文式筷子基教育中心,科教文化服务;培训机构;培训机构,141400,兰花前地300号信和广场大厦地铺k座,00853-28266108;00853-62605653,820000,澳门特别行政区,1853,澳门特别行政区,820002,花王堂区,科教文化服务,培训机构,培训机构,113.547049,22.203105,113.54193978726995,22.20604221529569
B073D00E7F,互动勤学社,科教文化服务;培训机构;培训机构,141400,万宝阁10层R,00853-28381854,820000,澳门特别行政区,1853,澳门特别行政区,820001,花地玛堂区,科教文化服务,培训机构,培训机构,113.549296,22.205143,113.54419290030664,22.208086061503494
B073D00HFD,广大中学(分教处),科教文化服务;学校;中学,141202,沙梨头新街98号联薪广场三层,00853-28472462,820000,澳门特别行政区,1853,澳门特别行政区,820001,花地玛堂区,科教文化服务,学校,中学,113.549174,22.204421,113.54407061191483,22.207363539411723
B0KKGGBEWX,敦仁补习教育中心2,科教文化服务;培训机构;培训机构,141400,"和乐街3号,Edificio Wang Fung,地下c铺",00853-28262858,820000,澳门特别行政区,1853,澳门特别行政区,820001,花地玛堂区,科教文化服务,培训机构,培训机构,113.549785,22.205522,113.54468321215992,22.20846628925425
B073D00ALD,澳门街坊会联合总会展览厅,科教文化服务;展览馆;展览馆,140200,白朗古将军大马路,[],820000,澳门特别行政区,1853,澳门特别行政区,820001,花地玛堂区,科教文化服务,展览馆,展览馆,113.549274,22.210231,113.54417051417212,22.213175737444995
B0FFK3ICKM,安格汽车电单车教授驾驶学校有限公司,科教文化服务;科教文化场所;科教文化场所,140000,青洲大马路与苏沙医生街交叉口西北60米,00853-28433333,820000,澳门特别行政区,1853,澳门特别行政区,820001,花地玛堂区,科教文化服务,科教文化场所,科教文化场所,113.550231,22.207857,113.54513027411676,22.21080307813909
B0FFFP70IL,郑观应公立学校,科教文化服务;学校;学校,141200,菜园涌边街,00853-28236394;00853-28237204,820000,澳门特别行政区,1853,澳门特别行政区,820001,花地玛堂区,科教文化服务,学校,学校,113.549771,22.210315,113.5446688671293,22.213260882377124
B0FFIW9SPP,联合驾驶学校有限公司,科教文化服务;科教文化场所;科教文化场所,140000,青洲大马路与苏沙医生街交叉口西60米,[],820000,澳门特别行政区,1853,澳门特别行政区,820001,花地玛堂区,科教文化服务,科教文化场所,科教文化场所,113.550231,22.207698,113.54513028429584,22.21064402422898
B073D0M7I5,澳门福建学校,科教文化服务;学校;学校,141200,花地玛堂区台山李宝椿街291号,00853-28237507,820000,澳门特别行政区,1853,澳门特别行政区,820001,花地玛堂区,科教文化服务,学校,学校,113.550302,22.209501,113.54520136108596,22.21244779190744
B0KRDZEWZZ,乐悠悠艺术教育中心,科教文化服务;培训机构;培训机构,141400,台山中街302号,[],820000,澳门特别行政区,1853,澳门特别行政区,820001,花地玛堂区,科教文化服务,培训机构,培训机构,113.550467,22.208302,113.54536688387432,22.21124875258221
B0IKZ5V6ZC,圣若瑟教区中学第五校,科教文化服务;学校;学校,141200,台山中街253号,[],820000,澳门特别行政区,1853,澳门特别行政区,820001,花地玛堂区,科教文化服务,学校,学校,113.550576,22.208778,113.54547614753064,22.21172515486932
B073D0M6RA,思幼爱儿中心,科教文化服务;学校;幼儿园,141204,花地玛堂区飞喇士街14号附近,00853-28450856,820000,澳门特别行政区,1853,澳门特别行政区,820001,花地玛堂区,科教文化服务,学校,幼儿园,113.550091,22.205154,113.5449900676252,22.2080988469037
B073D00BH4,台山活动中心,科教文化服务;文化宫;文化宫,140800,台山街市市政综合大楼,[],820000,澳门特别行政区,1853,澳门特别行政区,820001,花地玛堂区,科教文化服务,文化宫,文化宫,113.550805,22.207989,113.54570581461763,22.210936393304245
B073D00BH7,化地玛圣母女子学校,科教文化服务;学校;学校,141200,李宝椿街与台山新城市第三街交叉口东南60米,[],820000,澳门特别行政区,1853,澳门特别行政区,820001,花地玛堂区,科教文化服务,学校,学校,113.551364,22.208806,113.5462662596812,22.21175489627478
B073D00ALC,巴波沙中葡小学-明爱中心托儿所,科教文化服务;学校;幼儿园,141204,菜园涌边街343号,00853-28231090,820000,澳门特别行政区,1853,澳门特别行政区,820001,花地玛堂区,科教文化服务,学校,幼儿园,113.550339,22.210397,113.54523840382362,22.213344176014125
B073D0M6TH,童画王国(合和店),科教文化服务;培训机构;培训机构,141400,提督马路163-165号合和工业大厦9楼A座,00853-28751768,820000,澳门特别行政区,1853,澳门特别行政区,820002,花王堂区,科教文化服务,培训机构,培训机构,113.550317,22.204,113.54521675382117,22.206944954795983
B0FFI7AGXI,艺信工程,科教文化服务;科教文化场所;科教文化场所,140000,澳门青洲大马路逸丽花园第五座23楼AK,00853-28342164,820000,澳门特别行政区,1853,澳门特别行政区,820001,花地玛堂区,科教文化服务,科教文化场所,科教文化场所,113.55118,22.207406,113.5460818576313,22.21035401951616
B073D0M38G,小安迪督课中心,科教文化服务;培训机构;培训机构,141400,花地玛堂区李宝椿街和台山新城市第一巷的交叉口附近,[],820000,澳门特别行政区,1853,澳门特别行政区,820001,花地玛堂区,科教文化服务,培训机构,培训机构,113.550787,22.209435,113.54568767366054,22.212382842643567
B0L6NSRVVC,Creche Caritas,科教文化服务;学校;幼儿园,141204,"RMarginal do Canal das Hortas,Macao",00853-28231090,820000,澳门特别行政区,1853,澳门特别行政区,820001,花地玛堂区,科教文化服务,学校,幼儿园,113.550282,22.210496,113.54518124325342,22.21344308277413
B0FFIH0IZC,迷你教室教育中心,科教文化服务;培训机构;培训机构,141400,沙梨头南街与林茂海边大马路交叉口东南40米,00853-28258242,820000,澳门特别行政区,1853,澳门特别行政区,820002,花王堂区,科教文化服务,培训机构,培训机构,113.549001,22.202508,113.5438972590362,22.20544949192114
B0FFIZJMGO,鸟居日本文化研究会,科教文化服务;科教文化场所;科教文化场所,140000,沙梨头南街与罅些喇提督大马路交叉口西40米,00853-63091596,820000,澳门特别行政区,1853,澳门特别行政区,820002,花王堂区,科教文化服务,科教文化场所,科教文化场所,113.54901,22.202466,113.54390628648088,22.20540749784989
B0FFHWRRHZ,格致专业培训中心,科教文化服务;培训机构;培训机构,141400,沙梨头南街与罅些喇提督大马路交叉口西40米,00853-28258258,820000,澳门特别行政区,1853,澳门特别行政区,820002,花王堂区,科教文化服务,培训机构,培训机构,113.549037,22.202474,113.54393336021812,22.20541556171269
B0KKMPIGH5,儒林补习教育中心9,科教文化服务;学校;学校,141200,巴波沙大马路坊第十一街新城市花园(第十八座)地下U座,00853-28438006,820000,澳门特别行政区,1853,澳门特别行政区,820001,花地玛堂区,科教文化服务,学校,学校,113.550862,22.209769,113.5457628538671,22.21271712053165
B073D0M7AI,红街市图书馆,科教文化服务;图书馆;图书馆,140500,雅廉访大马路147号地下,00853-28217348,820000,澳门特别行政区,1853,澳门特别行政区,820002,花王堂区,科教文化服务,图书馆,图书馆,113.550256,22.202916,113.54515565810838,22.20586044741209
B073D00C7Z,澳门工联职业技术中学,科教文化服务;学校;职业技术学校,141206,李宝椿街,00853-28221711,820000,澳门特别行政区,1853,澳门特别行政区,820001,花地玛堂区,科教文化服务,学校,职业技术学校,113.551982,22.208754,113.54688590550538,22.211704222062373
B0KKGG2H4P,彩霞艺术工作室,科教文化服务;培训机构;培训机构,141400,罅些喇提督大马路与高士德大马路交叉口东40米,[],820000,澳门特别行政区,1853,澳门特别行政区,820002,花王堂区,科教文化服务,培训机构,培训机构,113.549803,22.202464,113.54470145695574,22.20540728192137
B0FFKMJWJJ,晞晨教育中心,科教文化服务;科教文化场所;科教文化场所,140000,菜园涌边街与牧场街交叉口西南20米,[],820000,澳门特别行政区,1853,澳门特别行政区,820001,花地玛堂区,科教文化服务,科教文化场所,科教文化场所,113.551436,22.210493,113.5463383437728,22.213442622483825
B073D00AH3,澳门互助总会孟智豪夫人托儿所,科教文化服务;学校;幼儿园,141204,菜园涌巷70号,[],820000,澳门特别行政区,1853,澳门特别行政区,820001,花地玛堂区,科教文化服务,学校,幼儿园,113.550672,22.21162,113.54557222430084,22.214568324129523
B0KKGG0BYV,Creche D.Ana Sofia Monjardino da Uniao Geral das Associacoes dos Moradores de Macau,科教文化服务;学校;幼儿园,141204,菜园涌巷与工厂街交叉口东南20米,00853-28432513,820000,澳门特别行政区,1853,澳门特别行政区,820001,花地玛堂区,科教文化服务,学校,幼儿园,113.550651,22.211692,113.54555116312618,22.21464030190182
B073D00G86,嘉诺撒圣心英文中学,科教文化服务;学校;中学,141202,雅廉访大马路86号,00853-28516849;00853-28572422,820000,澳门特别行政区,1853,澳门特别行政区,820002,花王堂区,科教文化服务,学校,中学,113.551554,22.203023,113.54645713614715,22.20597033988995
B0FFL0XNJR,希望之源,科教文化服务;培训机构;培训机构,141400,牧场巷与菜园涌巷交叉口东40米,00853-28837055,820000,澳门特别行政区,1853,澳门特别行政区,820001,花地玛堂区,科教文化服务,培训机构,培训机构,113.550882,22.211607,113.54578278993404,22.214555782711013
B073D00B8C,澳门牛房仓库,科教文化服务;展览馆;展览馆,140200,美副将大马路与罅些喇提督大马路交界,00853-28530026,820000,澳门特别行政区,1853,澳门特别行政区,820002,花王堂区,科教文化服务,展览馆,展览馆,113.55211,22.203901,113.54701455447724,22.20684984664876
B0FFI1OC5Y,澳门新新教育中心,科教文化服务;培训机构;培训机构,141400,巴波沙大马路与亚马喇土腰交叉口东南20米,00853-28403723;00853-28529193,820000,澳门特别行政区,1853,澳门特别行政区,820001,花地玛堂区,科教文化服务,培训机构,培训机构,113.552603,22.207648,113.54750861294576,22.210599184037267
B073D00CXT,台山自修室,科教文化服务;科教文化场所;科教文化场所,140000,"台山自修室Avenida de Artur Tamagnini Barbosa,no 123,r/c,Macau,澳门",[],820000,澳门特别行政区,1853,澳门特别行政区,820001,花地玛堂区,科教文化服务,科教文化场所,科教文化场所,113.552463,22.208486,113.54736819157198,22.21143716780266
B073D0M7B0,天恩督课中心,科教文化服务;培训机构;培训机构,141400,花地玛堂区巴波沙大马路24号,[],820000,澳门特别行政区,1853,澳门特别行政区,820001,花地玛堂区,科教文化服务,培训机构,培训机构,113.552651,22.207607,113.54755674149544,22.21055827287571
B0FFH06WS8,同善堂托儿所,科教文化服务;学校;幼儿园,141204,"花地玛堂区黑沙环马路1A号,2楼及3楼C",00853-28521002,820000,澳门特别行政区,1853,澳门特别行政区,820001,花地玛堂区,科教文化服务,学校,幼儿园,113.552727,22.208549,113.54763288044954,22.21150075451504
B0FFH3GLCG,白鸽巢公园黄营均图书馆,科教文化服务;图书馆;图书馆,140500,白鸽巢前地白鸽巢公园,00853-28953079,820000,澳门特别行政区,1853,澳门特别行政区,820002,花王堂区,科教文化服务,图书馆,图书馆,113.545173,22.198417,113.54005874802787,22.201348173372377
B073D00FWG,东南学校(中学部),科教文化服务;学校;中学,141202,白鸽巢前地5-7号,00853-28573510,820000,澳门特别行政区,1853,澳门特别行政区,820002,花王堂区,科教文化服务,学校,中学,113.54412,22.196549,113.53900282174104,22.19947699252996
B0FFL2VN6N,利玛窦中学附属幼稚园,科教文化服务;学校;幼儿园,141204,白鸽巢前地4号,[],820000,澳门特别行政区,1853,澳门特别行政区,820002,花王堂区,科教文化服务,学校,幼儿园,113.544638,22.19647,113.53952232955542,22.199399213592407
B0FFI7FI5S,彩虹宝宝教育中心,科教文化服务;培训机构;培训机构,141400,丛庆三巷与工匠巷交叉口东北20米,00853-66376993,820000,澳门特别行政区,1853,澳门特别行政区,820002,花王堂区,科教文化服务,培训机构,培训机构,113.543546,22.196625,113.5384271419924,22.19955162599105
B073D00HUX,沙梨头坊众学校,科教文化服务;学校;学校,141200,花王堂区麻子街99号,00853-28576838,820000,澳门特别行政区,1853,澳门特别行政区,820002,花王堂区,科教文化服务,学校,学校,113.544844,22.199259,113.53972874605252,22.202189679054914
B073D0M3QA,造船子弟学校,科教文化服务;学校;学校,141200,石街11-15号,[],820000,澳门特别行政区,1853,澳门特别行政区,820002,花王堂区,科教文化服务,学校,学校,113.545605,22.198787,113.54049196390328,22.20171932997607
B073D00IAN,圣彼得堂督课中心,科教文化服务;培训机构;培训机构,141400,合发大厦2层AB座,[],820000,澳门特别行政区,1853,澳门特别行政区,820002,花王堂区,科教文化服务,培训机构,培训机构,113.543453,22.196446,113.53833388115967,22.19937233681011
B0JKDA1RZP,LiquidArt醇与艺教育中心,科教文化服务;科教文化场所;科教文化场所,140000,大缆巷56号(新福宁桃宛旁),00853-66220033,820000,澳门特别行政区,1853,澳门特别行政区,820002,花王堂区,科教文化服务,科教文化场所,科教文化场所,113.546146,22.198488,113.54103452703674,22.201421505296832
B0JGH6MCX8,雅音音乐教育中心,科教文化服务;培训机构;培训机构,141400,沙栏仔街与花王堂街交叉口西40米,[],820000,澳门特别行政区,1853,澳门特别行政区,820002,花王堂区,科教文化服务,培训机构,培训机构,113.544005,22.195977,113.53888752367112,22.19890451421072
B0KRYZUSA2,鱼行醉龙馆,科教文化服务;科教文化场所;科教文化场所,140000,澳门十月初五日街3号,[],820000,澳门特别行政区,1853,澳门特别行政区,820002,花王堂区,科教文化服务,科教文化场所,科教文化场所,113.542589,22.197017,113.53746730216106,22.199941418505443
B0HRRXWH2E,英杰教育-澳门补习社-澳门四校联考升大班,科教文化服务;科教文化场所;科教文化场所,140000,新胜街与连兴街交叉口西北20米,00853-65955125,820000,澳门特别行政区,1853,澳门特别行政区,820002,花王堂区,科教文化服务,科教文化场所,科教文化场所,113.545677,22.195891,113.54056435552953,22.19882249096133
B0FFHWSWFN,夹子音乐中心(白鸽巢店),科教文化服务;培训机构;培训机构,141400,花王堂街16B号新运大厦地下H(来来超市正对面),[],820000,澳门特别行政区,1853,澳门特别行政区,820002,花王堂区,科教文化服务,培训机构,培训机构,113.544182,22.195599,113.53906506295768,22.19852681007132
B0FFI7K3WJ,澳门青年持续教育中心,科教文化服务;科教文化场所;科教文化场所,140000,十月初五日街与丛庆南街交叉口东北20米,00853-28701328,820000,澳门特别行政区,1853,澳门特别行政区,820002,花王堂区,科教文化服务,科教文化场所,科教文化场所,113.542632,22.196893,113.53751043717628,22.19981748113817
B0FFIJSBJ8,澳门捷点传媒有限公司,科教文化服务;科教文化场所;科教文化场所,140000,沙栏仔街与工匠街交叉口东南20米,00853-66665333,820000,澳门特别行政区,1853,澳门特别行政区,820002,花王堂区,科教文化服务,科教文化场所,科教文化场所,113.543555,22.195822,113.53843621982988,22.198748367102496
B0FFHQBJVN,柏迪教育中心,科教文化服务;科教文化场所;科教文化场所,140000,兴华街与福庆街交叉口西40米,00853-28350583,820000,澳门特别行政区,1853,澳门特别行政区,820002,花王堂区,科教文化服务,科教文化场所,科教文化场所,113.545955,22.195804,113.54084315500918,22.198736118373105
B0FFIPIQU7,澳门环境科学教育中心,科教文化服务;培训机构;培训机构,141400,亚美打街与大兴街交叉口东北20米,00853-28310039,820000,澳门特别行政区,1853,澳门特别行政区,820002,花王堂区,科教文化服务,培训机构,培训机构,113.546956,22.19736,113.54184689332044,22.200295010680723
B0FFLAL0WF,儒林补习教育中心3,科教文化服务;培训机构;培训机构,141400,青草街51号东方明珠地下C座,[],820000,澳门特别行政区,1853,澳门特别行政区,820002,花王堂区,科教文化服务,培训机构,培训机构,113.547018,22.198349,113.5419090046724,22.20128449949524
B0FFLA9D92,圣玛大肋学校,科教文化服务;学校;中学,141202,大三巴街39-41号,00853-28373063,820000,澳门特别行政区,1853,澳门特别行政区,820002,花王堂区,科教文化服务,学校,中学,113.54505,22.195099,113.53993560669886,22.19802872093925
B073D0M6DD,大三巴哪咤展馆,科教文化服务;展览馆;展览馆,140200,澳门花王堂区茨林围2号,00853-28366866;00853-83996699,820000,澳门特别行政区,1853,澳门特别行政区,820002,花王堂区,科教文化服务,展览馆,展览馆,113.54548,22.194876,113.54036685649974,22.19780666761162
B073D00K0C,澳门学园传道会青少年活动中心,科教文化服务;文化宫;文化宫,140800,大兴街71号,[],820000,澳门特别行政区,1853,澳门特别行政区,820002,花王堂区,科教文化服务,文化宫,文化宫,113.546204,22.199535,113.541092624912,22.20246900537777
B0KKGGAJZM,儒林补习教育中心2,科教文化服务;学校;学校,141200,"青草街91号,Edificio Man Fung,地下A座",00853-28367711,820000,澳门特别行政区,1853,澳门特别行政区,820002,花王堂区,科教文化服务,学校,学校,113.54672,22.199,113.5416101220728,22.201935030385183
B0FFHCBQXU,宗教艺术博物馆,科教文化服务;科教文化场所;科教文化场所,140000,花王堂区大三巴牌坊后,[],820000,澳门特别行政区,1853,澳门特别行政区,820002,花王堂区,科教文化服务,科教文化场所,科教文化场所,113.545723,22.194997,113.54061054435684,22.19792828672654
B073D0M3NU,新桥青少年活动中心,科教文化服务;科教文化场所;科教文化场所,140000,大兴街与惠爱街交叉口西北20米,[],820000,澳门特别行政区,1853,澳门特别行政区,820002,花王堂区,科教文化服务,科教文化场所,科教文化场所,113.546197,22.199531,113.54108560526382,22.20246498751029
B0FFLADRW7,艺文青艺术教育中心,科教文化服务;培训机构;培训机构,141400,渡船街与青草街交叉口西南20米,00853-62728371,820000,澳门特别行政区,1853,澳门特别行政区,820002,花王堂区,科教文化服务,培训机构,培训机构,113.546677,22.199187,113.54156698851494,22.202121994727403
B0FFHO69WH,蓝天教学辅助中心,科教文化服务;培训机构;培训机构,141400,"花王堂街2号,Edificio Fu Van",[],820000,澳门特别行政区,1853,澳门特别行政区,820002,花王堂区,科教文化服务,培训机构,培训机构,113.544702,22.195064,113.5395866047782,22.1979928750506
B073D0M3PT,沙梨头浸信学校,科教文化服务;学校;学校,141200,"号S,169 Rda Ribeira do Patane,澳门",00853-28316527,820000,澳门特别行政区,1853,澳门特别行政区,820002,花王堂区,科教文化服务,学校,学校,113.544774,22.200456,113.53965846716616,22.203386925862933
B0FFL9CGR8,卡隆文化教育中心(渡船街校),科教文化服务;培训机构;培训机构,141400,花王堂区渡船街101号EdificioHginNea卡隆文化教育中心地下A,19965668825,820000,澳门特别行政区,1853,澳门特别行政区,820002,花王堂区,科教文化服务,培训机构,培训机构,113.546981,22.199472,113.5418718284787,22.20240780328461
B073D0M7CQ,小跳豆音乐艺术中心,科教文化服务;培训机构;培训机构,141400,噶地利亚街与亚美打街交叉口西北20米,[],820000,澳门特别行政区,1853,澳门特别行政区,820002,花王堂区,科教文化服务,培训机构,培训机构,113.547712,22.197635,113.54260499740565,22.200571859239844
B0FFFXIUX0,游衍画廊,科教文化服务;科教文化场所;科教文化场所,140000,澳门特别行政区花王堂区果栏街39a天富大厦地下(近荣记豆腐面店),00853-66170981,820000,澳门特别行政区,1853,澳门特别行政区,820002,花王堂区,科教文化服务,科教文化场所,科教文化场所,113.544327,22.194546,113.5392105516802,22.197473790824723
B0FFI7HMMX,Flugent Art Gallery,科教文化服务;科教文化场所;科教文化场所,140000,花王堂街与圣方济各斜巷交叉口西北40米,00853-28723428,820000,澳门特别行政区,1853,澳门特别行政区,820002,花王堂区,科教文化服务,科教文化场所,科教文化场所,113.544955,22.194583,113.5398403660258,22.197512312653664
B073D00HNP,同善堂第二托儿所,科教文化服务;学校;幼儿园,141204,花王堂区田畔街51号五福大厦地下,00853-28311211,820000,澳门特别行政区,1853,澳门特别行政区,820002,花王堂区,科教文化服务,学校,幼儿园,113.547897,22.198512,113.5427904575576,22.201449590551096
B0FFGIFRMA,大众驾驶学校,科教文化服务;科教文化场所;科教文化场所,140000,大兴街100号佑明大厦地铺A-12(大兴街旁),[],820000,澳门特别行政区,1853,澳门特别行政区,820002,花王堂区,科教文化服务,科教文化场所,科教文化场所,113.546336,22.200177,113.541224958818,22.20311153825264
B073D00HMP,濠江中学附属幼稚园,科教文化服务;学校;幼儿园,141204,镜湖马路73-75号,00853-28350718,820000,澳门特别行政区,1853,澳门特别行政区,820002,花王堂区,科教文化服务,学校,幼儿园,113.548112,22.198173,113.54300607788394,22.20111096646224
B073D00IRH,圣玫瑰中学,科教文化服务;学校;中学,141202,大三巴街35号,[],820000,澳门特别行政区,1853,澳门特别行政区,820002,花王堂区,科教文化服务,学校,中学,113.5453,22.194386,113.54018637142708,22.19731606722176
B0JKKU8MO9,听泉艺术展览馆,科教文化服务;展览馆;展览馆,140200,皇子街1号1楼(彩虹屋),[],820000,澳门特别行政区,1853,澳门特别行政区,820002,花王堂区,科教文化服务,展览馆,展览馆,113.54257,22.194921,113.53744838046676,22.197844638238568
B0KKGG7T6R,乐报,科教文化服务;传媒机构;出版社,141105,渡船街与先鸡街交叉口东20米,00853-28319313,820000,澳门特别行政区,1853,澳门特别行政区,820002,花王堂区,科教文化服务,传媒机构,出版社,113.547566,22.199444,113.54245847325848,22.20238115097657
B073D00DP5,劳工子弟学校,科教文化服务;学校;中学,141202,大缆巷,00853-28372129,820000,澳门特别行政区,1853,澳门特别行政区,820002,花王堂区,科教文化服务,学校,中学,113.548374,22.199289,113.54326873380262,22.202227953898173
B073D0M4HO,澳门博物馆行政大楼,科教文化服务;科教文化场所;科教文化场所,140000,高园街10-A号附近,[],820000,澳门特别行政区,1853,澳门特别行政区,820002,花王堂区,科教文化服务,科教文化场所,科教文化场所,113.547281,22.194704,113.54217297785826,22.197638837165144
B073D00AS8,澳门博物馆,科教文化服务;博物馆;博物馆,140100,炮兵街13号,00853-28357911,820000,澳门特别行政区,1853,澳门特别行政区,820002,花王堂区,科教文化服务,博物馆,博物馆,113.547292,22.194192,113.5421840415391,22.197126682822347
B073D00G28,西饼朱古力甜品专卖店西饼烘焙兴趣班,科教文化服务;培训机构;培训机构,141400,嘉野度将军街13-A顺成楼,[],820000,澳门特别行政区,1853,澳门特别行政区,820002,花王堂区,科教文化服务,培训机构,培训机构,113.548458,22.198202,113.5433530361284,22.201140768073028
B0FFHQ05RO,教业托儿所,科教文化服务;学校;幼儿园,141204,船厂巷与林茂海边大马路交叉口东南40米,00853-28252558,820000,澳门特别行政区,1853,澳门特别行政区,820002,花王堂区,科教文化服务,学校,幼儿园,113.545482,22.201308,113.54036844996928,22.20424091067889
B073D00IWU,天主教艺术博物馆宝物室,科教文化服务;博物馆;博物馆,140100,大三巴巷与大三巴右街交叉口东20米,[],820000,澳门特别行政区,1853,澳门特别行政区,820002,花王堂区,科教文化服务,博物馆,博物馆,113.546092,22.193803,113.54098067355216,22.19673473938504
B0FFG9BZY5,骏昌驾驶学校,科教文化服务;科教文化场所;科教文化场所,140000,十月初五日街与草堆街交叉口东北20米,00853-28922671,820000,澳门特别行政区,1853,澳门特别行政区,820002,花王堂区,科教文化服务,科教文化场所,科教文化场所,113.543118,22.194142,113.537998045852,22.19706671067375
B073D00J8P,利玛窦中学,科教文化服务;学校;中学,141202,大三巴巷1-A,[],820000,澳门特别行政区,1853,澳门特别行政区,820002,花王堂区,科教文化服务,学校,中学,113.546396,22.193561,113.5412855530168,22.196493369526085
B0KKAPK6DC,澳门拾号泰佛,科教文化服务;科教文化场所;科教文化场所,140000,墨山街25号,00853-68848883,820000,澳门特别行政区,1853,澳门特别行政区,820002,花王堂区,科教文化服务,科教文化场所,科教文化场所,113.548888,22.198236,113.5437842215178,22.20117575811788
B0FFGMZIL6,金澳门3D美术馆,科教文化服务;美术馆;美术馆,140400,大三巴巷3-7号,[],820000,澳门特别行政区,1853,澳门特别行政区,820002,花王堂区,科教文化服务,美术馆,美术馆,113.546326,22.193756,113.54121534185018,22.19668827371218
B0FFHWRRNI,骏业教育中心II,科教文化服务;科教文化场所;科教文化场所,140000,俾利喇街与区华利街交叉口北20米,00853-66938839,820000,澳门特别行政区,1853,澳门特别行政区,820002,花王堂区,科教文化服务,科教文化场所,科教文化场所,113.548944,22.196635,113.54384047821436,22.19957432696784
B073D00DZZ,奇乐学童中心,科教文化服务;学校;幼儿园,141204,意那素俾苏亚街3号,00853-28365062,820000,澳门特别行政区,1853,澳门特别行政区,820002,花王堂区,科教文化服务,学校,幼儿园,113.548709,22.198928,113.54360468361084,22.20186759215092
B0KKGG4M72,儒林补习教育中心14,科教文化服务;学校;学校,141200,意那素俾苏亚街1-E号兴亚大厦地下,00853-28252611,820000,澳门特别行政区,1853,澳门特别行政区,820002,花王堂区,科教文化服务,学校,学校,113.548771,22.199044,113.54366684727464,22.201983773333023
B0KKGG7LN1,Future Art Professions Education Centre-未来艺术专业教育中心,科教文化服务;培训机构;培训机构,141400,炮兵街15-B号地铺B Edificio Ming Muen,00853-68877068,820000,澳门特别行政区,1853,澳门特别行政区,820002,花王堂区,科教文化服务,培训机构,培训机构,113.547891,22.194724,113.54278468341748,22.197660253472623
B073D00CKG,现代教育补习中心,科教文化服务;培训机构;培训机构,141400,俾利喇街与区华利街交叉口北20米,[],820000,澳门特别行政区,1853,澳门特别行政区,820002,花王堂区,科教文化服务,培训机构,培训机构,113.548993,22.196493,113.54388962213974,22.199432388349788
B0KKMP5IPO,宜家督课中心3,科教文化服务;培训机构;培训机构,141400,"墨山街21A号,Edificio Fu Tak,地下A座",00853-66874489,820000,澳门特别行政区,1853,澳门特别行政区,820002,花王堂区,科教文化服务,培训机构,培训机构,113.549144,22.198143,113.54404093150926,22.20108330524848
B0FFL6DBCF,儒林补习教育中心12,科教文化服务;培训机构;培训机构,141400,铜钱巷4-A号惠荣大厦地下,[],820000,澳门特别行政区,1853,澳门特别行政区,820002,花王堂区,科教文化服务,培训机构,培训机构,113.548279,22.20032,113.54317340429502,22.203259093877755
B073D00G03,妇联学校分教处,科教文化服务;培训机构;培训机构,141400,渡船街27澳门妇女联合总会综合服务大楼,[],820000,澳门特别行政区,1853,澳门特别行政区,820002,花王堂区,科教文化服务,培训机构,培训机构,113.548785,22.199544,113.54368085387571,22.20248397858486
B0KKMP789O,澳门妇联青年协会,科教文化服务;科教文化场所;科教文化场所,140000,"Rua da Barca,No.27 A-B,4 Andar,Macau,澳门",00853-28217266,820000,澳门特别行政区,1853,澳门特别行政区,820002,花王堂区,科教文化服务,科教文化场所,科教文化场所,113.548837,22.199539,113.5437329975672,22.202479094911464
B073D00JD5,明明音乐艺术学院,科教文化服务;培训机构;培训机构,141400,炮兵街11号,[],820000,澳门特别行政区,1853,澳门特别行政区,820002,花王堂区,科教文化服务,培训机构,培训机构,113.548091,22.194562,113.54298525071766,22.19749865603399
B0FFHWPQUX,妇联教育培训中心,科教文化服务;培训机构;培训机构,141400,渡船街与义字街交叉口西北20米,00853-28217180,820000,澳门特别行政区,1853,澳门特别行政区,820002,花王堂区,科教文化服务,培训机构,培训机构,113.548843,22.199543,113.543739013848,22.20248310991474
B0I255DL09,井井三一绘本书屋,科教文化服务;科教文化场所;科教文化场所,140000,亚丰素街31号C-D阁楼,[],820000,澳门特别行政区,1853,澳门特别行政区,820002,花王堂区,科教文化服务,科教文化场所,科教文化场所,113.549645,22.197097,113.54454336980432,22.20003806857459
B0FFLAMJ3M,联合智能教育中心,科教文化服务;培训机构;培训机构,141400,罅些喇提督大马路与罅些喇海军上将巷交叉口西40米,00853-28258761,820000,澳门特别行政区,1853,澳门特别行政区,820002,花王堂区,科教文化服务,培训机构,培训机构,113.547355,22.201082,113.54224677702834,22.20401922942684
B073D00G2M,校车接送督课中心,科教文化服务;培训机构;培训机构,141400,花王堂区俾利喇街6-G,[],820000,澳门特别行政区,1853,澳门特别行政区,820002,花王堂区,科教文化服务,培训机构,培训机构,113.549335,22.19654,113.54423255794366,22.199480177254248
B073D0M7FJ,妇联第二托儿所,科教文化服务;学校;幼儿园,141204,林茂海边大马路405号,[],820000,澳门特别行政区,1853,澳门特别行政区,820002,花王堂区,科教文化服务,学校,幼儿园,113.54661,22.20167,113.54149963985812,22.204605696707308
B0HKGAED8N,澳门东亚出版社有限公司,科教文化服务;传媒机构;出版社,141105,草堆街69号地下铺3层,[],820000,澳门特别行政区,1853,澳门特别行政区,820004,大堂区,科教文化服务,传媒机构,出版社,113.54466,22.193081,113.539544610447,22.19600907690287
B073D0M36C,东南学校小幼部,科教文化服务;学校;幼儿园,141204,贾伯乐提督街138号,00853-28362077,820000,澳门特别行政区,1853,澳门特别行政区,820002,花王堂区,科教文化服务,学校,幼儿园,113.549318,22.196038,113.54421554350522,22.198977963432725
B073D0M35C,悦数坊数学补习中心,科教文化服务;培训机构;培训机构,141400,光华阁,[],820000,澳门特别行政区,1853,澳门特别行政区,820002,花王堂区,科教文化服务,培训机构,培训机构,113.549425,22.196841,113.54432278506832,22.19978148502308
B0LA9RZ9CO,Instituto Internacional para Tecnologia de Programação da Universidade das Nações Unidas,科教文化服务;学校;高等院校,141201,贾伯乐提督街与区华利街交叉口西40米,[],820000,澳门特别行政区,1853,澳门特别行政区,820002,花王堂区,科教文化服务,学校,高等院校,113.548996,22.19582,113.54389267347568,22.19875915975999
B0FFLAL8PQ,儒林补习教育中心8,科教文化服务;培训机构;培训机构,141400,"亚丰素雅布基街40-A号,Edificio Chun Fong,儒林补习教育中心8地下A座",[],820000,澳门特别行政区,1853,澳门特别行政区,820002,花王堂区,科教文化服务,培训机构,培训机构,113.549471,22.197514,113.54436886781636,22.20045482325052
B0LBAZCFK4,Zen Vibes禅园,科教文化服务;培训机构;培训机构,141400,"135号Rde Cinco de Outubro,Macao",00853-66810706,820000,澳门特别行政区,1853,澳门特别行政区,820004,大堂区,科教文化服务,培训机构,培训机构,113.542705,22.193468,113.537583872466,22.196391459882754
B0FFHD28GB,澳门天然水晶博物馆,科教文化服务;科教文化场所;科教文化场所,140000,LAPC澳门草堆街89-89B铺,00853-28723656,820000,澳门特别行政区,1853,澳门特别行政区,820002,花王堂区,科教文化服务,科教文化场所,科教文化场所,113.545117,22.192929,113.54000293867584,22.195858117850896
B0FFI7M74M,风艺馆,科教文化服务;科教文化场所;科教文化场所,140000,区华利街与俾利喇街交叉口东40米,00853-28969074,820000,澳门特别行政区,1853,澳门特别行政区,820002,花王堂区,科教文化服务,科教文化场所,科教文化场所,113.549374,22.196325,113.54427167850947,22.19926518995477
B073D00G2Z,母佑会陈瑞祺永援中学(分校),科教文化服务;学校;中学,141202,消防队巷9-g号附近,00853-28373429,820000,澳门特别行政区,1853,澳门特别行政区,820002,花王堂区,科教文化服务,学校,中学,113.549758,22.196578,113.5446567111329,22.199519140585966
B073D00GZT,小博士学童服务天地,科教文化服务;学校;幼儿园,141204,惠爱街93-BA,[],820000,澳门特别行政区,1853,澳门特别行政区,820002,花王堂区,科教文化服务,学校,幼儿园,113.548645,22.200385,113.5435404135686,22.20332495151853
B073D00DOB,劳工子弟学校幼稚园,科教文化服务;学校;幼儿园,141204,花王堂区罅些喇海军上将巷584号,[],820000,澳门特别行政区,1853,澳门特别行政区,820002,花王堂区,科教文化服务,学校,幼儿园,113.547352,22.20191,113.54224371556543,22.20484750804044
B073D00H66,圣家学校,科教文化服务;学校;小学,141203,花王堂区罗白沙街15号,00853-28574124,820000,澳门特别行政区,1853,澳门特别行政区,820002,花王堂区,科教文化服务,学校,小学,113.549197,22.200167,113.5440939474115,22.203108127334566
B073D00H7E,濠江中学附属小学,科教文化服务;学校;小学,141203,亚丰素雅布基街25-27号,00853-28361279,820000,澳门特别行政区,1853,澳门特别行政区,820002,花王堂区,科教文化服务,学校,小学,113.550021,22.196676,113.5449204202595,22.199617762497294
B0KKGG2H53,致花艺术教育中心,科教文化服务;培训机构;培训机构,141400,镜湖马路9号小筑地下A镜盈,00853-68276162,820000,澳门特别行政区,1853,澳门特别行政区,820002,花王堂区,科教文化服务,培训机构,培训机构,113.548608,22.194509,113.54350368755178,22.19744681903756
B0FFLI4VWN,圣家学校分教处,科教文化服务;科教文化场所;科教文化场所,140000,塘巷52至54号,[],820000,澳门特别行政区,1853,澳门特别行政区,820002,花王堂区,科教文化服务,科教文化场所,科教文化场所,113.548906,22.200395,113.5438021328603,22.2033355478524
B073D0M4RS,澳门琴行,科教文化服务;培训机构;培训机构,141400,花王堂区亚利鸦架街70号,00853-28369883;00853-28369888,820000,澳门特别行政区,1853,澳门特别行政区,820002,花王堂区,科教文化服务,培训机构,培训机构,113.549874,22.197665,113.54477295739532,22.20060677930536
B073D0M491,仁慈堂婆仔屋,科教文化服务;展览馆;展览馆,140200,疯堂斜巷,[],820000,澳门特别行政区,1853,澳门特别行政区,820003,望德堂区,科教文化服务,展览馆,展览馆,113.54936,22.194566,113.54425775276523,22.1975055420864
B073D0M48J,好学生园地,科教文化服务;培训机构;培训机构,141400,贾伯乐提督街与消防队巷交叉口西20米,00853-28365613,820000,澳门特别行政区,1853,澳门特别行政区,820002,花王堂区,科教文化服务,培训机构,培训机构,113.549674,22.196185,113.54457250729077,22.19912581502592
B073D00FRV,新阳光学生督课中心,科教文化服务;培训机构;培训机构,141400,贾伯乐提督街132-A,[],820000,澳门特别行政区,1853,澳门特别行政区,820002,花王堂区,科教文化服务,培训机构,培训机构,113.549856,22.196314,113.54475499488264,22.19925526757471
B0FFHWQOQ7,今天音乐培训中心,科教文化服务;培训机构;培训机构,141400,美珊枝街与新胜街交叉口西南40米,[],820000,澳门特别行政区,1853,澳门特别行政区,820003,望德堂区,科教文化服务,培训机构,培训机构,113.549325,22.194966,113.5442226313001,22.19790560364057
B073D00CEK,才浚学童服务督课中心,科教文化服务;培训机构;培训机构,141400,贾伯乐提督街与消防队巷交叉口东北40米,00853-28368067,820000,澳门特别行政区,1853,澳门特别行政区,820002,花王堂区,科教文化服务,培训机构,培训机构,113.550026,22.196451,113.54492544823631,22.199392695036305
B0FFL4CJCK,疯枝谷创意空间LVCS,科教文化服务;科教文化场所;科教文化场所,140000,美珊枝街Irene Court,[],820000,澳门特别行政区,1853,澳门特别行政区,820003,望德堂区,科教文化服务,科教文化场所,科教文化场所,113.549072,22.194646,113.54396895758804,22.19758492016355
B073D0M373,新上进补习中心,科教文化服务;培训机构;培训机构,141400,贾伯乐提督街30-A,00853-28352847,820000,澳门特别行政区,1853,澳门特别行政区,820002,花王堂区,科教文化服务,培训机构,培训机构,113.550203,22.19696,113.54510289574948,22.19990226697644
B0HRVRYL64,Escola Hou Kong(primaria),科教文化服务;科教文化场所;科教文化场所,140000,亚丰素雅布基街与贾伯乐提督街交叉口西40米,00853-28361279,820000,澳门特别行政区,1853,澳门特别行政区,820002,花王堂区,科教文化服务,科教文化场所,科教文化场所,113.550108,22.196723,113.54500765337748,22.199664972803586
B0KKMP6LAN,The Affiliated Kindergarten of Lou Hau High School,科教文化服务;学校;幼儿园,141204,林茂海边大马路588号,00853-28301461,820000,澳门特别行政区,1853,澳门特别行政区,820002,花王堂区,科教文化服务,学校,幼儿园,113.547459,22.202043,113.5423510070977,22.20498080167591
B073D0M72J,小天使托儿中心,科教文化服务;学校;幼儿园,141204,侨乐巷与沙嘉都喇贾罢丽街交叉口北40米,00853-28530072,820000,澳门特别行政区,1853,澳门特别行政区,820002,花王堂区,科教文化服务,学校,幼儿园,113.550551,22.197566,113.54545179769512,22.2005092502104
B0LAYUXEJR,Mel Creative and Art,科教文化服务;培训机构;培训机构,141400,水井斜巷与疯堂中斜巷交叉口西40米,00853-66577732,820000,澳门特别行政区,1853,澳门特别行政区,820003,望德堂区,科教文化服务,培训机构,培训机构,113.548988,22.193883,113.54388477546338,22.19682146189706
B0KKGG58S2,澳门万国儿童布道团,科教文化服务;科教文化场所;科教文化场所,140000,"连安后巷2号,Edificio Chun Yuen,启明楼",00853-28353263,820000,澳门特别行政区,1853,澳门特别行政区,820004,大堂区,科教文化服务,科教文化场所,科教文化场所,113.54774,22.19279,113.54263338590228,22.19572522513534
B0FFJOIEFK,天主教艺术博物馆与墓室,科教文化服务;科教文化场所;科教文化场所,140000,高园街与大三巴斜巷交叉口西40米,00853-28387333,820000,澳门特别行政区,1853,澳门特别行政区,820002,花王堂区,科教文化服务,科教文化场所,科教文化场所,113.545822,22.194999,113.54070982708612,22.19793052183815
B073D00FS6,澳门消防局博物馆,科教文化服务;博物馆;博物馆,140100,澳门特别行政区花王堂区连胜马路2-6号消防局指挥大楼,00853-28572222,820000,澳门特别行政区,1853,澳门特别行政区,820002,花王堂区,科教文化服务,博物馆,博物馆,113.548589,22.197169,113.54348446472596,22.20010770686839
B073D00FFI,培群学舍,科教文化服务;培训机构;培训机构,141400,连胜马路107-A号,00853-28384798;00853-28570606,820000,澳门特别行政区,1853,澳门特别行政区,820002,花王堂区,科教文化服务,培训机构,培训机构,113.549999,22.200154,113.54489813791014,22.203096922730584
B073D0M6IH,大疯堂艺舍,科教文化服务;展览馆;展览馆,140200,疯堂新街45号(澳门疯堂斜巷7号地下),[],820000,澳门特别行政区,1853,澳门特别行政区,820003,望德堂区,科教文化服务,展览馆,展览馆,113.549921,22.193961,113.54482032227524,22.196901587695503
B0FFHWQRPH,论尽媒体,科教文化服务;科教文化场所;科教文化场所,140000,圣禄杞街与疯堂中斜巷交叉口北20米,00853-62875685,820000,澳门特别行政区,1853,澳门特别行政区,820003,望德堂区,科教文化服务,科教文化场所,科教文化场所,113.54952,22.193944,113.54441823026778,22.19688368340361
B073D00GBI,圣若瑟教区中学(疯堂斜巷),科教文化服务;学校;中学,141202,天神巷43号,00853-28322985,820000,澳门特别行政区,1853,澳门特别行政区,820003,望德堂区,科教文化服务,学校,中学,113.550345,22.194518,113.54524543637632,22.19745972742994
B0H3DCUG3H,圣若瑟教区中学一校小幼部,科教文化服务;学校;幼儿园,141204,圣澳门圣母堂前地13号,[],820000,澳门特别行政区,1853,澳门特别行政区,820003,望德堂区,科教文化服务,学校,幼儿园,113.550093,22.19423,113.5449927722186,22.19717106593588
B0FFI7KEHR,INYMAKEUP WORKSHOP,科教文化服务;科教文化场所;科教文化场所,140000,连胜马路与罗白沙街交叉口东60米,00853-62655448,820000,澳门特别行政区,1853,澳门特别行政区,820002,花王堂区,科教文化服务,科教文化场所,科教文化场所,113.550417,22.200073,113.5453172755283,22.20301682423604
B073D00GX2,学恒督课中心,科教文化服务;培训机构;培训机构,141400,亚丰素雅布基街与罗德礼将军街交叉口北20米,[],820000,澳门特别行政区,1853,澳门特别行政区,820003,望德堂区,科教文化服务,培训机构,培训机构,113.550955,22.196451,113.54585695582448,22.199394752046963
B0FFIGUO1I,柏思汽车驾驶学校有限公司,科教文化服务;科教文化场所;科教文化场所,140000,连胜马路与飞能便度街交叉口西南20米,00853-28523132,820000,澳门特别行政区,1853,澳门特别行政区,820002,花王堂区,科教文化服务,科教文化场所,科教文化场所,113.550095,22.200704,113.54499436332532,22.203647326960464
B073D0M6IG,澳门演艺学院音乐学校,科教文化服务;学校;职业技术学校,141206,和隆街35号,00853-28352766,820000,澳门特别行政区,1853,澳门特别行政区,820003,望德堂区,科教文化服务,学校,职业技术学校,113.550222,22.194064,113.54512213253504,22.197005294666607
B073D00G1K,上进学生服务中心,科教文化服务;培训机构;培训机构,141400,疯堂新街37号,[],820000,澳门特别行政区,1853,澳门特别行政区,820003,望德堂区,科教文化服务,培训机构,培训机构,113.549771,22.193687,113.54466993157052,22.19662715589159
B073D00G1J,天天学童服务中心,科教文化服务;培训机构;培训机构,141400,疯堂新街31-B,00853-28352568,820000,澳门特别行政区,1853,澳门特别行政区,820003,望德堂区,科教文化服务,培训机构,培训机构,113.549717,22.193627,113.54461578825422,22.196567013844067
B0FFI7B9HJ,宏达进修教育中心,科教文化服务;学校;成人教育,141205,贾伯乐提督街与侨乐新街交叉口北20米,00853-28569002,820000,澳门特别行政区,1853,澳门特别行政区,820002,花王堂区,科教文化服务,学校,成人教育,113.551271,22.197471,113.5461737366271,22.20041580104396
B073D00KCC,思维督课中心,科教文化服务;培训机构;培训机构,141400,疯堂新街与水井斜巷交叉口东北40米,[],820000,澳门特别行政区,1853,澳门特别行政区,820003,望德堂区,科教文化服务,培训机构,培训机构,113.549466,22.19329,113.54436412450178,22.196229331791223
B073D00CEF,星海音乐培训中心,科教文化服务;培训机构;培训机构,141400,澳门花王堂区美的路主教街27A-27B号添美大厦地下A铺,00853-28550815,820000,澳门特别行政区,1853,澳门特别行政区,820003,望德堂区,科教文化服务,培训机构,培训机构,113.551586,22.197209,113.54648959325112,22.200154397079647
B073D00DDM,学勤补习进修教育中心,科教文化服务;学校;成人教育,141205,高士德大马路91号高士德商业中心3层E,[],820000,澳门特别行政区,1853,澳门特别行政区,820002,花王堂区,科教文化服务,学校,成人教育,113.550026,22.201482,113.54492512624,22.204425441783886
B073D00DDR,学勤办事处,科教文化服务;培训机构;培训机构,141400,高士德大马路91号高士德商业中心5层F,[],820000,澳门特别行政区,1853,澳门特别行政区,820002,花王堂区,科教文化服务,培训机构,培训机构,113.550026,22.201482,113.54492512624,22.204425441783886
B073D00G13,精苗补习社,科教文化服务;培训机构;培训机构,141400,疯堂新街8-A,00853-28352511,820000,澳门特别行政区,1853,澳门特别行政区,820003,望德堂区,科教文化服务,培训机构,培训机构,113.549565,22.193145,113.54446340434532,22.19608450315044
B073D00EKA,澳门中央图书馆,科教文化服务;图书馆;图书馆,140500,荷兰园马路89-B,[],820000,澳门特别行政区,1853,澳门特别行政区,820003,望德堂区,科教文化服务,图书馆,图书馆,113.551854,22.195556,113.5467584107459,22.198501401414006
B073D00E8Q,朝阳督课中心,科教文化服务;培训机构;培训机构,141400,高地乌街24-B,[],820000,澳门特别行政区,1853,澳门特别行政区,820002,花王堂区,科教文化服务,培训机构,培训机构,113.55148,22.198371,113.54638323669072,22.2013165708377
B0HD2MB9UP,长春藤教育中心,科教文化服务;科教文化场所;科教文化场所,140000,高士德大马路与卢九街交叉口西40米,00853-62221767,820000,澳门特别行政区,1853,澳门特别行政区,820002,花王堂区,科教文化服务,科教文化场所,科教文化场所,113.550013,22.20158,113.5449120846624,22.204523446587576
B073D00DDL,紫罗兰舞蹈团,科教文化服务;文艺团体;文艺团体,141000,高士德大马路91号高士德商业中心3层B,[],820000,澳门特别行政区,1853,澳门特别行政区,820002,花王堂区,科教文化服务,文艺团体,文艺团体,113.550026,22.201482,113.54492512624,22.204425441783886
B0FFF6LBLP,早稻田专业教育中心,科教文化服务;培训机构;培训机构,141400,高士德大马路与卢九街交叉口西40米,[],820000,澳门特别行政区,1853,澳门特别行政区,820002,花王堂区,科教文化服务,培训机构,培训机构,113.550076,22.201573,113.5449752561481,22.204516584619903
B073D00EUA,幸福小儿中心,科教文化服务;学校;幼儿园,141204,高士德大马路69号嘉丽大厦3层A、B,[],820000,澳门特别行政区,1853,澳门特别行政区,820002,花王堂区,科教文化服务,学校,幼儿园,113.550782,22.20063,113.54568322374833,22.203574823766232
B0FFI7HKAO,公文式,科教文化服务;科教文化场所;科教文化场所,140000,和隆街与若翰亚美打街交叉口东北60米,00853-28561249,820000,澳门特别行政区,1853,澳门特别行政区,820003,望德堂区,科教文化服务,科教文化场所,科教文化场所,113.550881,22.194303,113.54578289461016,22.19724583649717
B0FFHWQHYA,澳宣培训中心,科教文化服务;培训机构;培训机构,141400,高士德大马路与亚利鸦架街交叉口西40米,00853-28590474,820000,澳门特别行政区,1853,澳门特别行政区,820002,花王堂区,科教文化服务,培训机构,培训机构,113.551084,22.200562,113.54598603861253,22.20350746440912
B0JRXA5DCD,英汇教育中心,科教文化服务;培训机构;培训机构,141400,美的路主教街26-C地下B,[],820000,澳门特别行政区,1853,澳门特别行政区,820003,望德堂区,科教文化服务,培训机构,培训机构,113.551935,22.197199,113.54683952028098,22.20014515117565
B0KKMPZJU3,澳门街坊会联合总会中区办事处,科教文化服务;科教文化场所;科教文化场所,140000,"高士德大马路47号,Edificio Fong Seng",00853-28528137,820000,澳门特别行政区,1853,澳门特别行政区,820002,花王堂区,科教文化服务,科教文化场所,科教文化场所,113.551554,22.200154,113.546457319699,22.203100350666784
B073D00GC4,创思学业辅导中心,科教文化服务;培训机构;培训机构,141400,亚丰素雅布基街与塔石街交叉口西北20米,[],820000,澳门特别行政区,1853,澳门特别行政区,820003,望德堂区,科教文化服务,培训机构,培训机构,113.551757,22.1959,113.54666113142456,22.198845311450874
B073D00DYD,学勤进修教育中心补习社(飞能便度街),科教文化服务;培训机构;培训机构,141400,飞能便度街39-B,[],820000,澳门特别行政区,1853,澳门特别行政区,820002,花王堂区,科教文化服务,培训机构,培训机构,113.5518,22.198904,113.546704053392,22.20185045202004
B073D00E8M,MELODY学童服务中心,科教文化服务;培训机构;培训机构,141400,罗利老马路与贾伯乐提督巷交叉口北20米,00853-28529312,820000,澳门特别行政区,1853,澳门特别行政区,820003,望德堂区,科教文化服务,培训机构,培训机构,113.552032,22.197678,113.54693674634991,22.20062452796009
B0FFI7DP9Z,全能宝宝托儿所,科教文化服务;学校;幼儿园,141204,沙嘉都喇贾罢丽街与塔石街交叉口北20米,00853-62338978,820000,澳门特别行政区,1853,澳门特别行政区,820003,望德堂区,科教文化服务,学校,幼儿园,113.552095,22.196331,113.54699999904405,22.199277193976457
B0HRAUKJ5G,Lok Fong Piano Co.,科教文化服务;科教文化场所;科教文化场所,140000,"乐风琴行AveHorta E Costa 94,EdifHong Lok Chun R/C-F,Macau,澳门",00853-28217188,820000,澳门特别行政区,1853,澳门特别行政区,820002,花王堂区,科教文化服务,科教文化场所,科教文化场所,113.550901,22.201237,113.5458025046645,22.20418229549788
B073D00EK8,塔石艺文馆,科教文化服务;博物馆;博物馆,140100,肥利喇亚美打大马路95号C-D,00853-28366866;00853-28366899,820000,澳门特别行政区,1853,澳门特别行政区,820003,望德堂区,科教文化服务,博物馆,博物馆,113.552257,22.195981,113.5471624490284,22.198927420885614
B0FFHCT6ZO,饶宗颐学艺馆,科教文化服务;科教文化场所;科教文化场所,140000,肥利喇亚美打大马路95号C-D座,00853-28522523,820000,澳门特别行政区,1853,澳门特别行政区,820003,望德堂区,科教文化服务,科教文化场所,科教文化场所,113.552448,22.196357,113.5473539279176,22.19930396306492
B0JRXA5L2D,英汇教学辅助中心II,科教文化服务;科教文化场所;科教文化场所,140000,望德堂区贾伯乐提督街7号,[],820000,澳门特别行政区,1853,澳门特别行政区,820003,望德堂区,科教文化服务,科教文化场所,科教文化场所,113.552164,22.19791,113.54706908030164,22.200856893748
B0JGRC5R5M,澳门文学馆,科教文化服务;博物馆;博物馆,140100,肥利喇亚美打大马路与沙嘉都喇贾罢丽街交叉口北20米,[],820000,澳门特别行政区,1853,澳门特别行政区,820003,望德堂区,科教文化服务,博物馆,博物馆,113.552409,22.19613,113.5473148398471,22.19907679993772
B073D0M46T,青少年展艺馆,科教文化服务;展览馆;展览馆,140200,高伟乐街,00853-28562801,820000,澳门特别行政区,1853,澳门特别行政区,820003,望德堂区,科教文化服务,展览馆,展览馆,113.551889,22.194631,113.54679356266912,22.19757615285044
B073D00E91,乐培督课中心,科教文化服务;培训机构;培训机构,141400,飞能便度街与高地乌街交叉口北20米,[],820000,澳门特别行政区,1853,澳门特别行政区,820002,花王堂区,科教文化服务,培训机构,培训机构,113.552032,22.198851,113.5469366713248,22.20179793597305
B0FFI7HKRJ,城市指南(中央图书馆),科教文化服务;图书馆;图书馆,140500,亚丰素雅布基街与塔石街交叉口东南20米,[],820000,澳门特别行政区,1853,澳门特别行政区,820003,望德堂区,科教文化服务,图书馆,图书馆,113.551882,22.195616,113.54678648112368,22.19856148310608
B073D0M6WP,至善督课中心,科教文化服务;培训机构;培训机构,141400,望德堂区贾伯乐提督巷5号,00853-28526266,820000,澳门特别行政区,1853,澳门特别行政区,820003,望德堂区,科教文化服务,培训机构,培训机构,113.55225,22.197768,113.54715531628858,22.200715029649384
B0KAFUHJY0,MathConcept 数学思维中学教室,科教文化服务;科教文化场所;科教文化场所,140000,若翰亚美打街10号东辉阁地下B座(近华士古达嘉马花园),[],820000,澳门特别行政区,1853,澳门特别行政区,820003,望德堂区,科教文化服务,科教文化场所,科教文化场所,113.551,22.193376,113.54590227323848,22.196318772017893
B073D00FST,拔萃督课补习社,科教文化服务;培训机构;培训机构,141400,亚卑寮奴你士街6-C,[],820000,澳门特别行政区,1853,澳门特别行政区,820003,望德堂区,科教文化服务,培训机构,培训机构,113.55118,22.193722,113.54608273317118,22.196665288729864
B0FFI7G0KH,全民教育中心,科教文化服务;科教文化场所;科教文化场所,140000,亚卑寮奴你士街与若翰亚美打街交叉口东北40米,00853-28523247,820000,澳门特别行政区,1853,澳门特别行政区,820003,望德堂区,科教文化服务,科教文化场所,科教文化场所,113.551194,22.193648,113.54609677535072,22.19659129335066
B0HDFHHTW2,澳门财经专业进修中心,科教文化服务;科教文化场所;科教文化场所,140000,亚卑寮奴你士街与若翰亚美打街交叉口东北40米,00853-28564499,820000,澳门特别行政区,1853,澳门特别行政区,820003,望德堂区,科教文化服务,科教文化场所,科教文化场所,113.551194,22.193648,113.54609677535072,22.19659129335066
B0FFI7GOGL,播道成人教育中心,科教文化服务;学校;成人教育,141205,亚卑寮奴你士街与若翰亚美打街交叉口东北40米,00853-28530983,820000,澳门特别行政区,1853,澳门特别行政区,820003,望德堂区,科教文化服务,学校,成人教育,113.551185,22.193647,113.54608775134302,22.196590273285
B0FFI7MFPT,天朗补习中心,科教文化服务;科教文化场所;科教文化场所,140000,罅些喇提督市北街与罅些喇提督市东街交叉口东南40米,00853-66887714,820000,澳门特别行政区,1853,澳门特别行政区,820002,花王堂区,科教文化服务,科教文化场所,科教文化场所,113.550706,22.202191,113.54560691937778,22.205136194624973
B073D00EMK,塔石体育馆展览厅,科教文化服务;展览馆;展览馆,140200,东望洋街,[],820000,澳门特别行政区,1853,澳门特别行政区,820003,望德堂区,科教文化服务,展览馆,展览馆,113.551641,22.193643,113.54654496761744,22.196587267198407
B0FFK3QHN1,创意音乐艺术培训中心,科教文化服务;培训机构;培训机构,141400,澳门半岛贾伯乐街56号,[],820000,澳门特别行政区,1853,澳门特别行政区,820002,花王堂区,科教文化服务,培训机构,培训机构,113.552506,22.198614,113.54741193604865,22.201561874185067
B0FFI7ATV2,定期出版组,科教文化服务;科教文化场所;科教文化场所,140000,荷兰园正街与亚丰素雅布基街交叉口南40米,00853-83996311,820000,澳门特别行政区,1853,澳门特别行政区,820003,望德堂区,科教文化服务,科教文化场所,科教文化场所,113.552195,22.195212,113.54710033466804,22.19815801795736
B0FFLF9D5P,家宝教学辅助中心,科教文化服务;培训机构;培训机构,141400,贾伯乐提督街与飞能便度街交叉口东南40米,00853-28527878,820000,澳门特别行政区,1853,澳门特别行政区,820003,望德堂区,科教文化服务,培训机构,培训机构,113.552667,22.197964,113.54757340020107,22.200911992960883
B0FFI7KB7W,葡语国家食品展示中心,科教文化服务;科教文化场所;科教文化场所,140000,塔石广场商业中心R1单位,[],820000,澳门特别行政区,1853,澳门特别行政区,820003,望德堂区,科教文化服务,科教文化场所,科教文化场所,113.55257,22.195755,113.54747628696911,22.198702014112204
B073D00EK7,澳门利氏学社,科教文化服务;培训机构;培训机构,141400,肥利喇亚美打大马路95号澳门利氏学社e,00853-28532536,820000,澳门特别行政区,1853,澳门特别行政区,820003,望德堂区,科教文化服务,培训机构,培训机构,113.552689,22.196595,113.5475955454127,22.199542562600342
B0FFIGRNA0,澳门中华福音使命团,科教文化服务;科教文化场所;科教文化场所,140000,东望洋斜巷与东望洋街交叉口东南20米,00853-66486178,820000,澳门特别行政区,1853,澳门特别行政区,820003,望德堂区,科教文化服务,科教文化场所,科教文化场所,113.551114,22.19291,113.5460166084873,22.19585285799542
B073D00HTD,何东中葡小学,科教文化服务;学校;小学,141203,得胜马路6号德胜楼,00853-28573035;00853-28587233,820000,澳门特别行政区,1853,澳门特别行政区,820003,望德堂区,科教文化服务,学校,小学,113.552289,22.194044,113.54719465724654,22.196989810318403
B073D00G8F,卓越补习中心(1),科教文化服务;培训机构;培训机构,141400,罗神父街23-A,[],820000,澳门特别行政区,1853,澳门特别行政区,820002,花王堂区,科教文化服务,培训机构,培训机构,113.551966,22.201012,113.546870358465,22.203959541640387
B073D00EEM,海事博物馆,科教文化服务;博物馆;博物馆,140100,妈阁庙前地1号,00853-28595481;00853-28595483,820000,澳门特别行政区,1853,澳门特别行政区,820005,风顺堂区,科教文化服务,博物馆,博物馆,113.535783,22.183039,113.53064143286667,22.185941045245773
B0FFI5UK9W,Dare to Dream Art Gallery,科教文化服务;科教文化场所;科教文化场所,140000,咸鱼街与高楼街交叉口西南20米,00853-28962820,820000,澳门特别行政区,1853,澳门特别行政区,820005,风顺堂区,科教文化服务,科教文化场所,科教文化场所,113.536527,22.183995,113.53138770167276,22.186899352475432
B0JGR72RQ6,海事工房,科教文化服务;展览馆;展览馆,140200,妈阁上街与生雪巷交叉口北40米,[],820000,澳门特别行政区,1853,澳门特别行政区,820005,风顺堂区,科教文化服务,展览馆,展览馆,113.536448,22.181698,113.53130860250415,22.18460131432186
B073D00H05,航海学校,科教文化服务;学校;学校,141200,航海学校街与河边新街交叉口西40米,00853-28563499;00853-28588866,820000,澳门特别行政区,1853,澳门特别行政区,820005,风顺堂区,科教文化服务,学校,学校,113.535924,22.184648,113.53078277213294,22.187550998486728
B073D00DIH,主教山儿童中心,科教文化服务;培训机构;培训机构,141400,鲍公马路22号,[],820000,澳门特别行政区,1853,澳门特别行政区,820005,风顺堂区,科教文化服务,培训机构,培训机构,113.538269,22.183373,113.53313514216084,22.186281667537965
B073D00E4C,圣玛沙利罗学校慈惠托儿所,科教文化服务;学校;幼儿园,141204,下环街no105号,00853-28968281,820000,澳门特别行政区,1853,澳门特别行政区,820005,风顺堂区,科教文化服务,学校,幼儿园,113.537327,22.185383,113.53219010246605,22.1882899464505
B073D00EDG,圣玛沙利罗学校,科教文化服务;学校;小学,141203,下环街103号,00853-28345168;00853-28372802,820000,澳门特别行政区,1853,澳门特别行政区,820005,风顺堂区,科教文化服务,学校,小学,113.537546,22.185448,113.53240977704124,22.18835554030112
B0HRV7TOLB,MMM Workshop/Juju Studio,科教文化服务;科教文化场所;科教文化场所,140000,"澳门妈阁街47-49号,Edificio Song Pou",[],820000,澳门特别行政区,1853,澳门特别行政区,820005,风顺堂区,科教文化服务,科教文化场所,科教文化场所,113.538389,22.184916,113.5332554121574,22.187825533473923
B0FFIGPJRF,新福利驾驶学校有限公司,科教文化服务;科教文化场所;科教文化场所,140000,澳门妈阁街38号中山新村3楼D座,00853-28220322,820000,澳门特别行政区,1853,澳门特别行政区,820005,风顺堂区,科教文化服务,科教文化场所,科教文化场所,113.538201,22.185055,113.53306682481964,22.18796409791856
B073D00FB1,勤学补习社,科教文化服务;培训机构;培训机构,141400,下环街与沙井地巷交叉口西北20米,00853-28975032,820000,澳门特别行政区,1853,澳门特别行政区,820005,风顺堂区,科教文化服务,培训机构,培训机构,113.537741,22.185627,113.53260536885504,22.188535111534968
B0FFHD2HHX,范迪师教育中心,科教文化服务;科教文化场所;科教文化场所,140000,沙井天巷与河边新街交叉口东南20米,00853-66836714,820000,澳门特别行政区,1853,澳门特别行政区,820005,风顺堂区,科教文化服务,科教文化场所,科教文化场所,113.538039,22.186518,113.5329042316776,22.18942720396719
B0FFGK7IIM,现代(澳门)驾驶学校有限公司,科教文化服务;驾校;驾校,141500,下环街52-a号,00853-28968618,820000,澳门特别行政区,1853,澳门特别行政区,820005,风顺堂区,科教文化服务,驾校,驾校,113.539151,22.186207,113.53401966393416,22.1891189556291
B073D00F0N,下还浸会学校,科教文化服务;学校;小学,141203,下环街nos.46-48号,00853-28572396,820000,澳门特别行政区,1853,澳门特别行政区,820005,风顺堂区,科教文化服务,学校,小学,113.539304,22.186326,113.53417312316635,22.189238389661888
B073D00DS9,澳门天主教海星中学,科教文化服务;学校;中学,141202,高楼街36号,00853-28973839;00853-28976464,820000,澳门特别行政区,1853,澳门特别行政区,820005,风顺堂区,科教文化服务,学校,中学,113.540197,22.186264,113.5350688391899,22.189178639005043
B0KK54FNC1,雅弦音乐教育中心2,科教文化服务;培训机构;培训机构,141400,河边新街166号,[],820000,澳门特别行政区,1853,澳门特别行政区,820005,风顺堂区,科教文化服务,培训机构,培训机构,113.538311,22.187046,113.53317703549534,22.18995609640399
B0LBAZ55T3,Armelle de Lainsecq,科教文化服务;培训机构;培训机构,141400,"66 Rdo Lilau,Macao",[],820000,澳门特别行政区,1853,澳门特别行政区,820005,风顺堂区,科教文化服务,培训机构,培训机构,113.540575,22.185042,113.53544805887512,22.187957155139586
B0KRO5SKMI,国际(澳门)学术研究院,科教文化服务;科研机构;科研机构,141300,东望洋新街229号,[],820000,澳门特别行政区,1853,澳门特别行政区,820005,风顺堂区,科教文化服务,科研机构,科研机构,113.540036,22.186489,113.5349073374315,22.189403311724423
B073D00DT1,天主教海星中学附属小学,科教文化服务;学校;小学,141203,烧灰炉街10-12号,00853-28973436;00853-28973839,820000,澳门特别行政区,1853,澳门特别行政区,820005,风顺堂区,科教文化服务,学校,小学,113.541917,22.183909,113.53679415029444,22.1868271051132
B0LGZZUVRL,多语教育中心,科教文化服务;培训机构;培训机构,141400,下环街28-28a号,[],820000,澳门特别行政区,1853,澳门特别行政区,820005,风顺堂区,科教文化服务,培训机构,培训机构,113.539497,22.187139,113.53436665898616,22.19005217362133
B073D00EEC,智博补习社,科教文化服务;培训机构;培训机构,141400,高楼街37-A,[],820000,澳门特别行政区,1853,澳门特别行政区,820005,风顺堂区,科教文化服务,培训机构,培训机构,113.540592,22.186166,113.53546503797682,22.18908160166498
B0FFFXHVVY,善明托儿所,科教文化服务;学校;幼儿园,141204,"MacaoRdo DrLourenco Pereira Marques,75-87号凯泉湾一楼AR/C",00853-28932827,820000,澳门特别行政区,1853,澳门特别行政区,820005,风顺堂区,科教文化服务,学校,幼儿园,113.538265,22.187904,113.53313083885004,22.1908142843284
B0FFIPKKSJ,梁文燕培幼园,科教文化服务;学校;幼儿园,141204,公园街与烧灰炉街交叉口东南40米,00853-28971000,820000,澳门特别行政区,1853,澳门特别行政区,820005,风顺堂区,科教文化服务,学校,幼儿园,113.542149,22.184195,113.53702682138568,22.187113783535587
B073D00EE5,醒目仔督课中心,科教文化服务;培训机构;培训机构,141400,"醒目仔督课中心,EdfJardim Real,号,23高楼街澳门",00853-28972872,820000,澳门特别行政区,1853,澳门特别行政区,820005,风顺堂区,科教文化服务,培训机构,培训机构,113.540754,22.186206,113.53562752320656,22.189122023983195
B073D00EE6,进佳督课中心,科教文化服务;培训机构;培训机构,141400,高楼街与西坑街交叉口东20米,[],820000,澳门特别行政区,1853,澳门特别行政区,820005,风顺堂区,科教文化服务,培训机构,培训机构,113.540738,22.186232,113.53561147339391,22.18914799304574
B0KRLS1AAL,澳门法国文化协会,科教文化服务;科教文化场所;科教文化场所,140000,山水园巷与西坑街交叉口东北40米,[],820000,澳门特别行政区,1853,澳门特别行政区,820005,风顺堂区,科教文化服务,科教文化场所,科教文化场所,113.541265,22.185913,113.53614007575702,22.188830200935943
B0FFLBZT3W,EF Education First Macau,科教文化服务;科教文化场所;科教文化场所,140000,澳门商业大马路与区华利前地交叉口东南40米,00853-28228552,820000,澳门特别行政区,1853,澳门特别行政区,820004,大堂区,科教文化服务,科教文化场所,科教文化场所,113.545059,22.187633,113.53994511110308,22.190560099143784
B0FFI7G5FP,雅思音乐中心,科教文化服务;培训机构;培训机构,141400,巴掌围斜巷与南湾大马路交叉口北40米,00853-62882833,820000,澳门特别行政区,1853,澳门特别行政区,820005,风顺堂区,科教文化服务,培训机构,培训机构,113.544118,22.188237,113.5390013488159,22.19116205247689
B0FFHD0OH1,澎丽培训中心,科教文化服务;培训机构;培训机构,141400,区华利前地与何鸿燊博士大马路交叉口西北20米,00853-28355590,820000,澳门特别行政区,1853,澳门特别行政区,820005,风顺堂区,科教文化服务,培训机构,培训机构,113.544449,22.188519,113.5393332919143,22.191444951921195
B0FFI7GV4A,ACLC Macau,科教文化服务;科教文化场所;科教文化场所,140000,南湾大马路与区华利前地交叉口西40米,[],820000,澳门特别行政区,1853,澳门特别行政区,820005,风顺堂区,科教文化服务,科教文化场所,科教文化场所,113.544762,22.18885,113.53964717647531,22.19177682225689
B0KKHG0XVD,澳仕康保健交流协会,科教文化服务;科教文化场所;科教文化场所,140000,"南湾大马路429号,Centro Comercial Praia Grande,26 E",00853-66587626,820000,澳门特别行政区,1853,澳门特别行政区,820005,风顺堂区,科教文化服务,科教文化场所,科教文化场所,113.544737,22.188871,113.53962210289542,22.191797769755752
B073D0M6SL,澳门视觉艺术年展,科教文化服务;会展中心;会展中心,140300,南湾大马路429号附近,[],820000,澳门特别行政区,1853,澳门特别行政区,820005,风顺堂区,科教文化服务,会展中心,会展中心,113.544914,22.18884,113.53979961587774,22.191767182979177
B0J63M3YHL,格熙GAKHEI,科教文化服务;科教文化场所;科教文化场所,140000,龙嵩正街10-L凯旋门广场地下M,15338177333;17207219495,820000,澳门特别行政区,1853,澳门特别行政区,820005,风顺堂区,科教文化服务,科教文化场所,科教文化场所,113.544358,22.189221,113.53924198300554,22.1921469827248
B073D00FV0,纸艺轩,科教文化服务;科教文化场所;科教文化场所,140000,凯旋门广场,[],820000,澳门特别行政区,1853,澳门特别行政区,820005,风顺堂区,科教文化服务,科教文化场所,科教文化场所,113.544052,22.189152,113.53893509810212,22.192077218918296
B0FFL9CMNJ,黄浩彪核数师,科教文化服务;培训机构;培训机构,141400,罗保博士街与苏亚利斯博士大马路交叉口北20米,[],820000,澳门特别行政区,1853,澳门特别行政区,820004,大堂区,科教文化服务,培训机构,培训机构,113.545935,22.188686,113.54082355404007,22.19161555660713
B073D00FUQ,何东图书馆大楼,科教文化服务;图书馆;图书馆,140500,冈顶前地3号,00853-28377117;00853-28930077,820000,澳门特别行政区,1853,澳门特别行政区,820005,风顺堂区,科教文化服务,图书馆,图书馆,113.543004,22.18943,113.53788401274126,22.19235276485022
B073D00BZY,澳门创新科技中心,科教文化服务;科研机构;科研机构,141300,殷皇子大马路47-53号澳门广场7层,00853-28710566,820000,澳门特别行政区,1853,澳门特别行政区,820004,大堂区,科教文化服务,科研机构,科研机构,113.5464,22.188512,113.54128988779908,22.19144258985259
B073D00C02,澳门光影多媒体制作传播中心,科教文化服务;传媒机构;传媒机构,141100,殷皇子大马路47-53号澳门广场7层,[],820000,澳门特别行政区,1853,澳门特别行政区,820004,大堂区,科教文化服务,传媒机构,传媒机构,113.5464,22.188512,113.54128988779908,22.19144258985259
B073D00EZJ,多艺中心,科教文化服务;培训机构;培训机构,141400,罗保博士街9号豪华大厦3层B座,[],820000,澳门特别行政区,1853,澳门特别行政区,820004,大堂区,科教文化服务,培训机构,培训机构,113.546124,22.188946,113.54101307580314,22.191876095243146
B073D00K8F,澳门纳米技术研究所,科教文化服务;科研机构;科研机构,141300,殷皇子大马路47-53号澳门广场7层,[],820000,澳门特别行政区,1853,澳门特别行政区,820004,大堂区,科教文化服务,科研机构,科研机构,113.5464,22.188512,113.54128988779908,22.19144258985259
B073D00BZZ,亚洲软件品质研究所,科教文化服务;科研机构;科研机构,141300,殷皇子大马路47-53号澳门广场7层,[],820000,澳门特别行政区,1853,澳门特别行政区,820004,大堂区,科教文化服务,科研机构,科研机构,113.5464,22.188512,113.54128988779908,22.19144258985259
B073D0M35I,司法警察学校,科教文化服务;学校;学校,141200,南湾大马路517号南通商业大厦12-13、14A-C,[],820000,澳门特别行政区,1853,澳门特别行政区,820005,风顺堂区,科教文化服务,学校,学校,113.54555,22.189595,113.54043739548128,22.19252396827809
B0FFL4YOON,MathConcept数学思维教室(水坑尾),科教文化服务;培训机构;培训机构,141400,殷皇子大马路62号中央商业中心13楼,00853-28595230,820000,澳门特别行政区,1853,澳门特别行政区,820004,大堂区,科教文化服务,培训机构,培训机构,113.546329,22.189177,113.54121864370622,22.192107659985894
B073D0M4VN,圣若瑟修院,科教文化服务;学校;学校,141200,冈顶前地与夜呣斜巷交叉口西80米,[],820000,澳门特别行政区,1853,澳门特别行政区,820005,风顺堂区,科教文化服务,学校,学校,113.542773,22.189385,113.5376523350084,22.192307181737977
B0FFI7AJKS,香港电台,科教文化服务;科教文化场所;科教文化场所,140000,龙嵩正街与亚美打利庇卢大马路交叉口西20米,00853-28331050,820000,澳门特别行政区,1853,澳门特别行政区,820005,风顺堂区,科教文化服务,科教文化场所,科教文化场所,113.545129,22.189927,113.54001516559812,22.19285508380918
B0FFI7BAIN,皇室教育中心,科教文化服务;科教文化场所;科教文化场所,140000,殷皇子大马路与罗保博士街交叉口北20米,00853-66602470,820000,澳门特别行政区,1853,澳门特别行政区,820004,大堂区,科教文化服务,科教文化场所,科教文化场所,113.546454,22.189205,113.54134399655187,22.19213596350263
B0FFHWT122,市政署展览厅,科教文化服务;科教文化场所;科教文化场所,140000,澳门特别行政区风顺堂区半岛,[],820000,澳门特别行政区,1853,澳门特别行政区,820005,风顺堂区,科教文化服务,科教文化场所,科教文化场所,113.544546,22.190343,113.53943045603492,22.1932698343215
B0KKAP9LBR,澳门中医药学会·Associação dos Investigadores Praticantes e Promotores da Medicina Chinesa de Macau,科教文化服务;传媒机构;出版社,141105,卑第巷No.5-7号EdfHoi KongR/C D,00853-66680229,820000,澳门特别行政区,1853,澳门特别行政区,820005,风顺堂区,科教文化服务,传媒机构,出版社,113.542683,22.186629,113.53756224614722,22.18954997639856
B0FFF6LRSJ,约克斯持续教育中心,科教文化服务;科教文化场所;科教文化场所,140000,南湾大马路与殷皇子大马路交叉口北40米,[],820000,澳门特别行政区,1853,澳门特别行政区,820004,大堂区,科教文化服务,科教文化场所,科教文化场所,113.546238,22.189762,113.5411273477368,22.192692654076584
B073D00E3T,勤进补习社,科教文化服务;培训机构;培训机构,141400,高楼街24号永光楼,[],820000,澳门特别行政区,1853,澳门特别行政区,820005,风顺堂区,科教文化服务,培训机构,培训机构,113.542212,22.187388,113.53708980354006,22.19030808569095
B073D00JMP,邮政局博物馆,科教文化服务;博物馆;博物馆,140100,亚美打利庇卢大马路92号,[],820000,澳门特别行政区,1853,澳门特别行政区,820004,大堂区,科教文化服务,博物馆,博物馆,113.545375,22.190284,113.54026184962292,22.193212797046264
B073D00GFV,澳门邮报,科教文化服务;传媒机构;报社,141103,亚美打利庇卢大马路99号南华商业大厦10层,00853-28331050,820000,澳门特别行政区,1853,澳门特别行政区,820005,风顺堂区,科教文化服务,传媒机构,报社,113.544957,22.190233,113.53984265059736,22.193160781361303
B073D00GFN,澳门论坛日报,科教文化服务;传媒机构;报社,141103,亚美打利庇卢大马路99号南华商业大厦6层,[],820000,澳门特别行政区,1853,澳门特别行政区,820005,风顺堂区,科教文化服务,传媒机构,报社,113.544957,22.190233,113.53984265059736,22.193160781361303
B073D00FUN,民政总署公共关系及新闻处新闻中心,科教文化服务;传媒机构;传媒机构,141100,夜呣街2层B,[],820000,澳门特别行政区,1853,澳门特别行政区,820005,风顺堂区,科教文化服务,传媒机构,传媒机构,113.543292,22.189865,113.53817283116216,22.19278862436532
B073D0M2WV,亚洲英语学习中心,科教文化服务;培训机构;培训机构,141400,南湾大马路612号罗德礼商业大厦11层E,00853-28705784,820000,澳门特别行政区,1853,澳门特别行政区,820004,大堂区,科教文化服务,培训机构,培训机构,113.546141,22.189966,113.54103005883412,22.19289649816449
B073D00GFU,晨辉出版有限公司,科教文化服务;传媒机构;出版社,141105,亚美打利庇卢大马路99号南华商业大厦10层,[],820000,澳门特别行政区,1853,澳门特别行政区,820005,风顺堂区,科教文化服务,传媒机构,出版社,113.544957,22.190233,113.53984265059736,22.193160781361303
B0H339XZNH,澳门祈创艺术工作室,科教文化服务;科教文化场所;科教文化场所,140000,东方斜巷19A华利大厦地下,[],820000,澳门特别行政区,1853,澳门特别行政区,820005,风顺堂区,科教文化服务,科教文化场所,科教文化场所,113.543866,22.190273,113.5387484842529,22.19319816673688
B0K65H9LMM,市政署大楼图书馆,科教文化服务;图书馆;图书馆,140500,新马路163号市政署大楼内(北侧),[],820000,澳门特别行政区,1853,澳门特别行政区,820005,风顺堂区,科教文化服务,图书馆,图书馆,113.544662,22.190442,113.53954678538612,22.193369148292746
B073D00E42,慈幼中学,科教文化服务;学校;中学,141202,风顺堂街16号,00853-28573033,820000,澳门特别行政区,1853,澳门特别行政区,820005,风顺堂区,科教文化服务,学校,中学,113.541765,22.186945,113.53664150299318,22.189863818142847
B0FFHWRSWZ,乐陶艺术中心,科教文化服务;科教文化场所;科教文化场所,140000,大堂斜巷与美丽街交叉口西南40米,00853-65591221,820000,澳门特别行政区,1853,澳门特别行政区,820004,大堂区,科教文化服务,科教文化场所,科教文化场所,113.54648,22.189842,113.54137002945104,22.19277325107051
B0KKAPI2K9,友憬教育培训中心,科教文化服务;培训机构;培训机构,141400,"南湾大马路619号,Edificio Comercial Si Toi,15楼A",00853-65393234,820000,澳门特别行政区,1853,澳门特别行政区,820004,大堂区,科教文化服务,培训机构,培训机构,113.54643,22.189855,113.54131988686476,22.1927861383711
B073D00M72,澳门葡文学校,科教文化服务;学校;中学,141202,殷皇子大马路,00853-28572240,820000,澳门特别行政区,1853,澳门特别行政区,820004,大堂区,科教文化服务,学校,中学,113.547911,22.188474,113.5428051393488,22.19140808799515
B0FFG83W5Q,圣若瑟教区中学(罗结地巷),科教文化服务;学校;中学,141202,大堂街19号,00853-28270580;00853-28375954,820000,澳门特别行政区,1853,澳门特别行政区,820004,大堂区,科教文化服务,学校,中学,113.545998,22.190624,113.5408866094838,22.193554394489336
B0FFI1QXSJ,文化活动厅/展览组,科教文化服务;科教文化场所;科教文化场所,140000,红窗门街与东方斜巷交叉口西40米,00853-28335124,820000,澳门特别行政区,1853,澳门特别行政区,820005,风顺堂区,科教文化服务,科教文化场所,科教文化场所,113.543704,22.190505,113.5385859964608,22.19342985567152
B0FFHWSW20,群力驾驶学校有限公司,科教文化服务;科教文化场所;科教文化场所,140000,风顺堂街与高楼街交叉口西20米,00853-28521152,820000,澳门特别行政区,1853,澳门特别行政区,820005,风顺堂区,科教文化服务,科教文化场所,科教文化场所,113.541821,22.187206,113.53669765306334,22.19012505079772
B073D00ISD,仁慈堂博物馆,科教文化服务;博物馆;博物馆,140100,仁慈堂右巷2号,[],820000,澳门特别行政区,1853,澳门特别行政区,820004,大堂区,科教文化服务,博物馆,博物馆,113.545257,22.190819,113.5401434764942,22.19374770578328
B0FFH2C798,逸安负责任博彩辅导中心,科教文化服务;培训机构;培训机构,141400,马统领街9-11号金来大厦地下K铺,00853-28210066,820000,澳门特别行政区,1853,澳门特别行政区,820004,大堂区,科教文化服务,培训机构,培训机构,113.547412,22.189097,113.5423047045186,22.192030158360183
B0FFL4DSWL,承雅艺术Sino-elegancia,科教文化服务;培训机构;培训机构,141400,马统领街与罗保博士街交叉口东北20米,00853-28266006,820000,澳门特别行政区,1853,澳门特别行政区,820004,大堂区,科教文化服务,培训机构,培训机构,113.547224,22.189428,113.54211615563504,22.19236084020796
B0FFF2WKRU,华侨报出版社有限公司,科教文化服务;科教文化场所;科教文化场所,140000,红窗门街69号,00853-28345888,820000,澳门特别行政区,1853,澳门特别行政区,820005,风顺堂区,科教文化服务,科教文化场所,科教文化场所,113.542535,22.190274,113.53741357507472,22.19319591178743
B0KKASLGUC,立仁国际发展补习中心3,科教文化服务;培训机构;培训机构,141400,澳门亚坚奴前地26号A座地铺Edificio Veng Fai,00853-66766833,820000,澳门特别行政区,1853,澳门特别行政区,820005,风顺堂区,科教文化服务,培训机构,培训机构,113.541909,22.189309,113.53678578010654,22.192229019816125
B0FFHWQOV0,环球雅思澳门分校,科教文化服务;科教文化场所;科教文化场所,140000,大堂斜巷与南湾大马路交叉口北20米,00853-28355805,820000,澳门特别行政区,1853,澳门特别行政区,820004,大堂区,科教文化服务,科教文化场所,科教文化场所,113.546892,22.189949,113.54178318755432,22.192881252795587
B0FFLPBDHK,PERFECT STAGE澳门专业化妆学校,科教文化服务;科教文化场所;科教文化场所,140000,南湾大马路与罗保博士街交叉口北20米,00853-28750695,820000,澳门特别行政区,1853,澳门特别行政区,820004,大堂区,科教文化服务,科教文化场所,科教文化场所,113.547017,22.189868,113.54190854509253,22.192800515332127
B0FFIGS7Y3,聪铭持续教育中心,科教文化服务;科教文化场所;科教文化场所,140000,下环正街与风顺堂街交叉口西南20米,00853-28974512,820000,澳门特别行政区,1853,澳门特别行政区,820005,风顺堂区,科教文化服务,科教文化场所,科教文化场所,113.541522,22.187315,113.53639775434664,22.190233345218367
B0FFI1QW0X,标准驾驶学校,科教文化服务;科教文化场所;科教文化场所,140000,安仿西街与夜呣巷交叉口东南40米,00853-28318116,820000,澳门特别行政区,1853,澳门特别行政区,820005,风顺堂区,科教文化服务,科教文化场所,科教文化场所,113.541834,22.18947,113.53671054653594,22.19238989076621
B073D00LPT,聪铭督课中心第三所,科教文化服务;培训机构;培训机构,141400,风顺堂区半岛高楼街10号,[],820000,澳门特别行政区,1853,澳门特别行政区,820005,风顺堂区,科教文化服务,培训机构,培训机构,113.541383,22.186931,113.53625836355054,22.18984886081729
B0K01D7S26,澳门当代美术馆,科教文化服务;科教文化场所;科教文化场所,140000,亚美打利庇卢大马路241号合和商业中心地下C室42号,19168691129,820000,澳门特别行政区,1853,澳门特别行政区,820005,风顺堂区,科教文化服务,科教文化场所,科教文化场所,113.544053,22.191079,113.53893597747856,22.19400490573948
B0FFHWR9OA,金融情报办公室,科教文化服务;科教文化场所;科教文化场所,140000,苏亚利斯博士大马路与亚马喇前地交叉口西北40米,00853-28523666,820000,澳门特别行政区,1853,澳门特别行政区,820004,大堂区,科教文化服务,科教文化场所,科教文化场所,113.547959,22.186948,113.54285337078656,22.18988165313687
B0FFI9V054,狮子汽车教授学校,科教文化服务;科教文化场所;科教文化场所,140000,澳门台山新城市花园16座富华阁9楼A座,00853-28237828,820000,澳门特别行政区,1853,澳门特别行政区,820004,大堂区,科教文化服务,科教文化场所,科教文化场所,113.54785,22.189339,113.54274391388894,22.192273255784084
B073D00DHX,聪铭督课中心第一所,科教文化服务;培训机构;培训机构,141400,高楼街10号,[],820000,澳门特别行政区,1853,澳门特别行政区,820005,风顺堂区,科教文化服务,培训机构,培训机构,113.541242,22.186851,113.53611694670276,22.18976847962097
B073D00DHZ,爱心园地补习中心,科教文化服务;培训机构;培训机构,141400,高楼街12-B,[],820000,澳门特别行政区,1853,澳门特别行政区,820005,风顺堂区,科教文化服务,培训机构,培训机构,113.541206,22.186831,113.53608084015433,22.18974838235565
B073D0M4LA,培道中学小学部分教处,科教文化服务;学校;小学,141203,美丽街15-17号添欣大厦,00853-28356849,820000,澳门特别行政区,1853,澳门特别行政区,820004,大堂区,科教文化服务,学校,小学,113.547257,22.190547,113.5421491766865,22.19348031436592
B073D00DI0,聪铭督课中心第七所,科教文化服务;培训机构;培训机构,141400,高楼街14-A,[],820000,澳门特别行政区,1853,澳门特别行政区,820005,风顺堂区,科教文化服务,培训机构,培训机构,113.541141,22.186794,113.5360156477377,22.189711206325875
B0FFHD3JEJ,日本语教室,科教文化服务;培训机构;培训机构,141400,公局新市东街与公局新市北街交叉口东20米,00853-28330391,820000,澳门特别行政区,1853,澳门特别行政区,820004,大堂区,科教文化服务,培训机构,培训机构,113.545042,22.191431,113.53992781875216,22.19435940937652
B073D0M2VX,圣安东尼幼稚园暨幼儿院,科教文化服务;学校;幼儿园,141204,南湾大马路743号1层,[],820000,澳门特别行政区,1853,澳门特别行政区,820004,大堂区,科教文化服务,学校,幼儿园,113.547659,22.190184,113.54255232643528,22.19311811592679
B0FFLASVDF,儒林补习教育中心17,科教文化服务;培训机构;培训机构,141400,澳门美丽街15-A号添欣大厦地下B座,[],820000,澳门特别行政区,1853,澳门特别行政区,820004,大堂区,科教文化服务,培训机构,培训机构,113.547424,22.19037,113.54231665664554,22.193303638698133
B0FFHWSQG2,澳专教育中心2,科教文化服务;培训机构;培训机构,141400,高楼街与西坑街交叉口东60米,[],820000,澳门特别行政区,1853,澳门特别行政区,820005,风顺堂区,科教文化服务,培训机构,培训机构,113.54112,22.186355,113.5359946129469,22.189271996421034
B073D00J2R,理想语言中心,科教文化服务;培训机构;培训机构,141400,公局新市东街7号佳富商业中心1层,[],820000,澳门特别行政区,1853,澳门特别行政区,820004,大堂区,科教文化服务,培训机构,培训机构,113.545192,22.191498,113.54007824613976,22.19442679130108
B073D0M4GE,新恒乐督课中心,科教文化服务;培训机构;培训机构,141400,美丽街18-C,[],820000,澳门特别行政区,1853,澳门特别行政区,820004,大堂区,科教文化服务,培训机构,培训机构,113.547732,22.190296,113.54262552325385,22.193230324087768
B0FFI7L1DE,公文式,科教文化服务;科教文化场所;科教文化场所,140000,鹅眉街与打铁斜巷交叉口东20米,00853-66571917,820000,澳门特别行政区,1853,澳门特别行政区,820005,风顺堂区,科教文化服务,科教文化场所,科教文化场所,113.54068,22.188238,113.5355531700764,22.191154564604894
B073D00M71,澳门培道中学,科教文化服务;学校;中学,141202,南湾大马路779号,00853-28574361,820000,澳门特别行政区,1853,澳门特别行政区,820004,大堂区,科教文化服务,学校,中学,113.548132,22.190178,113.54302664541154,22.193113201843047
B0JDZUCM0W,圣庇护十世音乐学院,科教文化服务;科教文化场所;科教文化场所,140000,南湾大马路与马统领巷交叉口东北60米,[],820000,澳门特别行政区,1853,澳门特别行政区,820005,风顺堂区,科教文化服务,科教文化场所,科教文化场所,113.542479,22.184587,113.5373577741728,22.18750674040169
B0FFHWQT9Q,澳门斯瑞资讯科技培训中心,科教文化服务;培训机构;培训机构,141400,南湾大马路与罗保博士街交叉口东北80米,00853-28371733,820000,澳门特别行政区,1853,澳门特别行政区,820004,大堂区,科教文化服务,培训机构,培训机构,113.547671,22.190448,113.54256434307594,22.193382237335307
B073D00JS3,圣物宝库,科教文化服务;博物馆;博物馆,140100,米糙巷与公局新市东街交叉口东北20米,00853-28357911;00853-28367706,820000,澳门特别行政区,1853,澳门特别行政区,820004,大堂区,科教文化服务,博物馆,博物馆,113.545514,22.191844,113.54040114824252,22.1947736803226
B073D0MA20,澳门培道幼稚园,科教文化服务;学校;幼儿园,141204,美丽街与水坑尾街交叉口西60米,[],820000,澳门特别行政区,1853,澳门特别行政区,820004,大堂区,科教文化服务,学校,幼儿园,113.548132,22.190179,113.54302664534752,22.19311420219815
B073D0M4M4,教育资源中心,科教文化服务;科教文化场所;科教文化场所,140000,南湾大马路926号,00853-28781718,820000,澳门特别行政区,1853,澳门特别行政区,820004,大堂区,科教文化服务,科教文化场所,科教文化场所,113.548958,22.189017,113.54385500437284,22.19195367152671
B0FFI7EEYM,致远视听英专学院,科教文化服务;科教文化场所;科教文化场所,140000,亚美打利庇卢大马路与营地大街交叉口西北40米,00853-28322921,820000,澳门特别行政区,1853,澳门特别行政区,820004,大堂区,科教文化服务,科教文化场所,科教文化场所,113.543757,22.19166,113.53863907721542,22.19458539368883
B073D00I11,学联海外升学中心(澳门),科教文化服务;科教文化场所;科教文化场所,140000,板樟堂街16-I显利商业中心4层42,00853-28389291,820000,澳门特别行政区,1853,澳门特别行政区,820004,大堂区,科教文化服务,科教文化场所,科教文化场所,113.546436,22.191506,113.5413257981206,22.19443773799676
B0FFI7FP93,汇才进修中心,科教文化服务;科教文化场所;科教文化场所,140000,安仿西街与夜呣巷交叉口西北60米,00853-62283700,820000,澳门特别行政区,1853,澳门特别行政区,820005,风顺堂区,科教文化服务,科教文化场所,科教文化场所,113.541099,22.189952,113.53597331916664,22.1928702275628
B073D00JWP,典当业展示馆,科教文化服务;展览馆;展览馆,140200,亚美打利庇卢大马路396号,[],820000,澳门特别行政区,1853,澳门特别行政区,820004,大堂区,科教文化服务,展览馆,展览馆,113.543314,22.192088,113.53819475315768,22.19501246593898
B0KKMPF19O,澳门中医药学会,科教文化服务;科教文化场所;科教文化场所,140000,澳门大街64号二楼,00853-28375389,820000,澳门特别行政区,1853,澳门特别行政区,820004,大堂区,科教文化服务,科教文化场所,科教文化场所,113.544637,22.191825,113.53952162442692,22.194752578174725
B073D0M2XC,教育暨青年局仲尼堂,科教文化服务;科教文化场所;科教文化场所,140000,约翰四世大马路7-9号一定好商业中心1层,[],820000,澳门特别行政区,1853,澳门特别行政区,820004,大堂区,科教文化服务,科教文化场所,科教文化场所,113.548717,22.189249,113.54361332532218,22.19218520717065
B0FFF45FTW,八角亭图书馆,科教文化服务;科教文化场所;科教文化场所,140000,南湾大马路与约翰四世大马路交叉口东20米,00853-28322009,820000,澳门特别行政区,1853,澳门特别行政区,820004,大堂区,科教文化服务,科教文化场所,科教文化场所,113.548897,22.189759,113.54379378895182,22.192695797272343
B073D0M4M5,教育暨青年局元晦堂,科教文化服务;科教文化场所;科教文化场所,140000,约翰四世大马路7-9号一定好商业中心1层,[],820000,澳门特别行政区,1853,澳门特别行政区,820004,大堂区,科教文化服务,科教文化场所,科教文化场所,113.548717,22.189249,113.54361332532218,22.19218520717065
B073D00I0Z,朗文教学资源中心(澳门),科教文化服务;科教文化场所;科教文化场所,140000,板樟堂街16-I显利商业中心3层35,[],820000,澳门特别行政区,1853,澳门特别行政区,820004,大堂区,科教文化服务,科教文化场所,科教文化场所,113.546436,22.191506,113.5413257981206,22.19443773799676
B073D0M4M7,教育暨青年局蒙特梭利室,科教文化服务;科教文化场所;科教文化场所,140000,约翰四世大马路7-9号一定好商业中心2层,[],820000,澳门特别行政区,1853,澳门特别行政区,820004,大堂区,科教文化服务,科教文化场所,科教文化场所,113.548717,22.189249,113.54361332532218,22.19218520717065
B073D0M2XJ,教育暨青年局子居室,科教文化服务;科教文化场所;科教文化场所,140000,约翰四世大马路7-9号一定好商业中心3层,[],820000,澳门特别行政区,1853,澳门特别行政区,820004,大堂区,科教文化服务,科教文化场所,科教文化场所,113.548717,22.189249,113.54361332532218,22.19218520717065
B073D0M2XI,教育暨青年局福禄贝雨室,科教文化服务;科教文化场所;科教文化场所,140000,约翰四世大马路7-9号一定好商业中心2层,[],820000,澳门特别行政区,1853,澳门特别行政区,820004,大堂区,科教文化服务,科教文化场所,科教文化场所,113.548717,22.189249,113.54361332532218,22.19218520717065
B073D0M2XF,教育暨青年局鹤琴室,科教文化服务;科教文化场所;科教文化场所,140000,约翰四世大马路7-9号一定好商业中心1层,[],820000,澳门特别行政区,1853,澳门特别行政区,820004,大堂区,科教文化服务,科教文化场所,科教文化场所,113.548717,22.189249,113.54361332532218,22.19218520717065
B073D0M2XK,教育暨青年局象山室,科教文化服务;科教文化场所;科教文化场所,140000,约翰四世大马路7-9号一定好商业中心3层,[],820000,澳门特别行政区,1853,澳门特别行政区,820004,大堂区,科教文化服务,科教文化场所,科教文化场所,113.548717,22.189249,113.54361332532218,22.19218520717065
B073D0M4M6,教育暨青年局绍钩室,科教文化服务;科教文化场所;科教文化场所,140000,约翰四世大马路7-9号一定好商业中心1层,[],820000,澳门特别行政区,1853,澳门特别行政区,820004,大堂区,科教文化服务,科教文化场所,科教文化场所,113.548717,22.189249,113.54361332532218,22.19218520717065
B073D0M2XH,教育暨青年局柏拉图室,科教文化服务;科教文化场所;科教文化场所,140000,约翰四世大马路7-9号一定好商业中心2层,[],820000,澳门特别行政区,1853,澳门特别行政区,820004,大堂区,科教文化服务,科教文化场所,科教文化场所,113.548717,22.189249,113.54361332532218,22.19218520717065
B0FFHWSADB,新涛商业英语中心,科教文化服务;培训机构;培训机构,141400,米糙巷与营地大街交叉口南20米,00853-28922811,820000,澳门特别行政区,1853,澳门特别行政区,820004,大堂区,科教文化服务,培训机构,培训机构,113.544974,22.191873,113.53985959449494,22.19480140313957
B073D00AXQ,教育暨青年局语言推广中心,科教文化服务;培训机构;培训机构,141400,美丽街31号德记商业大厦3层,00853-63324889,820000,澳门特别行政区,1853,澳门特别行政区,820004,大堂区,科教文化服务,培训机构,培训机构,113.548287,22.190444,113.5431820588533,22.19337965123603
B073D0M2XE,教育暨青年局行知室,科教文化服务;科教文化场所;科教文化场所,140000,约翰四世大马路7-9号一定好商业中心1层,[],820000,澳门特别行政区,1853,澳门特别行政区,820004,大堂区,科教文化服务,科教文化场所,科教文化场所,113.548717,22.189249,113.54361332532218,22.19218520717065
B073D0M2XG,教育暨青年局卓如室,科教文化服务;科教文化场所;科教文化场所,140000,约翰四世大马路7-9号一定好商业中心1层,[],820000,澳门特别行政区,1853,澳门特别行政区,820004,大堂区,科教文化服务,科教文化场所,科教文化场所,113.548717,22.189249,113.54361332532218,22.19218520717065
B073D00AXO,教育暨青年局图书室,科教文化服务;图书馆;图书馆,140500,美丽街31号德记商业大厦1层,[],820000,澳门特别行政区,1853,澳门特别行政区,820004,大堂区,科教文化服务,图书馆,图书馆,113.548286,22.190444,113.54318105607864,22.19337964894843
B073D0M30X,学勤进修教育中心补习社(南湾大马路),科教文化服务;培训机构;培训机构,141400,南湾大马路815才能商业中心17层、21层,[],820000,澳门特别行政区,1853,澳门特别行政区,820004,大堂区,科教文化服务,培训机构,培训机构,113.54856,22.190002,113.54345584336812,22.192938117588906
B0FFHWRATI,下环图书馆,科教文化服务;科教文化场所;科教文化场所,140000,李加禄街下环街市3楼,00853-82947931,820000,澳门特别行政区,1853,澳门特别行政区,820005,风顺堂区,科教文化服务,科教文化场所,科教文化场所,113.539838,22.187916,113.53470864552445,22.19083031956008
B073D0MN31,教宗若望廿三世托儿所,科教文化服务;学校;幼儿园,141204,柯邦迪前地与聚宝街交叉口西南60米,00853-28378458,820000,澳门特别行政区,1853,澳门特别行政区,820005,风顺堂区,科教文化服务,学校,幼儿园,113.540982,22.190243,113.53585594941316,22.193161037478568
B073D00HW1,英姿舞园,科教文化服务;培训机构;培训机构,141400,伯多禄局长街澳门市政厅28号威顺阁A座,[],820000,澳门特别行政区,1853,澳门特别行政区,820004,大堂区,科教文化服务,培训机构,培训机构,113.547142,22.191452,113.54203379548764,22.194385367961715
B073D0M30S,家友补习社,科教文化服务;培训机构;培训机构,141400,南湾大马路815才能商业中心8层,[],820000,澳门特别行政区,1853,澳门特别行政区,820004,大堂区,科教文化服务,培训机构,培训机构,113.54856,22.190002,113.54345584336812,22.192938117588906
B0FFHQQU9M,同善堂历史档案陈列馆,科教文化服务;科教文化场所;科教文化场所,140000,庇山耶街No.55号,[],820000,澳门特别行政区,1853,澳门特别行政区,820004,大堂区,科教文化服务,科教文化场所,科教文化场所,113.543461,22.192148,113.53834218022618,22.19507284586187
B073D00H8R,澳门中华总商会附设阅书报室,科教文化服务;图书馆;图书馆,140500,家辣堂街15-17号附近,[],820000,澳门特别行政区,1853,澳门特别行政区,820004,大堂区,科教文化服务,图书馆,图书馆,113.548911,22.190013,113.54380781124785,22.192949919276824
B073D00GYW,澳门大会堂,科教文化服务;会展中心;会展中心,140300,家辣堂街15号,00853-28572050,820000,澳门特别行政区,1853,澳门特别行政区,820004,大堂区,科教文化服务,会展中心,会展中心,113.549326,22.189921,113.5442239569255,22.19285882458607
B0FFGH7SAG,鲁班先师木工艺陈列馆,科教文化服务;展览馆;展览馆,140200,庇山耶街39-41号,13924134940,820000,澳门特别行政区,1853,澳门特别行政区,820004,大堂区,科教文化服务,展览馆,展览馆,113.543827,22.19258,113.53870922256198,22.19550588877654
B073D00JWW,同善堂中学,科教文化服务;学校;中学,141202,亚美打利庇卢大马路29号,[],820000,澳门特别行政区,1853,澳门特别行政区,820004,大堂区,科教文化服务,学校,中学,113.543144,22.192516,113.53802422655453,22.19544020147419
B0FFI7K89E,建筑空间设计所,科教文化服务;科教文化场所;科教文化场所,140000,营地大街与高尾街交叉口南20米,00853-28355950,820000,澳门特别行政区,1853,澳门特别行政区,820004,大堂区,科教文化服务,科教文化场所,科教文化场所,113.545138,22.192297,113.54002403960972,22.195225944935043
B0FFI7KDK2,宏博教育进修中心,科教文化服务;学校;成人教育,141205,板樟堂街与大堂巷交叉口东北60米,00853-28524845,820000,澳门特别行政区,1853,澳门特别行政区,820004,大堂区,科教文化服务,学校,成人教育,113.546469,22.191999,113.54135886010052,22.194930989807503
B073D00I0V,同善堂小学,科教文化服务;学校;小学,141203,庇山耶街64号,[],820000,澳门特别行政区,1853,澳门特别行政区,820004,大堂区,科教文化服务,学校,小学,113.543233,22.192412,113.53811349465605,22.195336382462205
B073D00JTL,教业中学(大炮台下街),科教文化服务;学校;中学,141202,大炮台街4-6号附近,[],820000,澳门特别行政区,1853,澳门特别行政区,820004,大堂区,科教文化服务,学校,中学,113.546564,22.19234,113.5414541074033,22.19527233301708
B0KKGGAZD1,澳门工程师学会,科教文化服务;科教文化场所;科教文化场所,140000,水坑尾街与素雅利神父巷交叉口西南60米,00853-28322522,820000,澳门特别行政区,1853,澳门特别行政区,820004,大堂区,科教文化服务,科教文化场所,科教文化场所,113.548442,22.19082,113.54333746444811,22.193756138785947
B0KRORSFXQ,公文式下环信泰教育中心,科教文化服务;培训机构;培训机构,141400,下环街盐里4号信泰花园地下G,[],820000,澳门特别行政区,1853,澳门特别行政区,820005,风顺堂区,科教文化服务,培训机构,培训机构,113.5397,22.187423,113.53457025812996,22.19033679242529
B0JR57XI91,小幼苗幼儿补习教育中心,科教文化服务;培训机构;培训机构,141400,水坑尾街78号中建商业大厦13楼A座,[],820000,澳门特别行政区,1853,澳门特别行政区,820004,大堂区,科教文化服务,培训机构,培训机构,113.548658,22.190506,113.5435540819576,22.193442519676776
B0FFLC5OTS,儒林补习教育中心(第一分社),科教文化服务;培训机构;培训机构,141400,水坑尾街78号中建商业大厦13楼C座,00853-28389734,820000,澳门特别行政区,1853,澳门特别行政区,820004,大堂区,科教文化服务,培训机构,培训机构,113.548658,22.190538,113.54355407990928,22.19347453103032
B0KKGGY75T,Wiscom Electronics伟思电子,科教文化服务;科研机构;科研机构,141300,"水坑尾街78号中建商业大厦2楼203室RUA CAMPO.78 FL02,ART 203ED COM CHONE KIN",00853-66863736,820000,澳门特别行政区,1853,澳门特别行政区,820004,大堂区,科教文化服务,科研机构,科研机构,113.548656,22.190526,113.54355207515304,22.19346252222192
B0FFI7H1R5,公职福利处阅览室,科教文化服务;科教文化场所;科教文化场所,140000,澳门水坑尾街78号中建大厦9楼,00853-28355208,820000,澳门特别行政区,1853,澳门特别行政区,820004,大堂区,科教文化服务,科教文化场所,科教文化场所,113.548736,22.190575,113.54363229288454,22.193511721540144
B0FFI7HU82,乐宜教育中心,科教文化服务;培训机构;培训机构,141400,水坑尾街与美丽街交叉口东北20米,00853-28828928,820000,澳门特别行政区,1853,澳门特别行政区,820004,大堂区,科教文化服务,培训机构,培训机构,113.548736,22.190575,113.54363229288454,22.193511721540144
B073D00HX8,英语进修中心,科教文化服务;学校;成人教育,141205,水坑尾街117号美美大厦4层,[],820000,澳门特别行政区,1853,澳门特别行政区,820004,大堂区,科教文化服务,学校,成人教育,113.548456,22.190944,113.54335149527894,22.19388021469328
B0KKGG3YZZ,公文式水坑尾教育中心KUMON CAMPO EDUCATION CENTRE,科教文化服务;培训机构;培训机构,141400,"水坑尾街117号,Mei Mei Edf,3楼A",00853-28706640,820000,澳门特别行政区,1853,澳门特别行政区,820004,大堂区,科教文化服务,培训机构,培训机构,113.548389,22.190984,113.54328430712232,22.193920075898408
B0FFHWS4HS,佩华花艺培训学校,科教文化服务;培训机构;培训机构,141400,"佩华花艺培训学校Rua do Campo,no 78,EdifMei Mei,11 Andar,A,澳门",[],820000,澳门特别行政区,1853,澳门特别行政区,820004,大堂区,科教文化服务,培训机构,培训机构,113.548736,22.190567,113.5436322933966,22.19350371870211
B0LBAAS5FG,天丽手作坊,科教文化服务;培训机构;培训机构,141400,"号地下,4-6号Avde Almeida Ribeiro,Macao",[],820000,澳门特别行政区,1853,澳门特别行政区,820005,风顺堂区,科教文化服务,培训机构,培训机构,113.542453,22.19206,113.53733121793957,22.19498234219392
B0FFI7ALGM,澳门传媒俱乐部,科教文化服务;科教文化场所;科教文化场所,140000,水坑尾街与美丽街交叉口东40米,00853-28330035,820000,澳门特别行政区,1853,澳门特别行政区,820004,大堂区,科教文化服务,科教文化场所,科教文化场所,113.548905,22.190369,113.54380177194037,22.19330603208622
B0LDMUEEYK,汇智补习·教育中心,科教文化服务;科教文化场所;科教文化场所,140000,水坑尾街112号,[],820000,澳门特别行政区,1853,澳门特别行政区,820004,大堂区,科教文化服务,科教文化场所,科教文化场所,113.54873,22.190876,113.54362625706013,22.19381281464221
B073D00DQL,澳门保安部队博物馆,科教文化服务;博物馆;博物馆,140100,加思栏马路与罗理基博士大马路交叉口北40米,[],820000,澳门特别行政区,1853,澳门特别行政区,820004,大堂区,科教文化服务,博物馆,博物馆,113.550066,22.188898,113.54496604011533,22.19183711895744
B0L6ARRQL4,公民教育,科教文化服务;学校;学校,141200,火船头街与柯邦迪前地交叉口东北40米,00853-28471371,820000,澳门特别行政区,1853,澳门特别行政区,820005,风顺堂区,科教文化服务,学校,学校,113.540896,22.19118,113.5357696309698,22.1940981538382
B0J3THEA27,卡隆文化教育中心3(水坑尾校),科教文化服务;培训机构;培训机构,141400,水坑尾街153号E阁楼,[],820000,澳门特别行政区,1853,澳门特别行政区,820004,大堂区,科教文化服务,培训机构,培训机构,113.548625,22.191173,113.54352094809288,22.194109681032074
B073D00JJ5,澳门浸信中学(伯多禄局长街),科教文化服务;学校;中学,141202,伯多禄局长街41号,[],820000,澳门特别行政区,1853,澳门特别行政区,820004,大堂区,科教文化服务,学校,中学,113.548134,22.191817,113.54302854603831,22.194752787250696
B0FFL4PW40,妇联第三托儿所,科教文化服务;学校;幼儿园,141204,火船头街与夜呣街交叉口南20米,00853-28451000,820000,澳门特别行政区,1853,澳门特别行政区,820005,风顺堂区,科教文化服务,学校,幼儿园,113.540936,22.191455,113.53580973349148,22.194373351678266
B073D00HKX,海晖学校下环办事处,科教文化服务;学校;学校,141200,康宁阁,[],820000,澳门特别行政区,1853,澳门特别行政区,820005,风顺堂区,科教文化服务,学校,学校,113.539547,22.189422,113.53441666458151,22.19233611567644
B073D00H8P,圣罗撒女子中学,科教文化服务;学校;中学,141202,家辣堂街21号,[],820000,澳门特别行政区,1853,澳门特别行政区,820004,大堂区,科教文化服务,学校,中学,113.549719,22.190629,113.54461798555516,22.19356795893033
B0FFLH6006,东西艺术廊,科教文化服务;科教文化场所;科教文化场所,140000,柯传善堂围16A丰时大厦地库G,[],820000,澳门特别行政区,1853,澳门特别行政区,820004,大堂区,科教文化服务,科教文化场所,科教文化场所,113.547679,22.192242,113.5425722505616,22.195176890992013
B0FFI7HPLY,星报,科教文化服务;科教文化场所;科教文化场所,140000,白眼塘横街与十月初五日巷交叉口南60米,00853-28574294,820000,澳门特别行政区,1853,澳门特别行政区,820005,风顺堂区,科教文化服务,科教文化场所,科教文化场所,113.54193,22.192324,113.53680664915652,22.195245140912267
B073D00FHU,圣罗撒托儿所,科教文化服务;学校;幼儿园,141204,东望洋新街348号地下,00853-28573670,820000,澳门特别行政区,1853,澳门特别行政区,820004,大堂区,科教文化服务,学校,幼儿园,113.550002,22.190004,113.5449017955942,22.192943369713213
B073D0M36T,澳门浸信中学小学部,科教文化服务;学校;小学,141203,大炮台斜巷23号,[],820000,澳门特别行政区,1853,澳门特别行政区,820004,大堂区,科教文化服务,学校,小学,113.547919,22.192352,113.54281291335408,22.195287482671127
B0HG0AXPLP,Macau Baptist College,科教文化服务;科教文化场所;科教文化场所,140000,伯多禄局长街41号,00853-28470388,820000,澳门特别行政区,1853,澳门特别行政区,820004,大堂区,科教文化服务,科教文化场所,科教文化场所,113.548242,22.19193,113.54313683882609,22.19486607461431
B073D00GO8,妇联学校,科教文化服务;学校;学校,141200,水坑尾街218号妇联大厦4-5层,00853-28353594;00853-28353595,820000,澳门特别行政区,1853,澳门特别行政区,820004,大堂区,科教文化服务,学校,学校,113.549245,22.191549,113.5441426307323,22.19448721925787
B073D00GO9,妇联托儿所,科教文化服务;学校;幼儿园,141204,水坑尾街222号地下及三楼,00853-28353740,820000,澳门特别行政区,1853,澳门特别行政区,820004,大堂区,科教文化服务,学校,幼儿园,113.549269,22.191581,113.54416669448725,22.19451928471708
B0G07H4LW7,葡韵教室-澳门专业葡文课程教育机构,科教文化服务;培训机构;培训机构,141400,"6楼A室葡韵教室-澳门专业葡文课程教育机构,妇联大厦202号水坑尾街澳门",[],820000,澳门特别行政区,1853,澳门特别行政区,820004,大堂区,科教文化服务,培训机构,培训机构,113.549254,22.19148,113.54415165982674,22.194418215140715
B073D00GNZ,宏达图书中心,科教文化服务;图书馆;图书馆,140500,水坑尾街258号百老汇中心地库,[],820000,澳门特别行政区,1853,澳门特别行政区,820004,大堂区,科教文化服务,图书馆,图书馆,113.549438,22.191839,113.54433614078042,22.19477775664327
B0FFI7AGM7,飞扬教育中心,科教文化服务;科教文化场所;科教文化场所,140000,马大臣街与腊八街交叉口西40米,00853-66813634,820000,澳门特别行政区,1853,澳门特别行政区,820004,大堂区,科教文化服务,科教文化场所,科教文化场所,113.549388,22.191449,113.54428602891689,22.19438750613872
B0FFI87FYF,澳美加教育,科教文化服务;培训机构;培训机构,141400,马大臣街与腊八街交叉口西60米,00853-28352802,820000,澳门特别行政区,1853,澳门特别行政区,820004,大堂区,科教文化服务,培训机构,培训机构,113.549272,22.191497,113.54416970808724,22.1944352617556
B0FFI7AN27,智慧谷进修教育中心,科教文化服务;科教文化场所;科教文化场所,140000,水坑尾街202号妇联大厦6楼O室,[],820000,澳门特别行政区,1853,澳门特别行政区,820004,大堂区,科教文化服务,科教文化场所,科教文化场所,113.549353,22.19144,113.54425093366623,22.194378424137568
B0H3TCKLRZ,澳门舞蹈艺术教育中心,科教文化服务;培训机构;培训机构,141400,马大臣街与腊八街交叉口西40米,[],820000,澳门特别行政区,1853,澳门特别行政区,820004,大堂区,科教文化服务,培训机构,培训机构,113.549388,22.191449,113.54428602891689,22.19438750613872
B0FFI7AQY0,国际教育联合培训中心,科教文化服务;培训机构;培训机构,141400,水坑尾街与美丽街交叉口东北20米,00853-28352802,820000,澳门特别行政区,1853,澳门特别行政区,820004,大堂区,科教文化服务,培训机构,培训机构,113.549388,22.191449,113.54428602891689,22.19438750613872
B0HRC4KO0Y,勤思学习中心,科教文化服务;科教文化场所;科教文化场所,140000,马大臣街与腊八街交叉口西60米,00853-62037900,820000,澳门特别行政区,1853,澳门特别行政区,820004,大堂区,科教文化服务,科教文化场所,科教文化场所,113.549361,22.191465,113.5442589539732,22.19440345100536
B073D00F7L,毅进研习中心,科教文化服务;培训机构;培训机构,141400,鲁子高街2-B,[],820000,澳门特别行政区,1853,澳门特别行政区,820004,大堂区,科教文化服务,培训机构,培训机构,113.549745,22.191174,113.54464402154328,22.194113210345915
B073D0MP36,凯中华驾驶学校,科教文化服务;科教文化场所;科教文化场所,140000,盐巷与比厘喇马忌士街交叉口东南20米,00853-28938922,820000,澳门特别行政区,1853,澳门特别行政区,820005,风顺堂区,科教文化服务,科教文化场所,科教文化场所,113.538387,22.187936,113.53325321205357,22.19084661074774
B073D0M35G,圣公会澳门蔡高中学夜间中学部,科教文化服务;学校;中学,141202,水坑尾街55号,[],820000,澳门特别行政区,1853,澳门特别行政区,820004,大堂区,科教文化服务,学校,中学,113.549269,22.192065,113.54416666351082,22.19500345587907
B0H2HUJCUY,圣公会澳门蔡高中学附属幼稚园,科教文化服务;学校;幼儿园,141204,水坑尾街55号,[],820000,澳门特别行政区,1853,澳门特别行政区,820004,大堂区,科教文化服务,学校,幼儿园,113.549293,22.192121,113.5441907257103,22.19505952978567
B0LBAAAALN,阿坚奴-木工工场,科教文化服务;培训机构;培训机构,141400,"号地下,50 Tvdo Mercado Mun,Macao",[],820000,澳门特别行政区,1853,澳门特别行政区,820004,大堂区,科教文化服务,培训机构,培训机构,113.549863,22.191339,113.5447623322982,22.194278532791728
B0FFKZLTSO,时代音乐工作室,科教文化服务;科教文化场所;科教文化场所,140000,鲁子高街34号,[],820000,澳门特别行政区,1853,澳门特别行政区,820004,大堂区,科教文化服务,科教文化场所,科教文化场所,113.550345,22.190852,113.54524567092996,22.193792433814025
B0H0O5032Y,艺能美发培训中心,科教文化服务;培训机构;培训机构,141400,高冠街与腊八街交叉口南20米,15344865563,820000,澳门特别行政区,1853,澳门特别行政区,820004,大堂区,科教文化服务,培训机构,培训机构,113.550216,22.191228,113.54511629773978,22.194168280489937
B0LBAZCN9H,阿坚奴-书法工作室,科教文化服务;培训机构;培训机构,141400,"31号Tvdo Mercado Mun,Macao",00853-66678217,820000,澳门特别行政区,1853,澳门特别行政区,820004,大堂区,科教文化服务,培训机构,培训机构,113.55017,22.191531,113.5450701537157,22.194471285444248
B0FFGAP0H3,国际传教证道会托儿所,科教文化服务;学校;幼儿园,141204,伯多禄局长街与水坑尾街交叉口北40米,00853-28353193,820000,澳门特别行政区,1853,澳门特别行政区,820004,大堂区,科教文化服务,学校,幼儿园,113.549316,22.192426,113.54421376921408,22.19536468936687
B0FFI7HF6M,圣玛利亚英语交流中心,科教文化服务;培训机构;培训机构,141400,东望洋新街与腊八街交叉口北40米,00853-28353874,820000,澳门特别行政区,1853,澳门特别行政区,820004,大堂区,科教文化服务,培训机构,培训机构,113.550659,22.191404,113.54556048302152,22.194345324514348
B073D00DQI,培道中学,科教文化服务;学校;中学,141202,罗理基博士大马路263号,00853-28780770;00853-28782257,820000,澳门特别行政区,1853,澳门特别行政区,820004,大堂区,科教文化服务,学校,中学,113.551998,22.189637,113.5469031706279,22.19258062410097
B0IK6CP3IH,澳门城市大学保怡校区,科教文化服务;科教文化场所;科教文化场所,140000,北京街103B,00853-85902744;00853-85902746,820000,澳门特别行政区,1853,澳门特别行政区,820004,大堂区,科教文化服务,科教文化场所,科教文化场所,113.552504,22.188798,113.54741055842436,22.191742415226507
B073D00IO3,现代优质补习社,科教文化服务;学校;学校,141200,海洋花园大马路与花园街交叉口西南200米,[],820000,澳门特别行政区,1853,澳门特别行政区,820006,嘉模堂区,科教文化服务,学校,学校,113.546943,22.156247,113.54183648844898,22.15916691295215
B073D00INR,妇联小海豚托儿所,科教文化服务;学校;幼儿园,141204,海洋花园大马路与花园街交叉口西南160米,00853-28811043,820000,澳门特别行政区,1853,澳门特别行政区,820006,嘉模堂区,科教文化服务,学校,幼儿园,113.547429,22.156307,113.54232385051242,22.15922806503145
B073D0M6LK,澳门培华中学,科教文化服务;学校;中学,141202,海洋花园第二街90号,00853-28811019;00853-28811020,820000,澳门特别行政区,1853,澳门特别行政区,820006,嘉模堂区,科教文化服务,学校,中学,113.548609,22.15993,113.5435069026579,22.16285515863654
B0KKGG8GCE,夹子音乐中心(氹仔店),科教文化服务;学校;学校,141200,"海洋花园大马路Ocean Tower,7楼C",00853-68818514,820000,澳门特别行政区,1853,澳门特别行政区,820006,嘉模堂区,科教文化服务,学校,学校,113.548422,22.157315,113.54331955255712,22.160238734378435
B0FFK7GO2J,培华中学-培华小学暨幼稚园,科教文化服务;学校;幼儿园,141204,海洋花园第一街与海洋花园第二街交叉口东60米,[],820000,澳门特别行政区,1853,澳门特别行政区,820006,嘉模堂区,科教文化服务,学校,幼儿园,113.548742,22.159932,113.5436402697306,22.162857461957035
B0G14CEB28,中德学校,科教文化服务;学校;小学,141203,渔翁街90号,00853-28719621;00853-28719622,820000,澳门特别行政区,1853,澳门特别行政区,820001,花地玛堂区,科教文化服务,学校,小学,113.564735,22.201908,113.55966999554953,22.204880473054665
B0FFHNUNPU,聪颖补习中心,科教文化服务;培训机构;培训机构,141400,马揸度博士大马路与渔翁街交叉口西北40米,[],820000,澳门特别行政区,1853,澳门特别行政区,820001,花地玛堂区,科教文化服务,培训机构,培训机构,113.565176,22.202327,113.56011191157756,22.205300354452515
B073D00CHI,圣公会澳门蔡高中学,科教文化服务;学校;中学,141202,花地玛堂区马揸度博士大马路294号,00853-28341791,820000,澳门特别行政区,1853,澳门特别行政区,820001,花地玛堂区,科教文化服务,学校,中学,113.563562,22.203045,113.55849437573563,22.20601586513765
B0KGO7JKQO,中西创新学院产学研基地,科教文化服务;科研机构;科研机构,141300,澳门渔人码头励庭海景酒店侧后方,[],820000,澳门特别行政区,1853,澳门特别行政区,820004,大堂区,科教文化服务,科研机构,科研机构,113.561746,22.187444,113.55667531406831,22.19040619287115
B073D0M3BY,会议展览中心,科教文化服务;会展中心;会展中心,140300,新口岸友谊大马路澳门渔人码头-东西聚汇区地下和地库,00853-82993103,820000,澳门特别行政区,1853,澳门特别行政区,820004,大堂区,科教文化服务,会展中心,会展中心,113.560736,22.190968,113.55566277502024,22.193929609144515
B0LGUUHT0J,莲花艺术空间Lotus Art Space,科教文化服务;科教文化场所;科教文化场所,140000,澳门渔人码头励宫酒店地下H铺(商场入口右侧),[],820000,澳门特别行政区,1853,澳门特别行政区,820004,大堂区,科教文化服务,科教文化场所,科教文化场所,113.560798,22.191825,113.55572486362688,22.19478702651825
B073D00LVD,澳门中国艺术馆,科教文化服务;美术馆;美术馆,140400,孙逸仙大马路与蒙地卡罗前地交叉口东80米,[],820000,澳门特别行政区,1853,澳门特别行政区,820004,大堂区,科教文化服务,美术馆,美术馆,113.560825,22.189851,113.5557520518584,22.19281237630875
B0FFGH7AW8,妇联学校,科教文化服务;学校;学校,141200,马揸度博士大马路539号,00853-28353595,820000,澳门特别行政区,1853,澳门特别行政区,820001,花地玛堂区,科教文化服务,学校,学校,113.562329,22.202681,113.55725865953012,22.205649579258647
B073D0M3C1,火山资料馆,科教文化服务;展览馆;展览馆,140200,贾梅士葡国餐厅旁,[],820000,澳门特别行政区,1853,澳门特别行政区,820004,大堂区,科教文化服务,展览馆,展览馆,113.560885,22.191707,113.555812071922,22.194669144476865
B073D00BLO,澳门文化中心,科教文化服务;文化宫;文化宫,140800,新口岸新填海区冼星海大马路,00853-28960181,820000,澳门特别行政区,1853,澳门特别行政区,820004,大堂区,科教文化服务,文化宫,文化宫,113.560154,22.185934,113.55507974371272,22.18889273664563
B073D00GZA,澳门回归贺礼陈列馆,科教文化服务;展览馆;展览馆,140200,澳门新口岸冼星海大马路(文化中心旁),[],820000,澳门特别行政区,1853,澳门特别行政区,820004,大堂区,科教文化服务,展览馆,展览馆,113.559246,22.187115,113.55416953144253,22.190072452941585
B073D00BQV,妇联小燕子托儿所,科教文化服务;学校;幼儿园,141204,马揸度博士大马路与黑沙环海边马路交叉口北80米,00853-28769675,820000,澳门特别行政区,1853,澳门特别行政区,820001,花地玛堂区,科教文化服务,学校,幼儿园,113.561876,22.202757,113.55680463248352,22.205724796329267
B0FFH1SP1K,社会工作局健康生活教育园地,科教文化服务;科教文化场所;科教文化场所,140000,黑沙环新街578号RNam Wa San Chun,[],820000,澳门特别行政区,1853,澳门特别行政区,820001,花地玛堂区,科教文化服务,科教文化场所,科教文化场所,113.562115,22.203565,113.55704412130385,22.20653350161441
B073D00BM7,通讯博物馆,科教文化服务;博物馆;博物馆,140100,马交石炮台马路7号,00853-28718063;00853-28718570,820000,澳门特别行政区,1853,澳门特别行政区,820001,花地玛堂区,科教文化服务,博物馆,博物馆,113.560073,22.200277,113.55499763943118,22.20324064105233
B073D00BDD,澳门中华总商会附设商训夜中学,科教文化服务;学校;中学,141202,马揸度博士大马路523-547号,00853-28313099,820000,澳门特别行政区,1853,澳门特别行政区,820001,花地玛堂区,科教文化服务,学校,中学,113.561157,22.201982,113.55608404226729,22.204948228930075
B0KKZZFZ46,思博补习中心I,科教文化服务;培训机构;培训机构,141400,"黑沙环海边巷47号,Edificio Hantec,地下G铺",00853-63449879,820000,澳门特别行政区,1853,澳门特别行政区,820001,花地玛堂区,科教文化服务,培训机构,培训机构,113.561448,22.201798,113.55637572015546,22.204764694435145
B0FFIGS6R7,澳门艺术博物馆图书馆,科教文化服务;科教文化场所;科教文化场所,140000,冼星海大马路与马徳里街交叉口东北100米,00853-87919802;00853-87919803,820000,澳门特别行政区,1853,澳门特别行政区,820004,大堂区,科教文化服务,科教文化场所,科教文化场所,113.560289,22.186063,113.55521505038465,22.1890220339838
B0H2YAX9GX,澳门现代芭蕾舞团教育中心,科教文化服务;培训机构;培训机构,141400,孙逸仙大马路与毕仕达大马路交叉口北60米,[],820000,澳门特别行政区,1853,澳门特别行政区,820004,大堂区,科教文化服务,培训机构,培训机构,113.559251,22.191954,113.5541742345714,22.194913183480303
B0KRGUKQ29,澳国青艺术教育培训中心,科教文化服务;培训机构;培训机构,141400,毕仕达大马路1321号,[],820000,澳门特别行政区,1853,澳门特别行政区,820004,大堂区,科教文化服务,培训机构,培训机构,113.55925,22.191963,113.55417323162568,22.19492218476481
B0FFLBYL8I,儒林补习教育中心10,科教文化服务;培训机构;培训机构,141400,"马交石街38号,Nam Wa San Chun",[],820000,澳门特别行政区,1853,澳门特别行政区,820001,花地玛堂区,科教文化服务,培训机构,培训机构,113.561438,22.202775,113.55636563499708,22.205742012549607
B0KKGG8UC2,Associacao Dos Familiares Encarregados Dos Deficientes Mentais De,科教文化服务;科教文化场所;科教文化场所,140000,"劳动节大马路518号,Edificio Kwong Wa(bloco 7)",[],820000,澳门特别行政区,1853,澳门特别行政区,820001,花地玛堂区,科教文化服务,科教文化场所,科教文化场所,113.562341,22.204666,113.55727055989377,22.207635281175
B0FFHBMLD6,新社亮汽车电单车教授驾驶学校有限公司,科教文化服务;科教文化场所;科教文化场所,140000,黑沙环新街与马交石街交叉口北40米,[],820000,澳门特别行政区,1853,澳门特别行政区,820001,花地玛堂区,科教文化服务,科教文化场所,科教文化场所,113.561857,22.203911,113.55678551581693,22.20687915825168
B0FFH1JLA8,黑沙环消防局行动站暨消防学校,科教文化服务;学校;成人教育,141205,花地玛堂区黑沙环海边马路396号附近,[],820000,澳门特别行政区,1853,澳门特别行政区,820001,花地玛堂区,科教文化服务,学校,成人教育,113.560463,22.202681,113.55538839511908,22.205646194741416
B073D00B1S,明爱幼稚园,科教文化服务;学校;幼儿园,141204,劳动节大马路,00853-28762301,820000,澳门特别行政区,1853,澳门特别行政区,820001,花地玛堂区,科教文化服务,学校,幼儿园,113.560944,22.205456,113.55587033083992,22.20842303067574
B073D00C4B,濠江驾驶学校,科教文化服务;驾校;驾校,141500,"东北大马路170号号Tong Wa San Chun,濠江驾驶学校有限公司180",00853-28768768,820000,澳门特别行政区,1853,澳门特别行政区,820001,花地玛堂区,科教文化服务,驾校,驾校,113.560331,22.203572,113.55525603125236,22.206537256111464
B0FFKZNLLQ,MathConcept数学思维教室(东方明珠),科教文化服务;培训机构;培训机构,141400,黑沙环中街145号保利达花园地下BL座,00853-28703608,820000,澳门特别行政区,1853,澳门特别行政区,820001,花地玛堂区,科教文化服务,培训机构,培训机构,113.561585,22.206885,113.55651270806248,22.209853683298704
B073D0M362,黑沙环公园黄营均图书馆,科教文化服务;图书馆;图书馆,140500,劳动节大马路澳门黑沙环黑沙环公园南,[],820000,澳门特别行政区,1853,澳门特别行政区,820001,花地玛堂区,科教文化服务,图书馆,图书馆,113.560954,22.206588,113.5558802816445,22.209555434649733
B073D00AVC,妇联第三托儿所,科教文化服务;学校;幼儿园,141204,黑沙环海边马路,[],820000,澳门特别行政区,1853,澳门特别行政区,820001,花地玛堂区,科教文化服务,学校,幼儿园,113.559808,22.204293,113.55473176193937,22.207257527464133
B073D00APF,澳门坊众学校小学部,科教文化服务;学校;小学,141203,花地玛堂区东北大马路109号,00853-28450311,820000,澳门特别行政区,1853,澳门特别行政区,820001,花地玛堂区,科教文化服务,学校,小学,113.559544,22.203388,113.55446719804884,22.20635172078849
B0FFHWRR50,新华澳报,科教文化服务;科教文化场所;科教文化场所,140000,慕拉士大马路与东北大马路交叉口东40米,00853-28717568,820000,澳门特别行政区,1853,澳门特别行政区,820001,花地玛堂区,科教文化服务,科教文化场所,科教文化场所,113.559521,22.202395,113.55444420713846,22.205358336216594
B073D0M5NL,澳门日报,科教文化服务;传媒机构;报社,141103,慕拉士大马路218、218A-B,00853-28371688,820000,澳门特别行政区,1853,澳门特别行政区,820001,花地玛堂区,科教文化服务,传媒机构,报社,113.558655,22.202289,113.55357615447753,22.205250651472262
B0KKSP25EW,关爱督课中心2,科教文化服务;培训机构;培训机构,141400,黑沙环海边马路Jardim Nam Ou(bloco 3)地下Z铺,[],820000,澳门特别行政区,1853,澳门特别行政区,820001,花地玛堂区,科教文化服务,培训机构,培训机构,113.559209,22.203469,113.55413140004347,22.206432114669603
B0LG9SVQNK,澳门少林文化教育中心(黑沙环校区),科教文化服务;科教文化场所;科教文化场所,140000,澳门黑沙环广福祥第二座管理处(皇太子粥粉面旁)上电梯至三楼F、3楼G,[],820000,澳门特别行政区,1853,澳门特别行政区,820001,花地玛堂区,科教文化服务,科教文化场所,科教文化场所,113.560588,22.207354,113.55551338700364,22.210321022122216
B073D0M2YE,乐富中葡幼稚园,科教文化服务;学校;幼儿园,141204,劳动节大马路裕华新村地下及1层,00853-28455016,820000,澳门特别行政区,1853,澳门特别行政区,820001,花地玛堂区,科教文化服务,学校,幼儿园,113.559797,22.206243,113.55472061162853,22.2092081725424
B0K3MZSC09,圣安东尼幼稚园,科教文化服务;学校;幼儿园,141204,澳门劳动节大马路214号裕华大厦地下,00853-28322088,820000,澳门特别行政区,1853,澳门特别行政区,820001,花地玛堂区,科教文化服务,学校,幼儿园,113.559812,22.206303,113.55473564304364,22.209268221106697
B0J3VX3YEM,理想自习室(澳门),科教文化服务;培训机构;培训机构,141400,劳动节街180号,[],820000,澳门特别行政区,1853,澳门特别行政区,820001,花地玛堂区,科教文化服务,培训机构,培训机构,113.560061,22.207296,113.55498516341451,22.210262024495457
B0FFI7ME39,澳门测量暨地籍学校,科教文化服务;科教文化场所;科教文化场所,140000,马交石炮台马路与新雅马路交叉口东80米,00853-28340040,820000,澳门特别行政区,1853,澳门特别行政区,820001,花地玛堂区,科教文化服务,科教文化场所,科教文化场所,113.559047,22.20115,113.55396916307576,22.20411200854347
B073D00BY9,澳门濠江中学,科教文化服务;学校;中学,141202,亚马喇马路3号,00853-28337954;00853-28337956,820000,澳门特别行政区,1853,澳门特别行政区,820001,花地玛堂区,科教文化服务,学校,中学,113.558541,22.199707,113.55346204600306,22.20266754070728
B0FFI7B1U6,Plataforma Macau,科教文化服务;科教文化场所;科教文化场所,140000,慕拉士大马路与东北大马路交叉口西20米,00853-28822020,820000,澳门特别行政区,1853,澳门特别行政区,820001,花地玛堂区,科教文化服务,科教文化场所,科教文化场所,113.558894,22.202519,113.55381571112534,22.20548118835876
B073D00M6A,澳门浸信中学(黑沙环中街),科教文化服务;学校;中学,141202,花地玛堂区黑沙环中街410号,00853-28470388,820000,澳门特别行政区,1853,澳门特别行政区,820001,花地玛堂区,科教文化服务,学校,中学,113.560799,22.208985,113.55572477116404,22.211952963032047
B0JK7CORLP,澳艺舞蹈学院,科教文化服务;培训机构;培训机构,141400,劳动节街253号(浸信幼稚园对面),[],820000,澳门特别行政区,1853,澳门特别行政区,820001,花地玛堂区,科教文化服务,培训机构,培训机构,113.560471,22.208067,113.55539606999164,22.211034047727743
B0KKMPJDXD,澳门侍茄师协会Macau Association of Cigar Sommeliers,科教文化服务;科教文化场所;科教文化场所,140000,"慕拉士大马路195号,Edificio Industrial Nam Leng,9F",00853-63351000,820000,澳门特别行政区,1853,澳门特别行政区,820001,花地玛堂区,科教文化服务,科教文化场所,科教文化场所,113.55864,22.203328,113.55356105221178,22.20628997974296
B073D00BRH,新殷彬教授驾驶汽车学校,科教文化服务;驾校;驾校,141500,"新殷彬教授驾驶汽车学校Avenida do 1度de Maio,162,r/c,Loja D,EdifU Wa,澳门",00853-28367888;00853-28367918,820000,澳门特别行政区,1853,澳门特别行政区,820001,花地玛堂区,科教文化服务,驾校,驾校,113.559806,22.206966,113.5547295866269,22.209931435351752
B0K0PMVQMP,圣心学校,科教文化服务;学校;学校,141200,黑沙环中街326号,[],820000,澳门特别行政区,1853,澳门特别行政区,820001,花地玛堂区,科教文化服务,学校,学校,113.560663,22.208791,113.55558846904896,22.211758647237414
B073D00AQ2,中葡职业技术学校,科教文化服务;学校;职业技术学校,141206,花地玛堂区劳动节街,00853-28456071,820000,澳门特别行政区,1853,澳门特别行政区,820001,花地玛堂区,科教文化服务,学校,职业技术学校,113.558821,22.206988,113.55374225153668,22.209951576579208
B073D00D0F,妇联第一托儿所,科教文化服务;学校;幼儿园,141204,区神父街273号,00853-28722204,820000,澳门特别行政区,1853,澳门特别行政区,820001,花地玛堂区,科教文化服务,学校,幼儿园,113.558134,22.202513,113.5530538869278,22.205473723139463
B0LB4SDXQI,黑沙环公园黄营均儿童图书馆,科教文化服务;图书馆;图书馆,140500,劳动节大马路49号,[],820000,澳门特别行政区,1853,澳门特别行政区,820001,花地玛堂区,科教文化服务,图书馆,图书馆,113.559235,22.208058,113.55415716877846,22.211022728543742
B0L6ZANWCL,新新教育,科教文化服务;培训机构;培训机构,141400,黑沙环中街与劳动节街交叉口西北60米,00853-28482027,820000,澳门特别行政区,1853,澳门特别行政区,820001,花地玛堂区,科教文化服务,培训机构,培训机构,113.560045,22.208501,113.55496904906424,22.21146740305506
B0FFI7AJBJ,当代教育中心II,科教文化服务;科教文化场所;科教文化场所,140000,"Avenida 1o de Maio,no75,Jardim Kong Fok On,r/c,loja CP,澳门",[],820000,澳门特别行政区,1853,澳门特别行政区,820001,花地玛堂区,科教文化服务,科教文化场所,科教文化场所,113.559838,22.208204,113.55476158276944,22.21116991532276
B0FFI7HM07,当代教育中心,科教文化服务;科教文化场所;科教文化场所,140000,黑沙环中街与劳动节街交叉口西80米,00853-28838551,820000,澳门特别行政区,1853,澳门特别行政区,820001,花地玛堂区,科教文化服务,科教文化场所,科教文化场所,113.559838,22.208204,113.55476158276944,22.21116991532276
B0FFHWQT1V,时代音乐工作室,科教文化服务;培训机构;培训机构,141400,黑沙环中街与劳动节街交叉口西北60米,[],820000,澳门特别行政区,1853,澳门特别行政区,820001,花地玛堂区,科教文化服务,培训机构,培训机构,113.56022,22.208724,113.55514444372945,22.211690804533955
B073D00CGU,鲍思高粤华小学,科教文化服务;学校;小学,141203,花地玛堂区亚马喇马路,00853-28337927;00853-28337928,820000,澳门特别行政区,1853,澳门特别行政区,820001,花地玛堂区,科教文化服务,学校,小学,113.557518,22.19994,113.55243655576449,22.202898633164946
B073D0MB8O,圣保禄中学(马交石斜坡),科教文化服务;学校;中学,141202,马交石斜坡10,[],820000,澳门特别行政区,1853,澳门特别行政区,820001,花地玛堂区,科教文化服务,学校,中学,113.557285,22.202476,113.55220282430736,22.20543505008796
B0KUHRGW0Z,Monkey Tree English Learning Center东方明珠,科教文化服务;科教文化场所;科教文化场所,140000,黑沙环中街海上居-商铺地下P座,[],820000,澳门特别行政区,1853,澳门特别行政区,820001,花地玛堂区,科教文化服务,科教文化场所,科教文化场所,113.560451,22.209499,113.5553759321283,22.212466494889203
B0FFM8XS2R,澳门未名教育-精补初高中全科,科教文化服务;科教文化场所;科教文化场所,140000,劳动节大马路与马场东大马路交叉口东80米,00853-28436302;00853-65270896,820000,澳门特别行政区,1853,澳门特别行政区,820001,花地玛堂区,科教文化服务,科教文化场所,科教文化场所,113.559506,22.208032,113.55442881189424,22.210997232601628
B0FFIBAPA4,圣保禄学校,科教文化服务;学校;学校,141200,马交石斜坡与观音堂街交叉口东南60米,[],820000,澳门特别行政区,1853,澳门特别行政区,820001,花地玛堂区,科教文化服务,学校,学校,113.556602,22.202501,113.55151814120497,22.20545870340111
B0FFIGVSS2,恩慈院儿童之家,科教文化服务;科教文化场所;科教文化场所,140000,花地玛堂区,[],820000,澳门特别行政区,1853,澳门特别行政区,820001,花地玛堂区,科教文化服务,科教文化场所,科教文化场所,113.55721,22.203864,113.55212755188926,22.20682337866624
B0FFGPPPVC,望厦图书馆,科教文化服务;图书馆;图书馆,140500,慕拉士大马路望善楼,00853-28317288,820000,澳门特别行政区,1853,澳门特别行政区,820001,花地玛堂区,科教文化服务,图书馆,图书馆,113.557009,22.203684,113.55192606981755,22.206642919362253
B0FFHD13RV,工联望老,科教文化服务;科教文化场所;科教文化场所,140000,慕拉士大马路182号,[],820000,澳门特别行政区,1853,澳门特别行政区,820001,花地玛堂区,科教文化服务,科教文化场所,科教文化场所,113.557138,22.203871,113.55205537482064,22.206830238813264
B0FFHQ9OBV,Rcr,科教文化服务;科教文化场所;科教文化场所,140000,马场东大马路与中心街交叉口南40米,00853-28221341,820000,澳门特别行政区,1853,澳门特别行政区,820001,花地玛堂区,科教文化服务,科教文化场所,科教文化场所,113.559076,22.208728,113.55399774828985,22.211692653103224
B0KKGG4TX9,儒林补习教育中心11,科教文化服务;学校;学校,141200,马交石斜坡Edificio Fok Hoi(edfFok Wa Court)地下AK座,00853-28521883,820000,澳门特别行政区,1853,澳门特别行政区,820001,花地玛堂区,科教文化服务,学校,学校,113.556936,22.201894,113.55185300451149,22.20485215938364
B0FFI7GAXD,凤凰天空出版社,科教文化服务;科教文化场所;科教文化场所,140000,高利亚海军上将大马路与慕拉士大马路交叉口东北60米,00853-28937968,820000,澳门特别行政区,1853,澳门特别行政区,820001,花地玛堂区,科教文化服务,科教文化场所,科教文化场所,113.557137,22.204665,113.55205432164956,22.20762450863902
B0FFL1A62H,濠江日报,科教文化服务;科教文化场所;科教文化场所,140000,马场东大马路33号福泰工业大厦,00853-28282323,820000,澳门特别行政区,1853,澳门特别行政区,820001,花地玛堂区,科教文化服务,科教文化场所,科教文化场所,113.557753,22.20664,113.5526717001454,22.20960139297081
B0FFL7ZIQ7,松山军用隧道B组,科教文化服务;科教文化场所;科教文化场所,140000,士多鸟拜斯大马路与水塘马路交叉口南200米,00853-28827103,820000,澳门特别行政区,1853,澳门特别行政区,820003,望德堂区,科教文化服务,科教文化场所,科教文化场所,113.557833,22.197107,113.55275250321148,22.20006526485238
B0FFFXHDEE,菜农子弟学校(湾景分校)幼稚园,科教文化服务;学校;幼儿园,141204,祐汉马场永宁街151号地下,[],820000,澳门特别行政区,1853,澳门特别行政区,820001,花地玛堂区,科教文化服务,学校,幼儿园,113.558825,22.209418,113.5537461059295,22.212382407155705
B073D0M4SK,教育暨青年局骏菁活动中心,科教文化服务;科教文化场所;科教文化场所,140000,花地玛堂区黑沙环顺景广场(近马场东大马路),00853-28425110;00853-28425112,820000,澳门特别行政区,1853,澳门特别行政区,820001,花地玛堂区,科教文化服务,科教文化场所,科教文化场所,113.559271,22.210577,113.55419309332773,22.21354264726123
B0FFLLIK86,澳门国际象棋总会,科教文化服务;科教文化场所;科教文化场所,140000,美副将大马路与文第士街交叉口东南40米,00853-28788788,820000,澳门特别行政区,1853,澳门特别行政区,820001,花地玛堂区,科教文化服务,科教文化场所,科教文化场所,113.556855,22.199601,113.55177195140234,22.202558206126778
B0JRG53G2W,小海鸥托儿所,科教文化服务;学校;幼儿园,141204,望善街望厦社屋望德楼第二座1楼B1,[],820000,澳门特别行政区,1853,澳门特别行政区,820001,花地玛堂区,科教文化服务,学校,幼儿园,113.556499,22.20435,113.55141476794438,22.207308131904583
B073D0M7IJ,新爱乐音乐培训中心,科教文化服务;培训机构;培训机构,141400,马交石斜坡29,[],820000,澳门特别行政区,1853,澳门特别行政区,820001,花地玛堂区,科教文化服务,培训机构,培训机构,113.556317,22.202733,113.551232419427,22.205690212518107
B073D0M75B,乐天补习中心,科教文化服务;培训机构;培训机构,141400,永宁街与中心街交叉口北40米,[],820000,澳门特别行政区,1853,澳门特别行政区,820001,花地玛堂区,科教文化服务,培训机构,培训机构,113.558771,22.209467,113.55369197375624,22.21243132031491
B0KKSPS5V3,澳门民主协会,科教文化服务;科教文化场所;科教文化场所,140000,美副将大马路2d号号,[],820000,澳门特别行政区,1853,澳门特别行政区,820001,花地玛堂区,科教文化服务,科教文化场所,科教文化场所,113.556582,22.199962,113.55149825388192,22.202918787189684
B073D00AHL,工联会职业技能培训中心,科教文化服务;培训机构;培训机构,141400,马场海边马路64号利昌工业大厦1层,[],820000,澳门特别行政区,1853,澳门特别行政区,820001,花地玛堂区,科教文化服务,培训机构,培训机构,113.556742,22.206379,113.55165823960373,22.209338309516934
B0FFHWQS9O,V Studio,科教文化服务;科教文化场所;科教文化场所,140000,慕拉士大马路与俾利喇街交叉口东40米,00853-63932002,820000,澳门特别行政区,1853,澳门特别行政区,820001,花地玛堂区,科教文化服务,科教文化场所,科教文化场所,113.556474,22.204921,113.5513896694754,22.207879277143
B073D00C5M,新干线督课中心,科教文化服务;培训机构;培训机构,141400,美副将大马路9-F,[],820000,澳门特别行政区,1853,澳门特别行政区,820003,望德堂区,科教文化服务,培训机构,培训机构,113.556164,22.200098,113.55107920696162,22.203053995976468
B0KKGGXJXJ,公文式佑汉教育中心,科教文化服务;培训机构;培训机构,141400,"马场北大马路5-87号二﹑三座地下I座EdfJardim Hoi Keng,第一﹑",00853-62231381,820000,澳门特别行政区,1853,澳门特别行政区,820001,花地玛堂区,科教文化服务,培训机构,培训机构,113.559203,22.210399,113.55412494337352,22.21336445832584
B073D00CVQ,小小世界督课补习中心,科教文化服务;培训机构;培训机构,141400,文第士街39-B,00853-28550448;00853-28850448,820000,澳门特别行政区,1853,澳门特别行政区,820003,望德堂区,科教文化服务,培训机构,培训机构,113.556264,22.199519,113.55117949293768,22.20247499653373
B0K3JS9230,教育暨青年局教育心理辅导暨特殊教育中心,科教文化服务;培训机构;培训机构,141400,菜园路415号永宁广场大厦3座GF-1F,00853-84905285,820000,澳门特别行政区,1853,澳门特别行政区,820001,花地玛堂区,科教文化服务,培训机构,培训机构,113.558211,22.209709,113.5531306132904,22.21267232334882
B0FFHWSY0B,宣信教育中心,科教文化服务;科教文化场所;科教文化场所,140000,马场北大马路与马场东大马路交叉口西南60米,00853-28813015;00853-28813016,820000,澳门特别行政区,1853,澳门特别行政区,820001,花地玛堂区,科教文化服务,科教文化场所,科教文化场所,113.559038,22.210517,113.55395954363928,22.21348218419322
B073D00BIA,永添中葡幼稚园,科教文化服务;学校;幼儿园,141204,中心街162号,[],820000,澳门特别行政区,1853,澳门特别行政区,820001,花地玛堂区,科教文化服务,学校,幼儿园,113.557782,22.209014,113.55270061898776,22.21197625441702
