id,name,type,typecode,address,location,tel,pcode,pname,citycode,cityname,adcode,adname,gridcode,distance,business_area,timestamp,biz_ext,行业大类,行业中类,行业小类,Unnamed: 21,X,Y,wgs84_经度,wgs84_纬度
531b36a1-2997-3981-8b5d-f32505f96d46,南京惠好摩托车服务公司,摩托车服务;摩托车维修;摩托车维修,40200,龙蟠中路596号(武定门地铁站3号口步行360米),"118.797767,32.014552",025-84498638,320000,江苏省,25,南京市,320104,秦淮区,4818061322,1820,秦虹,2022-11-23 02:34:00,"{""rating"": ""4.4"", ""cost"": []}",摩托车服务,摩托车维修,摩托车维修,,118.797767,32.014552,118.79258915358167,32.016618703415126
5e4d6303-9466-357f-9524-87ad3c1d3e9d,飞跃摩配,摩托车服务;摩托车服务相关;摩托车服务相关,40000,公园北路12号环岛公寓门面房,"118.629665,32.063370",[],320000,江苏省,25,南京市,320111,浦口区,4818057011,1654,公园北路,2023-05-09 01:32:00,"{""rating"": ""4.3"", ""cost"": []}",摩托车服务,摩托车服务相关,摩托车服务相关,,118.629665,32.06337,118.62463292665949,32.06557487361871
548f2041-5977-35d3-894e-2cc494b7dc5c,光阳摩配(洪武路店),摩托车服务;摩托车维修;摩托车维修,40200,洪武路390号(张府园地铁站2号口步行240米),"118.786135,32.030132",025-84546534,320000,江苏省,25,南京市,320104,秦淮区,4818063212,790,新街口,2023-05-02 04:26:00,"{""rating"": ""4.1"", ""cost"": []}",摩托车服务,摩托车维修,摩托车维修,,118.786135,32.030132,118.78093738814424,32.03218603151788
9731a885-d12f-39cf-b675-3ecf7f30a232,江宁区秣陵镇天马摩托总经销,摩托车服务;摩托车销售;摩托车销售,40100,凤仪街93附近,"118.839665,31.838168",[],320000,江苏省,25,南京市,320115,江宁区,4718660710,659,秣陵,2023-03-14 12:50:00,"{'rating': '3.1', 'cost': []}",摩托车服务,摩托车销售,摩托车销售,,118.839665,31.838168,118.83458820777555,31.8402711953692
5b460c7c-75e4-3050-a928-f9465257ceec,麦莎摩配,摩托车服务;摩托车服务相关;摩托车服务相关,40000,太平南路娃娃桥1号(常府街地铁站1号口步行340米),"118.791019,32.030095",158****4909,320000,江苏省,25,南京市,320104,秦淮区,4818063310,1220,新街口,2023-05-08 11:49:00,"{""rating"": ""4.1"", ""cost"": []}",摩托车服务,摩托车服务相关,摩托车服务相关,,118.791019,32.030095,118.78582860249696,32.03215541713502
5f5e0092-e932-394a-9bd5-066969dfb254,强昕摩配,摩托车服务;摩托车服务相关;摩托车服务相关,40000,雄风路18号,"118.659665,31.918673",025-86726726,320000,江苏省,25,南京市,320114,雨花台区,4718750202,1212,[],2023-05-02 04:26:00,"{""rating"": ""4.3"", ""cost"": []}",摩托车服务,摩托车服务相关,摩托车服务相关,,118.659665,31.918673,118.65459130144522,31.92079693378626
a90cb6fa-2d07-324f-a8e4-6d991c2305f8,有信摩托车电动车,摩托车服务;摩托车维修;摩托车维修,40200,朝天街34号,"118.835246,32.339805",158****2864,320000,江苏省,25,南京市,320116,六合区,4818460622,1616,江北新区,2023-05-09 11:55:00,"{""rating"": ""3.6"", ""cost"": []}",摩托车服务,摩托车维修,摩托车维修,,118.835246,32.339805,118.83011411658713,32.34198578361298
85d001d7-859c-3bde-abf0-73a107c7b26d,云南路摩托车电动车维修,摩托车服务;摩托车维修;摩托车维修,40200,云南路21-4号,"118.774803,32.061851",025-83305194,320000,江苏省,25,南京市,320106,鼓楼区,4818067112,1849,南大,2023-04-01 14:18:00,"{""rating"": ""4.2"", ""cost"": []}",摩托车服务,摩托车维修,摩托车维修,,118.774803,32.061851,118.76958885724216,32.0639000132732
781d3048-8152-3231-8489-a45a93f414dc,志豪摩配,摩托车服务;摩托车维修;摩托车维修,40200,瑞金路街道解放南路111-2号,"118.810542,32.031075",025-84643827;131****1715,320000,江苏省,25,南京市,320104,秦淮区,4818063422,277,大光路,2023-05-02 04:26:00,"{""rating"": ""4.3"", ""cost"": []}",摩托车服务,摩托车维修,摩托车维修,,118.810542,32.031075,118.80538664503896,32.03316668425435
a0135a4b-93f7-3790-bdff-160b01436cfb,志军车行,摩托车服务;摩托车销售;摩托车销售,40100,芜船路与千墩山路交叉口西40米,"119.114120,31.306820",130****4208,320000,江苏省,25,南京市,320118,高淳区,4619706920,515,[],2023-04-11 01:23:00,"{'rating': '3.6', 'cost': []}",摩托车服务,摩托车销售,摩托车销售,,119.11412,31.30682,119.10871742933172,31.308662424429976
9247b7f9-4ec9-3537-b743-aa20f4e5fa1e,金城摩托(东沟中医院东南),摩托车服务;摩托车销售;摩托车销售,40100,东红路(南京市六合区东沟镇农业服务中心东),"118.994235,32.269570",[],320000,江苏省,25,南京市,320116,六合区,4818372911,640,江北新区,2022-11-21 22:18:00,"{""rating"": ""3.5"", ""cost"": []}",摩托车服务,摩托车销售,摩托车销售,,118.994235,32.26957,118.9889844045141,32.27165506733479
c2230c61-10cc-3828-ae7f-35a7eeddb181,金城摩托维修站(叶庄路),摩托车服务;摩托车维修;摩托车维修,40200,划子口东路与兴隆街交叉口东北120米,"118.954052,32.197718",[],320000,江苏省,25,南京市,320116,六合区,4818273620,64,江北新区,2023-04-04 13:43:00,"{""rating"": [], ""cost"": []}",摩托车服务,摩托车维修,摩托车维修,,118.954052,32.197718,118.94894052375204,32.19990405682934
053367a8-b2cf-35b1-88ac-5f4bb0c49e48,二宝摩托车城,摩托车服务;摩托车销售;摩托车销售,40100,珍珠路4号1幢,"119.031325,31.657065",025-57225982,320000,江苏省,25,南京市,320117,溧水区,4719308221,1855,永阳,2023-05-02 09:37:00,"{""rating"": ""4.2"", ""cost"": []}",摩托车服务,摩托车销售,摩托车销售,,119.031325,31.657065,119.02600087190552,31.65893703451897
7f204d84-f19f-3c7e-8de2-43183c5fcc0b,铃木豪爵特许维修店(园林东路),摩托车服务;摩托车维修;摩托车维修,40200,园林东路45-2号,"118.850681,32.349873",025-57125053,320000,江苏省,25,南京市,320116,六合区,4818461820,618,江北新区,2023-04-01 13:54:00,"{""rating"": ""4.0"", ""cost"": []}",摩托车服务,摩托车维修,摩托车维修,,118.850681,32.349873,118.84557937557403,32.35208134644623
7a2e5717-db08-3b62-a1b6-8d71931542cd,长城摩配,摩托车服务;摩托车维修;摩托车维修,40200,雄州街道园林西路6号,"118.844180,32.351280",131****7997,320000,江苏省,25,南京市,320116,六合区,4818462701,88,江北新区,2023-05-04 13:33:00,"{""rating"": ""3.8"", ""cost"": []}",摩托车服务,摩托车维修,摩托车维修,,118.84418,32.35128,118.83906553001046,32.35347704756382
9e9346d8-333f-3eb6-9746-617d25b381dc,老虎摩配(集镇南路店),摩托车服务;摩托车服务相关;摩托车服务相关,40000,鹂岛路57-25号,"118.820097,32.171824",[],320000,江苏省,25,南京市,320113,栖霞区,4818260511,268,八卦洲,2022-09-05 02:05:00,"{'rating': '4.0', 'cost': []}",摩托车服务,摩托车服务相关,摩托车服务相关,,118.820097,32.171824,118.81494838618666,32.17396142416752
3c8ae8b1-1f04-3d5c-9166-d9b6d2affac2,新大洲本田,摩托车服务;摩托车销售;摩托车销售,40100,龙津路51号,"118.843359,32.341067",[],320000,江苏省,25,南京市,320116,六合区,4818460721,1221,江北新区,2022-09-07 19:59:00,"{""rating"": ""3.7"", ""cost"": []}",摩托车服务,摩托车销售,摩托车销售,,118.843359,32.341067,118.83824381510394,32.343262647090015
4ee521b2-1c07-34cc-8899-e877b3a29585,新大洲本田天印大道店,摩托车服务;摩托车销售;摩托车销售,40100,东山街道天印大道720-3,"118.858080,31.958679",138****6802,320000,江苏省,25,南京市,320115,江宁区,4718765801,1533,[],2023-04-25 20:52:00,"{""rating"": ""3.5"", ""cost"": []}",摩托车服务,摩托车销售,摩托车销售,,118.85808,31.958679,118.8530274521586,31.960839353790885
78434ce7-6fd0-36c1-bda0-eb4f484642c1,老唐摩托车电动车车行,摩托车服务;摩托车维修;摩托车维修,40200,柏果树47-1号附近(汉中门地铁站3号口步行340米),"118.767705,32.040064",[],320000,江苏省,25,南京市,320104,秦淮区,4818064121,1275,汉中门,2023-05-04 15:59:00,"{""rating"": ""4.1"", ""cost"": []}",摩托车服务,摩托车维修,摩托车维修,,118.767705,32.040064,118.76248683389387,32.0421027148759
d1fde755-ea88-39e7-8b99-5aba9dc80508,辰龙车行,摩托车服务;摩托车销售;摩托车销售,40100,虎踞路54-2号,"118.761517,32.046773",[],320000,江苏省,25,南京市,320106,鼓楼区,4818065012,1054,汉中门,2023-05-09 05:42:00,"{""rating"": ""4.1"", ""cost"": []}",摩托车服务,摩托车销售,摩托车销售,,118.761517,32.046773,118.7562946371769,32.04880993579188
00f1526e-cd5a-3ee8-b7a9-ef52d72be2d2,南京来俊特约维修站,摩托车服务;摩托车维修;摩托车维修,40200,南京市秦淮区马路街14号,"118.798883,32.029220",[],320000,江苏省,25,南京市,320104,秦淮区,4818063312,1961,大光路,2023-04-20 00:53:00,"{""rating"": ""4.4"", ""cost"": []}",摩托车服务,摩托车维修,摩托车维修,,118.798883,32.02922,118.7937057596708,32.03129178632376
af93b86e-9a3e-310e-9284-7e09598c4cd2,江苏宗申,摩托车服务;摩托车销售;摩托车销售,40100,沙上路与戴山线交叉口东340米,"119.099555,31.472184",[],320000,江苏省,25,南京市,320117,溧水区,4719106712,237,[],2022-09-05 16:04:00,"{""rating"": ""3.5"", ""cost"": []}",摩托车服务,摩托车销售,摩托车销售,,119.099555,31.472184,119.09413154358651,31.473973693165146
bd8a0132-1347-326e-b6f0-8bfe59801907,金城摩托(横云社区卫生服务站北),摩托车服务;摩托车销售;摩托车销售,40100,横溪镇横云北路65号,"118.781451,31.714405",[],320000,江苏省,25,南京市,320115,江宁区,4718465221,1016,[],2023-04-08 22:32:00,"{""rating"": ""3.5"", ""cost"": []}",摩托车服务,摩托车销售,摩托车销售,,118.781451,31.714405,118.77627617490784,31.71639327348096
6a708d6d-e8af-3fe6-8ea0-c0476679451d,南京正国摩托车销售有限公司,摩托车服务;摩托车销售;摩托车销售,40100,凤凰东路259号,"118.765326,32.223095",025-57054357;130****1021;153****4027,320000,江苏省,25,南京市,320116,六合区,4818266120,361,江北新区,2023-04-25 01:29:00,"{""rating"": ""4.5"", ""cost"": []}",摩托车服务,摩托车销售,摩托车销售,,118.765326,32.223095,118.76008928005442,32.225166014801424
cb184587-d5b1-3f0d-92e4-2d1fb6df4e58,小牛电动(成达车业),摩托车服务;摩托车销售;摩托车销售,40100,湖熟镇灵顺北路98号,"118.982019,31.863742",152****8278,320000,江苏省,25,南京市,320115,江宁区,4718673811,532,[],2023-05-09 01:33:00,"{""rating"": ""4.1"", ""cost"": []}",摩托车服务,摩托车销售,摩托车销售,,118.982019,31.863742,118.9768499092982,31.865785557456206
f914a889-300b-37ec-a356-177693975ab6,创业摩托修理部,摩托车服务;摩托车维修;摩托车维修,40200,虹南路与203县道交叉口南100米,"118.934241,31.838897",[],320000,江苏省,25,南京市,320115,江宁区,4718670422,399,[],2023-04-26 13:24:00,"{""rating"": ""0.8"", ""cost"": []}",摩托车服务,摩托车维修,摩托车维修,,118.934241,31.838897,118.92920706070582,31.841044883023816
2470865a-4fae-32bc-beea-2aa2ede64fef,金城铃木,摩托车服务;摩托车销售;摩托车销售,40100,江浦街道文德西路31号,"118.624980,32.055237",[],320000,江苏省,25,南京市,320111,浦口区,4818046912,598,江浦,2022-12-03 02:22:00,"{""rating"": ""3.6"", ""cost"": []}",摩托车服务,摩托车销售,摩托车销售,,118.62498,32.055237,118.6199547188137,32.05744551351904
01550eb9-c8ed-300f-aaf0-9751582a1cd6,东山摩配(湖东路店),摩托车服务;摩托车服务相关;摩托车服务相关,40000,天元吉第城北大门4幢104室,"118.871843,31.950124",025-52199064,320000,江苏省,25,南京市,320115,江宁区,4718764902,1231,[],2023-04-11 01:23:00,"{""rating"": ""4.3"", ""cost"": []}",摩托车服务,摩托车服务相关,摩托车服务相关,,118.871843,31.950124,118.86681181285226,31.95230104665403
4e972322-7de6-36ad-a84b-1cde8e8f7d9b,诚信摩配(惠济北路),摩托车服务;摩托车服务相关;摩托车服务相关,40000,汤泉镇惠济北路(江标镀锌厂对面),"118.515204,32.094599",[],320000,江苏省,25,南京市,320111,浦口区,4818141110,89,江北新区,2022-07-26 21:03:00,"{""rating"": ""2.4"", ""cost"": []}",摩托车服务,摩托车服务相关,摩托车服务相关,,118.515204,32.094599,118.51001671524004,32.096693103901075
ba94b345-14ee-3720-8a61-bea2d6860980,宏强电动车摩托车修理,摩托车服务;摩托车维修;摩托车维修,40200,杨新路183号,"118.739281,32.208608",158****8446,320000,江苏省,25,南京市,320116,六合区,4818255900,1643,江北新区,2023-04-25 04:21:00,"{""rating"": ""4.2"", ""cost"": []}",摩托车服务,摩托车维修,摩托车维修,,118.739281,32.208608,118.73404443676436,32.21067530430103
5b190bc6-f2c1-3f9d-8ad4-63128be1b4e0,小王摩配(横溪国土资源所南),摩托车服务;摩托车服务相关;摩托车服务相关,40000,横溪镇横云北路132号,"118.781975,31.716641",150****2078,320000,江苏省,25,南京市,320115,江宁区,4718465221,833,[],2023-04-21 11:29:00,"{""rating"": ""3.7"", ""cost"": []}",摩托车服务,摩托车服务相关,摩托车服务相关,,118.781975,31.716641,118.7768006224934,31.718630068996365
4a88b61d-80c5-3708-bf13-53ac2a3c34b1,德林摩托,摩托车服务;摩托车服务相关;摩托车服务相关,40000,龙潭镇花园街38号,"119.081728,32.202863",025-85702439,320000,江苏省,25,南京市,320113,栖霞区,4819204611,440,龙潭,2023-04-01 14:19:00,"{""rating"": ""3.6"", ""cost"": []}",摩托车服务,摩托车服务相关,摩托车服务相关,,119.081728,32.202863,119.0762434075196,32.20474269869278
a6781b1f-3286-35bf-8f15-690a261f84a7,江苏宗申三轮摩托车专卖(南京店),摩托车服务;摩托车销售;摩托车销售|购物服务;购物相关场所;购物相关场所,040100|060000,府前小区西1门旁,"118.610798,31.864600",025-86100052,320000,江苏省,25,南京市,320115,江宁区,4718643822,336,[],2023-04-04 01:23:00,"{""rating"": ""4.1"", ""cost"": []}",摩托车服务,摩托车销售,摩托车销售|购物服务,,118.610798,31.8646,118.605802513559,31.866777528446
c290470c-7b72-34fb-a68c-7552dab1e12e,南京久久摩配,摩托车服务;摩托车维修;摩托车维修,40200,东山街道麒麟门金宝商业广场32幢8号,"118.963146,32.057615",135****2537,320000,江苏省,25,南京市,320115,江宁区,4818076720,332,[],2023-05-02 08:21:00,"{""rating"": ""4.0"", ""cost"": []}",摩托车服务,摩托车维修,摩托车维修,,118.963146,32.057615,118.95802127530597,32.05975325533991
a373fd49-9cee-39ea-8536-fe54ea013bdf,KYMCO光阳摩托南京乾永(南京常光),摩托车服务;摩托车销售;摩托车销售,40100,太平南路394-1号(常府街地铁站1号口步行350米),"118.791025,32.029906",[],320000,江苏省,25,南京市,320104,秦淮区,4818063310,1227,夫子庙,2023-05-02 15:24:00,"{""rating"": ""4.4"", ""cost"": []}",摩托车服务,摩托车销售,摩托车销售,,118.791025,32.029906,118.78583462923012,32.03196638240378
6891d242-347e-364f-8d01-6b2c00f0dbb4,精修摩托车电动车,摩托车服务;摩托车服务相关;摩托车服务相关,40000,上元路52号,"118.854405,31.955433",151****6326,320000,江苏省,25,南京市,320115,江宁区,4718764811,1049,竹山路沿线,2023-03-23 04:01:00,"{""rating"": ""4.2"", ""cost"": []}",摩托车服务,摩托车服务相关,摩托车服务相关,,118.854405,31.955433,118.84934629309386,31.95758682110792
71ec1a83-3283-3356-991b-4319c0d53766,万达车行(马镇专卖店),摩托车服务;摩托车销售;摩托车销售,40100,白马镇西街(邮电局斜对面),"119.175010,31.579431",130****7639;139****2981,320000,江苏省,25,南京市,320117,溧水区,4719219410,398,[],2022-11-22 15:41:00,"{""rating"": ""4.1"", ""cost"": []}",摩托车服务,摩托车销售,摩托车销售,,119.17501,31.579431,119.16968643632784,31.58130358309544
454eb2b6-8b06-38f0-8437-69e13270a6db,YAMAHA,摩托车服务;摩托车销售;摩托车销售,40100,天印大道与上元大街交叉口西北100米,"118.857970,31.958827",[],320000,江苏省,25,南京市,320115,江宁区,4718765801,1534,[],2023-04-18 04:41:00,"{""rating"": ""3.6"", ""cost"": []}",摩托车服务,摩托车销售,摩托车销售,,118.85797,31.958827,118.85291725072496,31.96098721888719
3e71c770-34db-3f14-a24a-cfd54eec375c,金陵电动车,摩托车服务;摩托车维修;摩托车维修|生活服务;维修站点;维修站点,040200|071200,常府街8号,"118.800634,32.033001",[],320000,江苏省,25,南京市,320104,秦淮区,4818063420,1040,大光路,2023-05-02 22:16:00,"{""rating"": ""4.0"", ""cost"": []}",摩托车服务,摩托车维修,摩托车维修|生活服务,,118.800634,32.033001,118.79545954170436,32.03507641103072
4e5a2c3e-1840-363f-8488-0a5d2453c02c,小李车行(铁路南街店),摩托车服务;摩托车维修;摩托车维修,40200,三牌楼铁路南街42号,"118.770004,32.076654",150****8594,320000,江苏省,25,南京市,320106,鼓楼区,4818069101,230,湖南路,2023-03-28 02:37:00,"{""rating"": ""4.2"", ""cost"": []}",摩托车服务,摩托车维修,摩托车维修,,118.770004,32.076654,118.76478418247976,32.07870235914501
7a676039-a0a0-3a76-a3ad-3d1a52e23ab8,全新摩配,摩托车服务;摩托车服务相关;摩托车服务相关,40000,淳溪镇南塘岔路口,"118.917236,31.336812",139****6900,320000,江苏省,25,南京市,320118,高淳区,4718070311,639,[],2022-11-22 20:28:00,"{""rating"": ""3.6"", ""cost"": []}",摩托车服务,摩托车服务相关,摩托车服务相关,,118.917236,31.336812,118.91226992383564,31.339005958887256
943c50c4-696d-33f9-bbea-561ffb9097d5,永胜电动车摩托车修配(暂停营业),摩托车服务;摩托车维修;摩托车维修,40200,中圣北街3-121号,"118.619944,32.059014",[],320000,江苏省,25,南京市,320111,浦口区,4818047901,1119,江浦,2023-04-23 17:30:00,"{""rating"": ""3.7"", ""cost"": []}",摩托车服务,摩托车维修,摩托车维修,,118.619944,32.059014,118.61492389877868,32.06122836809024
6e108a1f-433e-3e80-9553-589c2e90ed8f,金川摩托车电动车销售维修,摩托车服务;摩托车维修;摩托车维修|摩托车服务;摩托车销售;摩托车销售,040200|040100,建宁路127号,"118.760361,32.093767",133****3430,320000,江苏省,25,南京市,320106,鼓楼区,4818161002,1871,建宁路,2023-05-09 22:35:00,"{""rating"": ""4.4"", ""cost"": []}",摩托车服务,摩托车维修,摩托车维修|摩托车服务,,118.760361,32.093767,118.755133796447,32.09581366458168
9ce96a01-cdb6-3eda-b6de-83b1c04f7fa1,杨子摩修,摩托车服务;摩托车维修;摩托车维修,40200,竹镇镇仕林路(消防队上面),"118.683422,32.515374",159****0280,320000,江苏省,25,南京市,320116,六合区,4818651422,828,江北新区,2023-04-24 13:14:00,"{""rating"": ""3.9"", ""cost"": []}",摩托车服务,摩托车维修,摩托车维修,,118.683422,32.515374,118.67824114993068,32.517502554917925
7b2d25f0-4d0d-3a8c-8353-caae81fe8678,新大洲本田(后标营路店),摩托车服务;摩托车销售;摩托车销售,40100,瑞金路街道后标营路39号,"118.825317,32.031411",[],320000,江苏省,25,南京市,320104,秦淮区,4818063620,1272,后标营,2023-05-10 04:31:00,"{""rating"": ""4.0"", ""cost"": []}",摩托车服务,摩托车销售,摩托车销售,,118.825317,32.031411,118.82019234508914,32.033529892637105
1a700996-a9e9-3f70-9ff5-baabf8e1997f,海燕摩配,摩托车服务;摩托车服务相关;摩托车服务相关,40000,宁镇线与红梅线交叉口西180米,"118.977735,32.143704",138****1143,320000,江苏省,25,南京市,320113,栖霞区,4818177800,1486,[],2023-04-19 11:25:00,"{'rating': [], 'cost': []}",摩托车服务,摩托车服务相关,摩托车服务相关,,118.977735,32.143704,118.9725549805711,32.14582076689602
dbb95c65-d11b-38f0-914b-ebb59f6544fd,万里摩托修配(沙子沟农贸市场店),摩托车服务;摩托车维修;摩托车维修,40200,瓜埠砂子沟社区砂子沟农贸市场,"118.877581,32.290066",139****3091,320000,江苏省,25,南京市,320116,六合区,4818374020,1733,江北新区,2022-12-07 17:49:00,"{'rating': '4.0', 'cost': []}",摩托车服务,摩托车维修,摩托车维修,,118.877581,32.290066,118.8725255179514,32.292309592669
25b71ed5-a2bc-3ea0-8328-5fe0f6cbb08f,田福摩配,摩托车服务;摩托车服务相关;摩托车服务相关,40000,六马线与月独线交叉口南60米,"118.812973,32.445248",159****3676,320000,江苏省,25,南京市,320116,六合区,4818563510,125,江北新区,2023-05-10 13:52:00,"{""rating"": ""4.1"", ""cost"": []}",摩托车服务,摩托车服务相关,摩托车服务相关,,118.812973,32.445248,118.80778423405548,32.44738052791956
d74f551a-229a-3f47-a1cb-06b7c576740d,兄弟摩配,摩托车服务;摩托车服务相关;摩托车服务相关,40000,龙袍街道政府路口,"118.957260,32.202440",[],320000,江苏省,25,南京市,320116,六合区,4818274601,542,江北新区,2023-04-12 12:44:00,"{""rating"": [], ""cost"": []}",摩托车服务,摩托车服务相关,摩托车服务相关,,118.95726,32.20244,118.95213922009128,32.20461947210671
d2eb5ed9-e950-3078-8926-e221c927e36b,小汤车行,摩托车服务;摩托车维修;摩托车维修,40200,和燕路1-2号附近,"118.811426,32.109674",139****1625,320000,江苏省,25,南京市,320113,栖霞区,4818163402,1565,迈皋桥,2023-04-18 20:48:00,"{""rating"": ""3.9"", ""cost"": []}",摩托车服务,摩托车维修,摩托车维修,,118.811426,32.109674,118.80626519199858,32.111784229764744
8173dcbd-2018-3ef7-811d-2808b425728a,红亮摩配精修,摩托车服务;摩托车维修;摩托车维修,40200,友谊河路6号,"118.844291,32.015720",151****9289,320000,江苏省,25,南京市,320104,秦淮区,4818061721,1252,光华路,2023-03-21 17:38:00,"{""rating"": ""4.4"", ""cost"": []}",摩托车服务,摩托车维修,摩托车维修,,118.844291,32.01572,118.8392074987722,32.01787049476512
d668757a-2134-319c-b79f-023ebc61fb3d,小周电动车维修部,摩托车服务;摩托车维修;摩托车维修,40200,胜太西路南航北门学府路底,"118.787605,31.944853",158****0450,320000,江苏省,25,南京市,320115,江宁区,4718763310,1687,铁心桥,2023-04-18 20:49:00,"{'rating': '4.3', 'cost': []}",摩托车服务,摩托车维修,摩托车维修,,118.787605,31.944853,118.78241733070828,31.94688926403245
22135802-0cd7-3bf3-8f02-65ce1f2f03b1,三兵摩修,摩托车服务;摩托车维修;摩托车维修,40200,淳溪镇宝塔路196-2三兵摩托修理部,"118.884176,31.323990",025-57329793,320000,江苏省,25,南京市,320118,高淳区,4618778022,669,淳溪,2022-11-22 01:43:00,"{""rating"": ""4.2"", ""cost"": []}",摩托车服务,摩托车维修,摩托车维修,,118.884176,31.32399,118.87921310065806,31.326187422513065
3aca5819-8833-3646-b4db-285205fcc7d0,铃木豪爵特许维修店(牡丹路),摩托车服务;摩托车维修;摩托车维修,40200,淳溪镇宝塔路25-8号老交通局斜对面,"118.873349,31.323586",025-57321723,320000,江苏省,25,南京市,320118,高淳区,4618768922,1523,淳溪,2023-05-02 18:19:00,"{""rating"": ""3.5"", ""cost"": []}",摩托车服务,摩托车维修,摩托车维修,,118.873349,31.323586,118.86837557057042,31.32577359794495
4b241210-3efc-314c-98f7-3da24ea06487,小东摩托车修理部,摩托车服务;摩托车维修;摩托车维修,40200,淳溪镇石臼湖北路吴家新村22号,"118.887721,31.326078",130****0770,320000,江苏省,25,南京市,320118,高淳区,4618779100,761,淳溪,2023-04-30 15:24:00,"{""rating"": ""3.9"", ""cost"": []}",摩托车服务,摩托车维修,摩托车维修,,118.887721,31.326078,118.88276027367736,31.328276987586385
c36d52fb-c68f-3dfe-ac79-05d29fa9aeed,益明维修部,摩托车服务;摩托车维修;摩托车维修|生活服务;维修站点;维修站点,040200|071200,雄州镇公园路一村11号,"118.851806,32.343630",151****5867,320000,江苏省,25,南京市,320116,六合区,4818461800,1150,江北新区,2023-05-11 03:16:00,"{""rating"": ""3.8"", ""cost"": []}",摩托车服务,摩托车维修,摩托车维修|生活服务,,118.851806,32.34363,118.84670706732248,32.345840274418975
bdaa7166-340e-354a-8d62-aa94cbb3d815,胖子车行(月苑南路店),摩托车服务;摩托车服务相关;摩托车服务相关,40000,月苑南路月苑小区宝林渔具旁边,"118.826993,32.099058",139****2928,320000,江苏省,25,南京市,320102,玄武区,4818161620,1397,月苑,2023-05-10 04:34:00,"{""rating"": ""4.2"", ""cost"": []}",摩托车服务,摩托车服务相关,摩托车服务相关,,118.826993,32.099058,118.82186571979403,32.10119479105343
ebb1e26e-0170-3f75-b38b-4db43ccc9dad,电动车摩托车修理,摩托车服务;摩托车维修;摩托车维修,40200,朝天街56号,"118.835071,32.339429",181****5951,320000,江苏省,25,南京市,320116,六合区,4818460622,1661,江北新区,2023-04-26 12:25:00,"{""rating"": ""3.9"", ""cost"": []}",摩托车服务,摩托车维修,摩托车维修,,118.835071,32.339429,118.82993878174666,32.34160945693779
8dc42c2b-12cd-348f-b6ca-7467178947d6,永创摩托城,摩托车服务;摩托车销售;摩托车销售,40100,永阳镇珍珠北路75号,"119.031778,31.655995",025-57200801,320000,江苏省,25,南京市,320117,溧水区,4719308221,1932,永阳,2023-05-12 15:31:00,"{""rating"": ""4.1"", ""cost"": []}",摩托车服务,摩托车销售,摩托车销售,,119.031778,31.655995,119.02645253711974,31.65786580355662
efd57ce5-4b15-3389-9f4d-93d80d41c79d,王记摩托护养中心,摩托车服务;摩托车维修;摩托车维修,40200,安怀村社区东南1门北50米,"118.790677,32.097391",147****4131,320000,江苏省,25,南京市,320106,鼓楼区,4818161320,1399,小市,2023-05-10 03:23:00,"{""rating"": ""4.4"", ""cost"": []}",摩托车服务,摩托车维修,摩托车维修,,118.790677,32.097391,118.785479862214,32.099465650525495
fb73fc35-9176-37f6-b3c8-a6a6871d9216,海军摩配电动车销售,摩托车服务;摩托车服务相关;摩托车服务相关,40000,正阳路182号,"118.859164,31.772072",133****8798,320000,江苏省,25,南京市,320115,江宁区,4718562812,783,[],2023-04-21 14:25:00,"{""rating"": ""4.2"", ""cost"": []}",摩托车服务,摩托车服务相关,摩托车服务相关,,118.859164,31.772072,118.85413012291308,31.774197141898227
87213298-e722-3ae8-9256-4c667756c8ea,小后摩托车电动车维修(中山东路),摩托车服务;摩托车维修;摩托车维修,40200,中山东路230附近,"119.036950,31.647986",139****8675,320000,江苏省,25,南京市,320117,溧水区,4719307222,537,永阳,2023-03-08 22:31:00,"{""rating"": ""4.2"", ""cost"": []}",摩托车服务,摩托车维修,摩托车维修,,119.03695,31.647986,119.03160935774548,31.64984331803005
849ef6d2-5e4e-3c5e-bbea-a891db35fd9b,中华摩配(中山路),摩托车服务;摩托车服务相关;摩托车服务相关,40000,永阳镇中山东路14-2号,"119.028388,31.648477",025-57204878,320000,江苏省,25,南京市,320117,溧水区,4719307220,286,永阳,2022-11-22 12:40:00,"{""rating"": ""3.7"", ""cost"": []}",摩托车服务,摩托车服务相关,摩托车服务相关,,119.028388,31.648477,119.0230741095731,31.65035661876937
7d74a2c2-5508-3c75-af66-cc69c379b07e,宁高摩配,摩托车服务;摩托车维修;摩托车维修,40200,双牌石和凤西路7号,"118.995862,31.398170",130****9239,320000,江苏省,25,南京市,320117,溧水区,4718077922,867,和凤,2023-04-25 20:22:00,"{'rating': '3.9', 'cost': []}",摩托车服务,摩托车维修,摩托车维修,,118.995862,31.39817,118.99068575779808,31.40017599733444
09257a55-5d98-3b80-a887-812ab8b846a7,泰山摩托车电动车行,摩托车服务;摩托车维修;摩托车维修,40200,禄口街道禄口社区茅亭路158号老医院门口,"118.859315,31.778082",139****0800,320000,江苏省,25,南京市,320115,江宁区,4718563812,758,[],2023-05-11 05:13:00,"{""rating"": ""4.0"", ""cost"": []}",摩托车服务,摩托车维修,摩托车维修,,118.859315,31.778082,118.85428083516264,31.780208250333725
6018e340-3bdf-3e68-9692-f4ee79e38060,鑫塔摩托城,摩托车服务;摩托车销售;摩托车销售,40100,淳溪镇高淳大市场21幢,"118.866840,31.336683",[],320000,江苏省,25,南京市,320118,高淳区,4718060911,106,淳溪,2022-11-08 22:29:00,"{""rating"": ""3.5"", ""cost"": []}",摩托车服务,摩托车销售,摩托车销售,,118.86684,31.336683,118.86185685402388,31.33885803723485
3e2cc76d-7c99-3a75-bd8b-c5faed43df2f,高淳兄弟,摩托车服务;摩托车销售;摩托车销售,40100,北岭路17号18幢附近,"118.865718,31.335972",[],320000,江苏省,25,南京市,320118,高淳区,4718060900,85,淳溪,2023-05-11 19:07:00,"{""rating"": [], ""cost"": []}",摩托车服务,摩托车销售,摩托车销售,,118.865718,31.335972,118.86073329085552,31.33814580060195
d48a9e70-ec04-383f-8de6-bd935e2a9a27,高淳豪爵铃木专卖店(迅达车行),摩托车服务;摩托车销售;摩托车销售,40100,淳溪镇北岭路17号鑫盛家居广场12栋,"118.865325,31.336068",025-57352531,320000,江苏省,25,南京市,320118,高淳区,4718060900,124,淳溪,2023-04-19 09:57:00,"{""rating"": ""3.9"", ""cost"": []}",摩托车服务,摩托车销售,摩托车销售,,118.865325,31.336068,118.86033970299998,31.338241238082585
a6742bf5-8edd-3e55-a4fe-eb57181f7b79,小清摩托车电瓶车修理,摩托车服务;摩托车维修;摩托车维修,40200,东山镇章村工业园,"118.855824,31.967559",137****9413,320000,江苏省,25,南京市,320115,江宁区,4718766801,621,[],2023-05-02 18:21:00,"{""rating"": ""4.0"", ""cost"": []}",摩托车服务,摩托车维修,摩托车维修,,118.855824,31.967559,118.85076672687582,31.96971787967269
18226503-a8b3-32ba-964b-cf002312f0f6,常凤明摩托车修配,摩托车服务;摩托车维修;摩托车维修,40200,板门口与永宁路交叉口西北150米,"118.839468,32.340362",025-57757207,320000,江苏省,25,南京市,320116,六合区,4818460720,1381,江北新区,2023-01-30 10:46:00,"{""rating"": ""3.7"", ""cost"": []}",摩托车服务,摩托车维修,摩托车维修,,118.839468,32.340362,118.83434490458468,32.34255059150352
5883d941-fa35-35cb-ba66-090bd65fe83e,摩托车维修,摩托车服务;摩托车维修;摩托车维修|生活服务;维修站点;维修站点,040200|071200,横峰街23-15号(铜山中心小学斜对面),"118.803715,32.048184",[],320000,江苏省,25,南京市,320102,玄武区,4818065420,1809,梅园,2023-04-21 01:24:00,"{""rating"": ""3.6"", ""cost"": []}",摩托车服务,摩托车维修,摩托车维修|生活服务,,118.803715,32.048184,118.79854482250816,32.05026784571589
f330d3f4-9383-3a87-8cca-650ca0ced501,天鹏摩配电动车,摩托车服务;摩托车维修;摩托车维修,40200,集庆路241号,"118.769569,32.018888",[],320000,江苏省,25,南京市,320104,秦淮区,4818062101,1829,[],2023-04-25 22:20:00,"{""rating"": ""3.8"", ""cost"": []}",摩托车服务,摩托车维修,摩托车维修,,118.769569,32.018888,118.7643541804296,32.02092315848398
b109264d-59f5-3187-996b-a7afd8e31397,荣美摩托修理,摩托车服务;摩托车维修;摩托车维修,40200,横云南路107号,"118.779185,31.710924",138****9619,320000,江苏省,25,南京市,320115,江宁区,4718465201,1438,[],2023-04-18 21:52:00,"{""rating"": ""3.8"", ""cost"": []}",摩托车服务,摩托车维修,摩托车维修,,118.779185,31.710924,118.774007788046,31.7129095316335
00e2fee4-6be5-3b2a-a720-10b4b5aec23a,金盾售后服务中心,摩托车服务;摩托车维修;摩托车维修,40200,东山街道天印大道720号,"118.858127,31.959096",138****6802,320000,江苏省,25,南京市,320115,江宁区,4718765801,1563,[],2023-04-25 05:28:00,"{""rating"": ""4.2"", ""cost"": []}",摩托车服务,摩托车维修,摩托车维修,,118.858127,31.959096,118.85307449463323,31.9612565217037
04a31ee1-06f4-3da8-b082-a837ab5847ee,南京极强摩托,摩托车服务;摩托车销售;摩托车销售,40100,中央北路83-9号,"118.782318,32.101982",025-85692389,320000,江苏省,25,南京市,320106,鼓楼区,4818162201,464,小市,2023-03-25 16:22:00,"{""rating"": ""3.8"", ""cost"": []}",摩托车服务,摩托车销售,摩托车销售,,118.782318,32.101982,118.777108655145,32.104047143499834
c720a04d-f5eb-3768-853d-46d2fd34c7fd,金城车行(浣焦路),摩托车服务;摩托车维修;摩托车维修,40200,禄口街道航金大道(铜山地铁站1号口步行220米),"118.881082,31.697281",[],320000,江苏省,25,南京市,320115,江宁区,4718473021,352,[],2023-05-03 10:16:00,"{""rating"": ""3.8"", ""cost"": []}",摩托车服务,摩托车维修,摩托车维修,,118.881082,31.697281,118.87608346859771,31.69942400585669
2166b70b-6250-3754-bae6-2601bbda39da,摩托过山车,摩托车服务;摩托车服务相关;摩托车服务相关,40000,大桥北路辅路与双垅北路交叉口东400米,"118.726795,32.137647",[],320000,江苏省,25,南京市,320111,浦口区,4818156810,1844,江北新区,2022-08-19 00:38:00,"{""rating"": ""3.5"", ""cost"": []}",摩托车服务,摩托车服务相关,摩托车服务相关,,118.726795,32.137647,118.72157480781912,32.13971087667928
a71277ae-d2a9-3d9b-8fc2-8552fb1809b1,南京正中车业(原正宗),摩托车服务;摩托车销售;摩托车销售,40100,麒麟门金宝汽配城24幢7-8号附近,"118.963283,32.056620",139****7337;159****6777,320000,江苏省,25,南京市,320115,江宁区,4818076720,248,[],2023-04-30 13:32:00,"{""rating"": ""4.1"", ""cost"": []}",摩托车服务,摩托车销售,摩托车销售,,118.963283,32.05662,118.95815795105683,32.05875769374624
8d34bff6-d188-3790-9402-522c9c4276bf,雅马哈摩托车维修中心,摩托车服务;摩托车维修;摩托车维修,40200,文德路31号(文德路地铁站3号口步行230米),"118.625026,32.055177",[],320000,江苏省,25,南京市,320111,浦口区,4818056010,591,江北新区,2023-05-10 23:21:00,"{""rating"": ""3.9"", ""cost"": []}",摩托车服务,摩托车维修,摩托车维修,,118.625026,32.055177,118.6200006689563,32.05738545033835
846e4ef1-75d1-3ca4-98d8-39eb54dee3c7,大运摩托维修站,摩托车服务;摩托车维修;摩托车维修,40200,人民路与汇集路交叉口北160米,"118.813115,32.531014",[],320000,江苏省,25,南京市,320116,六合区,4818663520,285,江北新区,2023-04-27 12:29:00,"{'rating': '3.6', 'cost': []}",摩托车服务,摩托车维修,摩托车维修,,118.813115,32.531014,118.80791851294128,32.5331304005271
96e0c979-5de6-38e4-8723-569e524a660b,金龙摩配,摩托车服务;摩托车维修;摩托车维修,40200,程桥街道程新路20号,"118.729757,32.382867",152****0765,320000,江苏省,25,南京市,320116,六合区,4818455821,522,江北新区,2023-04-01 20:57:00,"{""rating"": ""4.2"", ""cost"": []}",摩托车服务,摩托车维修,摩托车维修,,118.729757,32.382867,118.72451105981776,32.38494833321698
a46c177d-37a4-3699-a334-cfaf8bc99b81,比亚乔摩托(怡居园路),摩托车服务;摩托车销售;摩托车销售,40100,红花街道怡居路15号,"118.813950,32.009372",025-86450350,320000,江苏省,25,南京市,320104,秦淮区,4818061500,1509,红花,2023-03-31 12:57:00,"{'rating': '4.4', 'cost': []}",摩托车服务,摩托车销售,摩托车销售,,118.81395,32.009372,118.808803530742,32.01146480381613
73f337ad-aabf-3922-99ea-22f9c0c64ee1,照青摩托维修,摩托车服务;摩托车维修;摩托车维修,40200,桠溪镇永宁东街023号,"119.164682,31.365968",[],320000,江苏省,25,南京市,320118,高淳区,4719013320,336,桠溪,2023-05-02 13:29:00,"{'rating': '3.8', 'cost': []}",摩托车服务,摩托车维修,摩托车维修,,119.164682,31.365968,119.15935550777832,31.36786065142368
78a86b1b-dcfa-3da1-abbf-df95b2b94765,长志摩托车修配部,摩托车服务;摩托车维修;摩托车维修,40200,杨浦大酒楼旁边,"118.801774,32.309954",025-57152086,320000,江苏省,25,南京市,320116,六合区,4818367400,1372,龙池,2023-03-29 13:04:00,"{""rating"": ""3.8"", ""cost"": []}",摩托车服务,摩托车维修,摩托车维修,,118.801774,32.309954,118.79657600209237,32.312073582437506
7a0764f2-cea1-3315-9f45-c7bbdec121bd,高淳大市场汽摩城,摩托车服务;摩托车销售;摩托车销售,40100,北岭路15号,"118.863166,31.335764",[],320000,江苏省,25,南京市,320118,高淳区,4718060900,324,淳溪,2022-08-03 18:07:00,"{""rating"": ""3.6"", ""cost"": []}",摩托车服务,摩托车销售,摩托车销售,,118.863166,31.335764,118.85817745817558,31.33793436404343
97ef6209-f455-3d47-9f39-d7010983a0df,晓有摩配,摩托车服务;摩托车服务相关;摩托车服务相关,40000,横溪街道横云南路,"118.777903,31.710440",[],320000,江苏省,25,南京市,320115,江宁区,4718465200,1562,[],2023-04-25 20:39:00,"{""rating"": ""3.9"", ""cost"": []}",摩托车服务,摩托车服务相关,摩托车服务相关,,118.777903,31.71044,118.77272438498449,31.71242419102257
e77c8498-b2dd-3c71-af5a-726c0ada450b,森庆摩托车修理部,摩托车服务;摩托车维修;摩托车维修,40200,跃进东路与鹂岛路交叉口东北120米,"118.825412,32.171614",025-85201487;136****0706,320000,江苏省,25,南京市,320113,栖霞区,4818260610,280,江北新区,2022-11-23 00:02:00,"{'rating': '3.6', 'cost': []}",摩托车服务,摩托车维修,摩托车维修,,118.825412,32.171614,118.82027468456428,32.17376133641698
9ddd714d-834c-33ad-9916-453a8146dd44,富强摩托修理部,摩托车服务;摩托车维修;摩托车维修,40200,盛江花苑银杏园东北门旁,"118.601538,31.858740",[],320000,江苏省,25,南京市,320115,江宁区,4718643800,1264,[],2023-03-21 22:56:00,"{""rating"": ""3.6"", ""cost"": []}",摩托车服务,摩托车维修,摩托车维修,,118.601538,31.85874,118.59654617938152,31.86091974268212
0a15842c-93cd-37f5-8699-e5cd72a80583,涌泉摩托电动车行,摩托车服务;摩托车维修;摩托车维修,40200,新浦路与康安路交叉口南160米,"118.644765,32.058482",[],320000,江苏省,25,南京市,320111,浦口区,4818057101,897,江北新区,2023-04-15 13:13:00,"{""rating"": ""3.1"", ""cost"": []}",摩托车服务,摩托车维修,摩托车维修,,118.644765,32.058482,118.6397086675032,32.06066399710684
e6f29891-f5ce-3f2a-ad3e-7ca3d90ac875,顺达摩托车、电动车修理,摩托车服务;摩托车维修;摩托车维修,40200,河滨西路与广通路交叉口西260米,"119.063003,31.295327",[],320000,江苏省,25,南京市,320118,高淳区,4619705510,253,[],2022-11-30 12:27:00,"{""rating"": [], ""cost"": []}",摩托车服务,摩托车维修,摩托车维修,,119.063003,31.295327,119.05763061562536,31.297196357331423
a43e0159-fd91-3764-be39-6a8732597487,小欧摩配,摩托车服务;摩托车服务相关;摩托车服务相关,40000,卸甲路与凤凰南路交叉口东南60米,"118.754184,32.205301",[],320000,江苏省,25,南京市,320116,六合区,4818264011,491,江北新区,2023-04-29 13:00:00,"{""rating"": ""0.6"", ""cost"": []}",摩托车服务,摩托车服务相关,摩托车服务相关,,118.754184,32.205301,118.7489448030163,32.207365776738136
42f3278e-6adf-39fb-ad86-1aa4958c6e8e,单于雷车行电动车摩托车维修,摩托车服务;摩托车维修;摩托车维修,40200,701县道与707县道交叉口附近,"118.695599,32.514082",138****0200,320000,江苏省,25,南京市,320116,六合区,4818651521,547,江北新区,2023-04-11 11:44:00,"{""rating"": ""4.0"", ""cost"": []}",摩托车服务,摩托车维修,摩托车维修,,118.695599,32.514082,118.69039267523864,32.51618904233904
52473f4b-e051-3dc1-b4ef-3a3c6f50ec11,王二摩托车商行,摩托车服务;摩托车销售;摩托车销售,40100,仕林北路与侍郎路交叉口南140米,"118.682917,32.512664",[],320000,江苏省,25,南京市,320116,六合区,4818651411,755,江北新区,2023-05-02 13:55:00,"{""rating"": ""0.8"", ""cost"": []}",摩托车服务,摩托车销售,摩托车销售,,118.682917,32.512664,118.67773750578984,32.51479411000556
98e7c8d1-3187-3515-aa9a-4cb1fed54a38,红卫摩配,摩托车服务;摩托车服务相关;摩托车服务相关,40000,洪蓝镇金牛南路75号,"118.987062,31.605649",025-57233802,320000,江苏省,25,南京市,320117,溧水区,4718372822,1138,洪蓝,2023-05-02 13:36:00,"{""rating"": ""3.7"", ""cost"": []}",摩托车服务,摩托车服务相关,摩托车服务相关,,118.987062,31.605649,118.98189864598277,31.60765057917958
577604ee-ee04-3916-9c28-fad80c72d896,飞宇摩配电动车修理,摩托车服务;摩托车维修;摩托车维修,40200,梁台街湖熟汽车站,"118.981672,31.864393",[],320000,江苏省,25,南京市,320115,江宁区,4718673821,515,[],2023-04-24 03:10:00,"{""rating"": ""3.7"", ""cost"": []}",摩托车服务,摩托车维修,摩托车维修,,118.981672,31.864393,118.97650406437876,31.866437695735684
791939c0-d2c9-3606-81a0-bba88cabb218,诚信摩配(回峰北路店),摩托车服务;摩托车服务相关;摩托车服务相关,40000,白马镇回峰北路,"119.172171,31.582617",[],320000,江苏省,25,南京市,320117,溧水区,4719219322,195,[],2022-09-09 11:44:00,"{""rating"": ""3.5"", ""cost"": []}",摩托车服务,摩托车服务相关,摩托车服务相关,,119.172171,31.582617,119.16684087456512,31.58448407525869
3ecc7a1a-ec35-3bed-acfc-313b5a187ce7,陆郎摩配总汇,摩托车服务;摩托车维修;摩托车维修,40200,东虹路与双塘街交叉口西南20米,"118.633020,31.788955",025-86143880,320000,江苏省,25,南京市,320115,江宁区,4718554021,406,[],2023-04-30 13:09:00,"{'rating': '3.9', 'cost': []}",摩托车服务,摩托车维修,摩托车维修,,118.63302,31.788955,118.62800776327803,31.79109730461161
8bb8bcc0-6fdb-3d8a-a922-26d7c6b944f8,海港机车,摩托车服务;摩托车销售;摩托车销售,40100,苜蓿园大街310号,"118.830881,32.023021",133****2405,320000,江苏省,25,南京市,320104,秦淮区,4818062621,267,苜蓿园,2023-05-11 16:14:00,"{""rating"": ""4.4"", ""cost"": []}",摩托车服务,摩托车销售,摩托车销售,,118.830881,32.023021,118.82576896178746,32.02514845709471
01c1b356-4c91-3044-adcc-11e429ccef04,五羊-本田(和顺路店),摩托车服务;摩托车服务相关;摩托车服务相关,40000,和顺路高淳大市场(北岭路店),"118.865473,31.335972",[],320000,江苏省,25,南京市,320118,高淳区,4718060900,107,淳溪,2023-02-22 17:40:00,"{""rating"": ""3.8"", ""cost"": []}",摩托车服务,摩托车服务相关,摩托车服务相关,,118.865473,31.335972,118.86048793026008,31.338145471425825
d45a571f-c90b-31a8-b554-f3b02dbc9ddd,冬冬摩配维修中心,摩托车服务;摩托车维修;摩托车维修,40200,小泉水6号,"118.928362,32.022875",138****9045;158****3914,320000,江苏省,25,南京市,320115,江宁区,4818072420,393,[],2022-11-28 17:12:00,"{'rating': '3.6', 'cost': []}",摩托车服务,摩托车维修,摩托车维修,,118.928362,32.022875,118.92332113614144,32.02507105783411
ab97552f-6566-347e-9014-185d6da632da,锁定天下摩托迷俱乐部,摩托车服务;摩托车服务相关;摩托车服务相关,40000,电建路20号北城嘉园2幢103室,"118.828125,32.110364",159********,320000,江苏省,25,南京市,320113,栖霞区,4818163600,1972,月苑,2023-04-24 07:10:00,"{""rating"": ""4.4"", ""cost"": []}",摩托车服务,摩托车服务相关,摩托车服务相关,,118.828125,32.110364,118.82299909710784,32.1125052207139
1078e6f5-3dfb-302c-9715-b4a04be641bf,贝纳利摩托售后服务,摩托车服务;摩托车维修;摩托车维修,40200,虎踞北路90号,"118.753968,32.078261",025-83405121,320000,江苏省,25,南京市,320106,鼓楼区,4818069010,1299,挹江门,2023-04-24 13:19:00,"{""rating"": ""4.0"", ""cost"": []}",摩托车服务,摩托车维修,摩托车维修,,118.753968,32.078261,118.74874057675264,32.080302755252035
e7d16662-f052-33b7-a5a9-4ae02d56b238,小生摩托车电动车专业维修,摩托车服务;摩托车维修;摩托车维修,40200,太平门街5-8号,"118.812844,32.056061",130****3889,320000,江苏省,25,南京市,320102,玄武区,4818066520,1340,九华山,2023-04-18 13:48:00,"{'rating': '3.9', 'cost': []}",摩托车服务,摩托车维修,摩托车维修,,118.812844,32.056061,118.80769099144128,32.05816238987197
4dc3d79b-bfe9-34bd-828b-abb7e7c8bebb,惠好摩配,摩托车服务;摩托车维修;摩托车维修,40200,新华路38号附近,"118.744688,32.224262",158****5521,320000,江苏省,25,南京市,320116,六合区,4818256921,182,江北新区,2023-02-08 21:05:00,"{""rating"": ""3.9"", ""cost"": []}",摩托车服务,摩托车维修,摩托车维修,,118.744688,32.224262,118.73944778867296,32.22632959286875
441f071f-1fb0-3d3e-88ac-5c3898921812,哈雷戴维森南京百家湖4S店,摩托车服务;摩托车销售;摩托车销售,40100,双龙大道1680号百家湖1912街区18幢,"118.817217,31.931362",025-52168699,320000,江苏省,25,南京市,320115,江宁区,4718761521,1585,百家湖,2023-05-10 17:50:00,"{""rating"": ""4.6"", ""cost"": []}",摩托车服务,摩托车销售,摩托车销售,,118.817217,31.931362,118.81208440844696,31.93344283023008
33aefa2c-6617-30e9-90da-4c5c7cb9d2ed,诚信摩配(娘娘巷),摩托车服务;摩托车服务相关;摩托车服务相关,40000,秣陵街道中心幼儿园斜对面,"118.838951,31.831388",189****7798,320000,江苏省,25,南京市,320115,江宁区,4718569720,1195,[],2023-04-08 12:46:00,"{'rating': '3.9', 'cost': []}",摩托车服务,摩托车服务相关,摩托车服务相关,,118.838951,31.831388,118.8338733475284,31.83348861814428
79ce211f-35b6-3305-92fd-2f65900c2fdc,平丰摩托车电动车维修,摩托车服务;摩托车维修;摩托车维修,40200,龙池街道新集东路303同方服装厂对面,"118.730502,32.305499",139****9490,320000,江苏省,25,南京市,320116,六合区,4818356811,489,江北新区,2023-04-26 07:05:00,"{""rating"": ""4.0"", ""cost"": []}",摩托车服务,摩托车维修,摩托车维修,,118.730502,32.305499,118.72526261841948,32.30758012303679
efce2ebf-7c3a-37d0-a819-dd659fe14410,徐二修理部,摩托车服务;摩托车维修;摩托车维修,40200,兴浦路与浦乌路交叉口西北120米,"118.694369,32.115521",[],320000,江苏省,25,南京市,320111,浦口区,4818153521,1819,顶山,2023-03-29 13:53:00,"{""rating"": [], ""cost"": []}",摩托车服务,摩托车维修,摩托车维修,,118.694369,32.115521,118.68920211804532,32.11762408639345
f28328a1-61e2-365b-95c4-c52f97f8c946,众益电动车摩托车销售修理,摩托车服务;摩托车维修;摩托车维修,40200,浦泗路与G40沪陕高速出口交叉口西50米,"118.649908,32.164086",[],320000,江苏省,25,南京市,320111,浦口区,4818159122,757,江北新区,2023-05-09 19:30:00,"{""rating"": ""4.0"", ""cost"": []}",摩托车服务,摩托车维修,摩托车维修,,118.649908,32.164086,118.64483218550946,32.16628032616614
1ba34047-a7fa-3536-bd3d-45f2f4c94588,小宝摩托车电动车精修,摩托车服务;摩托车维修;摩托车维修,40200,东山街道北沿路76号,"118.834114,31.954448",158****1267;159****0847,320000,江苏省,25,南京市,320115,江宁区,4718764612,1063,岔路口,2023-04-10 18:40:00,"{""rating"": ""4.2"", ""cost"": []}",摩托车服务,摩托车维修,摩托车维修,,118.834114,31.954448,118.82901506519512,31.95656571842033
a8b088d0-561f-3eef-85f2-fe99493ee261,宏文摩托修理部,摩托车服务;摩托车维修;摩托车维修,40200,新桥中心路与新桥河东路交叉口西北60米,"119.005098,32.231248",[],320000,江苏省,25,南京市,320116,六合区,4819207021,405,江北新区,2023-05-06 12:36:00,"{""rating"": ""0.7"", ""cost"": []}",摩托车服务,摩托车维修,摩托车维修,,119.005098,32.231248,118.99981115814847,32.23329638978481
604d4831-5d12-3301-a425-2094b72a11ea,小平摩托修理,摩托车服务;摩托车维修;摩托车维修,40200,青杜路与东大路交叉口西100米,"118.992946,31.942679",[],320000,江苏省,25,南京市,320115,江宁区,4718773901,596,[],2023-04-23 14:02:00,"{'rating': '3.5', 'cost': []}",摩托车服务,摩托车维修,摩托车维修,,118.992946,31.942679,118.98773052297408,31.94470722694823
688ad9c7-f2c9-3b52-acd6-ca7b89c9af6a,常江车行,摩托车服务;摩托车销售;摩托车销售,40100,湖熟街道虹南路,"118.933950,31.833335",[],320000,江苏省,25,南京市,320115,江宁区,4718670402,290,[],2023-05-03 18:41:00,"{""rating"": ""2.4"", ""cost"": []}",摩托车服务,摩托车销售,摩托车销售,,118.93395,31.833335,118.92891708287466,31.83548225823761
56a2feb5-589a-3eaf-b894-6ca183624681,小赵摩配,摩托车服务;摩托车服务相关;摩托车服务相关,40000,谢村街与江横线交叉口西120米,"118.865648,31.685689",[],320000,江苏省,25,南京市,320115,江宁区,4718462900,1801,[],2023-05-12 19:43:00,"{""rating"": ""3.6"", ""cost"": []}",摩托车服务,摩托车服务相关,摩托车服务相关,,118.865648,31.685689,118.86063210038688,31.687814167430226
c17d0266-a9d1-3f52-8495-0cc30b66a4be,小韩电动车摩托车修配,摩托车服务;摩托车维修;摩托车维修,40200,大厂街道北厂门,"118.770221,32.222181",025-57767954;133****0338,320000,江苏省,25,南京市,320116,六合区,4818266111,453,江北新区,2022-11-26 17:06:00,"{""rating"": ""3.7"", ""cost"": []}",摩托车服务,摩托车维修,摩托车维修,,118.770221,32.222181,118.7649878450155,32.22425505926022
e1300d04-511d-3531-9966-c2f67e959705,阿东车业,摩托车服务;摩托车服务相关;摩托车服务相关,40000,雄州街道贾裴社区旁,"118.885375,32.279382",139****2639,320000,江苏省,25,南京市,320116,六合区,4818373012,327,江北新区,2023-03-02 01:21:00,"{""rating"": ""4.0"", ""cost"": []}",摩托车服务,摩托车服务相关,摩托车服务相关,,118.885375,32.279382,118.88032727562388,32.28163133565005
d60f6e89-3d3b-3157-9980-2ad8b0bc5ede,东风汽车配件部(南京卫东店),摩托车服务;摩托车服务相关;摩托车服务相关,40000,飞宇钢构东南门西南60米,"118.778532,32.277877",025-57191816,320000,江苏省,25,南京市,320116,六合区,4818363210,311,江北新区,2022-11-21 23:02:00,"{""rating"": ""3.3"", ""cost"": []}",摩托车服务,摩托车服务相关,摩托车服务相关,,118.778532,32.277877,118.77330176164683,32.27996374896164
c57cbd19-b034-364e-a61a-c87145ca7dba,李兆龙车行,摩托车服务;摩托车维修;摩托车维修,40200,星甸镇星甸街好又多超市斜对面,"118.453012,32.032467",[],320000,江苏省,25,南京市,320111,浦口区,4818033620,383,江北新区,2023-05-03 02:24:00,"{""rating"": ""3.5"", ""cost"": []}",摩托车服务,摩托车维修,摩托车维修,,118.453012,32.032467,118.44761409661034,32.03437492129515
6e26bc04-fe9c-3943-ba9f-013e5cc75b86,回头客修理部,摩托车服务;摩托车维修;摩托车维修,40200,东庐路33号附近,"119.082112,31.608532",[],320000,江苏省,25,南京市,320117,溧水区,4719303601,759,[],2023-04-24 11:25:00,"{""rating"": ""0.6"", ""cost"": []}",摩托车服务,摩托车维修,摩托车维修,,119.082112,31.608532,119.07668353632148,31.610313735617417
f8cb50cf-92c6-3158-a867-083d115fe32a,竞速MOTO,摩托车服务;摩托车维修;摩托车维修|摩托车服务;摩托车销售;摩托车销售,040200|040100,挹江门街道虎据北路100号,"118.753903,32.080190",130****6379;186****0853,320000,江苏省,25,南京市,320106,鼓楼区,4818069010,1339,挹江门,2023-02-23 12:16:00,"{""rating"": ""4.4"", ""cost"": []}",摩托车服务,摩托车维修,摩托车维修|摩托车服务,,118.753903,32.08019,118.74867539030758,32.08223215933868
79e5dcd7-655b-3cf8-8fad-adfce52628e2,小林摩配,摩托车服务;摩托车服务相关;摩托车服务相关,40000,竹镇镇仇庄村仇庄组,"118.713977,32.522379",[],320000,江苏省,25,南京市,320116,六合区,4818652720,113,江北新区,2023-05-03 22:12:00,"{""rating"": ""2.8"", ""cost"": []}",摩托车服务,摩托车服务相关,摩托车服务相关,,118.713977,32.522379,118.70873729604362,32.52445651641455
7c411606-b1a2-3f36-9666-12f16279eae7,力武摩配,摩托车服务;摩托车维修;摩托车维修,40200,淳溪镇石臼湖北路69号25幢,"118.886448,31.335094",[],320000,江苏省,25,南京市,320118,高淳区,4718070002,1772,淳溪,2023-05-10 21:56:00,"{""rating"": ""2.9"", ""cost"": []}",摩托车服务,摩托车维修,摩托车维修,,118.886448,31.335094,118.8814856992576,31.33728899056613
0118d46a-6c02-34ad-8b50-53631c8852e0,修理部,摩托车服务;摩托车维修;摩托车维修|生活服务;生活服务场所;生活服务场所,040200|070000,冶六线与龙虎营路交叉口东南60米,"118.870825,32.303669",[],320000,江苏省,25,南京市,320116,六合区,4818366911,418,江北新区,2022-09-15 06:28:00,"{'rating': '3.4', 'cost': []}",摩托车服务,摩托车维修,摩托车维修|生活服务,,118.870825,32.303669,118.86576035257283,32.30590598663392
4a3babe0-b4fa-3178-a86e-3231a00c1d77,正东车行,摩托车服务;摩托车维修;摩托车维修|生活服务;维修站点;维修站点,040200|071200,府前街与707县道交叉口东南50米,"118.743766,32.551815",025-57586896,320000,江苏省,25,南京市,320116,六合区,4818656901,295,江北新区,2023-04-24 13:55:00,"{""rating"": ""3.3"", ""cost"": []}",摩托车服务,摩托车维修,摩托车维修|生活服务,,118.743766,32.551815,118.73849535924244,32.553861584399314
46dc2d30-5300-35bd-a618-12d509bd337d,小方车行,摩托车服务;摩托车维修;摩托车维修,40200,禄口街道金石路243号,"118.871091,31.776109",132****9677,320000,江苏省,25,南京市,320115,江宁区,4718563902,438,[],2023-05-02 22:36:00,"{""rating"": ""4.0"", ""cost"": []}",摩托车服务,摩托车维修,摩托车维修,,118.871091,31.776109,118.86607452171314,31.778250859124896
fa5b3349-eb75-32e5-afa9-80c19a1a224c,小周摩托车电动车维修,摩托车服务;摩托车维修;摩托车维修,40200,淳墅线北侧,"118.965771,31.930946",[],320000,江苏省,25,南京市,320115,江宁区,4718771720,216,[],2023-05-02 18:28:00,"{""rating"": ""3.7"", ""cost"": []}",摩托车服务,摩托车维修,摩托车维修,,118.965771,31.930946,118.96064980739168,31.93304869397342
3caac0b0-fe82-3552-a868-8668592e6b3e,新大洲本田摩托车(凤凰东路店),摩托车服务;摩托车销售;摩托车销售,40100,凤凰东路259号,"118.765338,32.223173",[],320000,江苏省,25,南京市,320116,六合区,4818266120,354,江北新区,2023-03-26 21:53:00,"{""rating"": ""3.9"", ""cost"": []}",摩托车服务,摩托车销售,摩托车销售,,118.765338,32.223173,118.76010128010358,32.225244031062296
529740cd-d1e7-31bd-a4f8-05af84f9b411,春龙车行(高淳旗舰店),摩托车服务;摩托车服务相关;摩托车服务相关,40000,北岭路15号17幢102号,"118.862659,31.335696",152****9889,320000,江苏省,25,南京市,320118,高淳区,4718060900,372,淳溪,2023-05-11 04:27:00,"{""rating"": ""3.8"", ""cost"": []}",摩托车服务,摩托车服务相关,摩托车服务相关,,118.862659,31.335696,118.8576696746362,31.337865669883897
4ffc87ca-d373-3a8e-a4e6-559cf89d4adc,摩研社(雨花南路),摩托车服务;摩托车维修;摩托车维修,40200,雨花南路51-5号,"118.763527,31.997162",134****9199,320000,江苏省,25,南京市,320114,雨花台区,4718769110,465,赛虹桥,2023-04-19 23:29:00,"{""rating"": ""4.3"", ""cost"": []}",摩托车服务,摩托车维修,摩托车维修,,118.763527,31.997162,118.75831020753648,31.999188523179377
f4d803b1-bb4c-37af-8cb2-29b4ff05998b,超越摩托,摩托车服务;摩托车销售;摩托车销售,40100,东郊小镇旁边金宝摩配城2栋1,"118.964222,32.054072",186****1240,320000,江苏省,25,南京市,320115,江宁区,4818076710,184,[],2023-04-30 20:16:00,"{""rating"": ""4.3"", ""cost"": []}",摩托车服务,摩托车销售,摩托车销售,,118.964222,32.054072,118.95909432030938,32.05620677315565
4de6f308-7675-3580-8700-a76fade283a9,摩托电动车修理,摩托车服务;摩托车维修;摩托车维修,40200,固城湖南路49-28,"118.878737,31.317940",[],320000,江苏省,25,南京市,320118,高淳区,4618778000,944,淳溪,2022-11-30 12:26:00,"{""rating"": ""2.7"", ""cost"": []}",摩托车服务,摩托车维修,摩托车维修,,118.878737,31.31794,118.87376993575056,31.32013515868729
a77de819-d6c7-3a89-8048-2b66c0a624f6,摩托、电动车修理,摩托车服务;摩托车维修;摩托车维修,40200,中华门街道应天大街369号,"118.771589,32.008332",130****5131,320000,江苏省,25,南京市,320104,秦淮区,4818060122,1697,赛虹桥,2023-03-17 18:00:00,"{""rating"": ""4.4"", ""cost"": []}",摩托车服务,摩托车维修,摩托车维修,,118.771589,32.008332,118.76637681984312,32.010366236411144
56371012-543b-3b8a-abc8-4a57ba04ea43,摩托车电动车维修部,摩托车服务;摩托车服务相关;摩托车服务相关,40000,扬州足艺东北门东200米,"118.813209,32.020168",133****3632,320000,江苏省,25,南京市,320104,秦淮区,4818062510,1942,大光路,2023-03-26 09:23:00,"{""rating"": ""4.0"", ""cost"": []}",摩托车服务,摩托车服务相关,摩托车服务相关,,118.813209,32.020168,118.80806002848284,32.02226194738258
dd591b30-8b40-3bfd-b437-4f01a1e61a09,南京乾永品质体验馆,摩托车服务;摩托车销售;摩托车销售,40100,太平南路394-1号(常府街地铁站1号口步行350米),"118.791039,32.029879",[],320000,江苏省,25,南京市,320104,秦淮区,4818063310,1229,夫子庙,2023-05-10 12:10:00,"{""rating"": ""4.0"", ""cost"": []}",摩托车服务,摩托车销售,摩托车销售,,118.791039,32.029879,118.78584865345296,32.03193939551498
089819ac-7760-37cc-900e-1de9e05ed83a,胖子摩配电动车维修中心,摩托车服务;摩托车维修;摩托车维修,40200,虎踞南路49号-1,"118.769468,32.034763",[],320000,江苏省,25,南京市,320104,秦淮区,4818064101,883,汉中门,2023-04-05 14:29:00,"{""rating"": ""3.9"", ""cost"": []}",摩托车服务,摩托车维修,摩托车维修,,118.769468,32.034763,118.76425163445568,32.03680170546214
8ce3093b-8c5c-3dec-90d6-0fbd5a5271a9,丁师傅摩托车电动车维修,摩托车服务;摩托车维修;摩托车维修|生活服务;维修站点;维修站点,040200|071200,高新南路与丽华路交叉口东南60米,"118.722453,32.126473",137****8550,320000,江苏省,25,南京市,320111,浦口区,4818155702,591,江北新区,2023-03-17 15:02:00,"{""rating"": ""4.3"", ""cost"": []}",摩托车服务,摩托车维修,摩托车维修|生活服务,,118.722453,32.126473,118.71723870766289,32.128538839175775
ea979090-6933-3edb-b07d-7f5c7d613789,摩托自行车修配部,摩托车服务;摩托车维修;摩托车维修,40200,中央北路95号,"118.781130,32.104316",[],320000,江苏省,25,南京市,320106,鼓楼区,4818162211,236,小市,2023-04-24 08:54:00,"{""rating"": ""3.7"", ""cost"": []}",摩托车服务,摩托车维修,摩托车维修,,118.78113,32.104316,118.7759189559514,32.10638030017259
8424980b-f14a-31c5-84ae-41042c6fb7be,爱玛电动车销售,摩托车服务;摩托车维修;摩托车维修,40200,泰冯路柏巷9号,"118.718612,32.171803",159****3898,320000,江苏省,25,南京市,320111,浦口区,4818250711,499,江北新区,2023-05-09 04:27:00,"{'rating': '4.4', 'cost': []}",摩托车服务,摩托车维修,摩托车维修,,118.718612,32.171803,118.71339839883557,32.17388104998157
3d576718-1080-30b1-a10a-7f9c9a49fb8b,豪爵,摩托车服务;摩托车销售;摩托车销售,40100,虎踞南路34-11号,"118.767914,32.037784",025-58797705,320000,江苏省,25,南京市,320104,秦淮区,4818064111,1128,汉中门,2023-05-04 06:24:00,"{""rating"": ""4.2"", ""cost"": []}",摩托车服务,摩托车销售,摩托车销售,,118.767914,32.037784,118.7626961934172,32.03982233543057
d5902b6e-1789-32e6-a15d-620fb1379e46,奎子摩托车电动车维修,摩托车服务;摩托车维修;摩托车维修,40200,葛塘街道葛中南路和晓山路交会十字路口红绿灯处,"118.730098,32.223250",153****1092,320000,江苏省,25,南京市,320116,六合区,4818256821,1668,江北新区,2023-03-26 07:30:00,"{""rating"": ""4.2"", ""cost"": []}",摩托车服务,摩托车维修,摩托车维修,,118.730098,32.22325,118.72486664749944,32.22532458711929
0911c62f-e181-32a9-a91a-a07a37b9d21c,嘉陵工业&建设摩托汽摩城,摩托车服务;摩托车销售;摩托车销售,40100,珍珠路与青年路交叉口西北100米,"119.031137,31.652691",[],320000,江苏省,25,南京市,320117,溧水区,4719308201,1738,永阳,2023-03-12 11:53:00,"{""rating"": ""3.9"", ""cost"": []}",摩托车服务,摩托车销售,摩托车销售,,119.031137,31.652691,119.0258138751526,31.654563383465323
82659ee3-74d5-3eb7-a6fe-10deb760bc1f,飞达摩托车修理部,摩托车服务;摩托车维修;摩托车维修,40200,宁芜公路与宁谷路辅路交叉口东南100米,"118.663904,31.921315",[],320000,江苏省,25,南京市,320114,雨花台区,4718750310,1652,[],2023-03-28 11:51:00,"{""rating"": ""3.0"", ""cost"": []}",摩托车服务,摩托车维修,摩托车维修,,118.663904,31.921315,118.65882090070592,31.923431577850973
b45726d1-4287-327f-9a30-61c51a012b05,小杨车行,摩托车服务;摩托车维修;摩托车维修,40200,大厂杨村路83号,"118.762925,32.236608",159****3351,320000,江苏省,25,南京市,320116,六合区,4818268110,848,新华东路,2023-05-11 16:20:00,"{""rating"": ""4.2"", ""cost"": []}",摩托车服务,摩托车维修,摩托车维修,,118.762925,32.236608,118.757685679358,32.23867935879008
5a7d26bb-2077-305c-93b3-23e0071018be,摩托车维修,摩托车服务;摩托车维修;摩托车维修,40200,新河东路与新河南路交叉口东北20米,"118.910919,31.622751",[],320000,江苏省,25,南京市,320117,溧水区,4718374222,155,石湫,2023-03-19 14:40:00,"{'rating': '3.3', 'cost': []}",摩托车服务,摩托车维修,摩托车维修,,118.910919,31.622751,118.90593231248025,31.624898125636623
4b1381c3-a030-3d59-a61d-e7f590712e04,南京CC精品机车馆,摩托车服务;摩托车销售;摩托车销售,40100,雨花街道郁金香路19号-9,"118.775213,31.981798",025-86512918;156****1111,320000,江苏省,25,南京市,320114,雨花台区,4718767220,1625,宁南,2023-04-20 19:55:00,"{""rating"": ""3.8"", ""cost"": []}",摩托车服务,摩托车销售,摩托车销售,,118.775213,31.981798,118.77000665949896,31.983829154434154
2baa0641-9bd0-3975-93a7-e2c71378f4e6,南京一马摩托车销售有限公司,摩托车服务;摩托车销售;摩托车销售,40100,蒋王庙街钟山山庄1号,"118.830318,32.078503",025-85471737,320000,江苏省,25,南京市,320102,玄武区,4818069611,337,[],2023-04-23 16:37:00,"{'rating': '4.5', 'cost': []}",摩托车服务,摩托车销售,摩托车销售,,118.830318,32.078503,118.8251996902754,32.08064173385937
5df43670-c043-39d9-af1c-f1e89b48a41e,摩托车电动车维修,摩托车服务;摩托车维修;摩托车维修,40200,竹镇镇侍郎路48号小万名烟名酒旁,"118.695591,32.514104",[],320000,江苏省,25,南京市,320116,六合区,4818651521,548,江北新区,2023-04-25 17:52:00,"{""rating"": ""3.9"", ""cost"": []}",摩托车服务,摩托车维修,摩托车维修,,118.695591,32.514104,118.690384689186,32.516211050964046
d2d9b2bb-ef3a-3950-825e-b86d72956cc6,飞达摩配,摩托车服务;摩托车服务相关;摩托车服务相关,40000,马鞍街道城西社区极乐路268号,"118.821629,32.351543",[],320000,江苏省,25,南京市,320116,六合区,4818462502,1627,江北新区,2023-05-04 01:17:00,"{""rating"": ""3.1"", ""cost"": []}",摩托车服务,摩托车服务相关,摩托车服务相关,,118.821629,32.351543,118.81646701703536,32.35369815071016
f0195646-7b58-3199-9499-f85e5423be19,小汪车行,摩托车服务;摩托车维修;摩托车维修,40200,西许路与解明路交叉口东150米,"118.912910,31.890632",138****0843,320000,江苏省,25,南京市,320115,江宁区,4718676320,225,[],2023-05-09 12:58:00,"{'rating': '4.0', 'cost': []}",摩托车服务,摩托车维修,摩托车维修,,118.91291,31.890632,118.9078980592799,31.892811185399893
8043bd48-3695-36f1-829b-a12dbabe0c04,东风本田特约销售服务店,摩托车服务;摩托车服务相关;摩托车服务相关,40000,泰山街道柳州北路2号,"118.718420,32.138646",[],320000,江苏省,25,南京市,320111,浦口区,4818156711,1997,江北新区,2022-07-19 16:43:00,"{""rating"": ""4.3"", ""cost"": []}",摩托车服务,摩托车服务相关,摩托车服务相关,,118.71842,32.138646,118.71320972942266,32.14071847142727
a3c999e8-2773-3973-86fe-6daa65177f01,大杨车业,摩托车服务;摩托车销售;摩托车销售|购物服务;购物相关场所;购物相关场所,040100|060000,"金宝商业广场,28栋1一5号","118.963156,32.056888",[],320000,江苏省,25,南京市,320115,江宁区,4818076720,275,[],2023-04-27 13:21:00,"{""rating"": ""3.6"", ""cost"": []}",摩托车服务,摩托车销售,摩托车销售|购物服务,,118.963156,32.056888,118.95803131167088,32.05902606977414
70f70195-d9ff-3de1-b279-454b86a50aeb,陈记电动车联盟(南京店),摩托车服务;摩托车销售;摩托车销售,40100,铁心桥街道银杏山庄(肯定宾馆旁),"118.761786,31.955033",[],320000,江苏省,25,南京市,320114,雨花台区,4718764012,1702,铁心桥,2022-07-21 10:49:00,"{""rating"": ""3.6"", ""cost"": []}",摩托车服务,摩托车销售,摩托车销售,,118.761786,31.955033,118.75657223248804,31.95704899626729
bb08e8bb-f7c9-3077-99e6-3fbf52edde13,修摩托电动车,摩托车服务;摩托车维修;摩托车维修,40200,瑞金路10-4号附近,"118.810529,32.031511",[],320000,江苏省,25,南京市,320104,秦淮区,4818063422,233,大光路,2023-04-10 17:25:00,"{""rating"": ""4.0"", ""cost"": []}",摩托车服务,摩托车维修,摩托车维修,,118.810529,32.031511,118.80537357902168,32.03360276035813
5d580665-84e8-35d2-803e-4a5d11477f4e,摩托车维修,摩托车服务;摩托车维修;摩托车维修|生活服务;维修站点;维修站点,040200|071200,临川街190号,"118.932581,31.931681",[],320000,江苏省,25,南京市,320115,江宁区,4718771421,296,淳化,2023-05-07 18:17:00,"{""rating"": ""3.8"", ""cost"": []}",摩托车服务,摩托车维修,摩托车维修|生活服务,,118.932581,31.931681,118.92754159984264,31.93385070231345
68602945-9284-38e6-8deb-0e5f7821d18e,光阳摩托授权南京乾永(常光),摩托车服务;摩托车销售;摩托车销售,40100,太平南路394-1号(常府街地铁站1号口步行360米),"118.791007,32.029806",025-84486432,320000,江苏省,25,南京市,320104,秦淮区,4818063310,1229,夫子庙,2023-03-26 18:19:00,"{""rating"": ""4.3"", ""cost"": []}",摩托车服务,摩托车销售,摩托车销售,,118.791007,32.029806,118.7858166105117,32.03186633491548
00c47da5-9a86-3b65-a6f9-e750f95f82e4,摩托修理,摩托车服务;摩托车维修;摩托车维修,40200,南京市公安局六合分局交通警察大队雄州中队东北门旁,"118.836570,32.343839",158****0797,320000,江苏省,25,南京市,320116,六合区,4818461602,1180,江北新区,2022-11-22 15:41:00,"{""rating"": ""3.7"", ""cost"": []}",摩托车服务,摩托车维修,摩托车维修,,118.83657,32.343839,118.83144053279516,32.34602224025144
97467cdb-a1cd-3acd-8686-e30f072cb77e,摩托车电动车维修(龙群路店),摩托车服务;摩托车维修;摩托车维修,40200,龙池花园西北1门西南80米,"118.807448,32.320154",159****7277,320000,江苏省,25,南京市,320116,六合区,4818368411,414,江北新区,2022-11-12 12:36:00,"{""rating"": ""4.2"", ""cost"": []}",摩托车服务,摩托车维修,摩托车维修,,118.807448,32.320154,118.80225982748271,32.322283368725365
bdc99da9-c4ae-35ef-859f-f4fb5a39cc19,摩托车电动车修配,摩托车服务;摩托车维修;摩托车维修,40200,唐练路与303县道交叉口北100米程桥镇人民政府竹程办事处附近,"118.728328,32.436561",159****6575,320000,江苏省,25,南京市,320116,六合区,4818552810,493,江北新区,2022-11-21 13:22:00,"{""rating"": ""4.0"", ""cost"": []}",摩托车服务,摩托车维修,摩托车维修,,118.728328,32.436561,118.72307838587189,32.43863883961302
fc83b3c0-d207-32ad-9679-8118eecfd10b,电动车摩托车维修,摩托车服务;摩托车维修;摩托车维修,40200,成元路与天元东路辅路交叉口西北160米,"118.862047,31.938967",[],320000,江苏省,25,南京市,320115,江宁区,4718762822,443,竹山路沿线,2022-09-07 13:17:00,"{""rating"": ""4.1"", ""cost"": []}",摩托车服务,摩托车维修,摩托车维修,,118.862047,31.938967,118.8570027880632,31.941128749601663
7d485f5a-9849-3c40-9b17-a496aa49b688,南京小河汽摩配,摩托车服务;摩托车服务相关;摩托车服务相关,40000,金宝汽配城,"118.963350,32.057530",[],320000,江苏省,25,南京市,320115,江宁区,4818076720,312,[],2023-04-22 12:00:00,"{""rating"": ""3.3"", ""cost"": []}",摩托车服务,摩托车服务相关,摩托车服务相关,,118.96335,32.05753,118.95822466416898,32.059667727571366
5ea144ee-3622-38ce-9d5e-6589d5e8e891,忠涛摩托有限公司,摩托车服务;摩托车服务相关;摩托车服务相关,40000,大东门步行街72附近,"119.031326,31.652167",[],320000,江苏省,25,南京市,320117,溧水区,4719308201,1796,永阳,2023-04-11 11:20:00,"{""rating"": ""3.7"", ""cost"": []}",摩托车服务,摩托车服务相关,摩托车服务相关,,119.031326,31.652167,119.0260023237008,31.654038867954306
fb76f45b-869a-3564-b0c4-b348c0cbd2bb,陈记酷车馆,摩托车服务;摩托车销售;摩托车销售,40100,露园小区南区东大门旁,"118.750947,32.031555",134****9897;137****1950,320000,江苏省,25,南京市,320105,建邺区,4818063020,1719,茶南,2023-05-02 14:00:00,"{""rating"": ""4.4"", ""cost"": []}",摩托车服务,摩托车销售,摩托车销售,,118.750947,32.031555,118.74572373841949,32.03358617669506
56903fe9-903c-3f0c-bc1d-4f62dcdb3a48,摩托车电动车维修部(云台街店),摩托车服务;摩托车销售;摩托车销售,40100,云台街与红星大道交叉口东南20米,"118.773568,31.775372",[],320000,江苏省,25,南京市,320115,江宁区,4718563102,484,[],2023-04-30 11:47:00,"{""rating"": ""3.7"", ""cost"": []}",摩托车服务,摩托车销售,摩托车销售,,118.773568,31.775372,118.7683790165491,31.77735998098784
3b323b97-6abc-3845-b66e-64f5e850ce45,贝纳利专卖店,摩托车服务;摩托车服务相关;摩托车服务相关,40000,虎踞北路90号,"118.753994,32.078521",[],320000,江苏省,25,南京市,320106,鼓楼区,4818069010,1299,挹江门,2023-04-27 10:35:00,"{""rating"": ""3.9"", ""cost"": []}",摩托车服务,摩托车服务相关,摩托车服务相关,,118.753994,32.078521,118.7487665557922,32.08056281448754
9a84f4f9-6c7e-3442-b381-d171aaf2a2d4,小祝摩托车电动车修配,摩托车服务;摩托车服务相关;摩托车服务相关,40000,小狮王街杨庄南村,"118.734223,32.210588",136****8190,320000,江苏省,25,南京市,320116,六合区,4818255802,771,江北新区,2023-05-04 06:54:00,"{""rating"": ""3.9"", ""cost"": []}",摩托车服务,摩托车服务相关,摩托车服务相关,,118.734223,32.210588,118.72898943682594,32.21265816427953
8e687351-a2c8-3225-b1fc-d5669d4eb490,小谢车行,摩托车服务;摩托车维修;摩托车维修,40200,东屏街与宁丹大道交叉口东200米,"118.771186,31.870793",[],320000,江苏省,25,南京市,320115,江宁区,4718664112,410,东善桥,2023-05-01 14:48:00,"{'rating': [], 'cost': []}",摩托车服务,摩托车维修,摩托车维修,,118.771186,31.870793,118.76598614031464,31.87279611471953
3cb5256f-7bd0-32eb-b6cb-9c1f6c6cb9b4,春风动力(萨家湾店),摩托车服务;摩托车服务相关;摩托车服务相关|购物服务;购物相关场所;购物相关场所,040000|060000,萨家湾39-3号,"118.759777,32.083049",025-58522226,320000,江苏省,25,南京市,320106,鼓楼区,4818069022,981,挹江门,2023-03-14 21:14:00,"{""rating"": ""4.0"", ""cost"": []}",摩托车服务,摩托车服务相关,摩托车服务相关|购物服务,,118.759777,32.083049,118.75455056497208,32.0850931968334
2ed3e091-725c-3924-912a-c0b91b538dae,南京仁尧摩配,摩托车服务;摩托车服务相关;摩托车服务相关,40000,江宁云华养老院西南侧300米,"118.962750,32.057770",139****7294,320000,江苏省,25,南京市,320115,江宁区,4818076720,370,[],2023-05-09 13:49:00,"{""rating"": ""3.6"", ""cost"": []}",摩托车服务,摩托车服务相关,摩托车服务相关,,118.96275,32.05777,118.95762645858986,32.05990927423452
a37123f0-f06b-377a-918a-22404df171cf,摩托车置换中心,摩托车服务;摩托车服务相关;摩托车服务相关,40000,堂子街太平天国壁画西南门旁,"118.768496,32.039325",137****9314;138****1415,320000,江苏省,25,南京市,320104,秦淮区,4818064121,1167,汉中门,2023-04-21 13:45:00,"{""rating"": ""4.0"", ""cost"": []}",摩托车服务,摩托车服务相关,摩托车服务相关,,118.768496,32.039325,118.76327847445404,32.041364067906386
e0479267-4133-38fe-bb0a-bf0ffa20d7f6,红叶摩配,摩托车服务;摩托车服务相关;摩托车服务相关,40000,港池大门口红枫浴室旁边,"118.936273,32.161973",[],320000,江苏省,25,南京市,320113,栖霞区,4818179412,434,[],2023-04-12 13:59:00,"{""rating"": ""4.0"", ""cost"": []}",摩托车服务,摩托车服务相关,摩托车服务相关,,118.936273,32.161973,118.93120598772728,32.164186866239284
6e4c06da-98e7-3566-994f-53f1465f182c,戴名车业,摩托车服务;摩托车维修;摩托车维修,40200,白玉路5号,"118.909293,32.225398",131****7310,320000,江苏省,25,南京市,320116,六合区,4818277202,119,江北新区,2023-05-12 15:04:00,"{""rating"": ""4.2"", ""cost"": []}",摩托车服务,摩托车维修,摩托车维修,,118.909293,32.225398,118.90425288993995,32.22764655155066
17cd4328-2b7d-3883-a7a4-fa7c404aa42b,殷巷摩配,摩托车服务;摩托车服务相关;摩托车服务相关,40000,双龙大道与清水亭西路交叉口南80米,"118.826568,31.916460",[],320000,江苏省,25,南京市,320115,江宁区,4718669620,1242,双龙大道,2023-04-27 11:16:00,"{""rating"": ""3.8"", ""cost"": []}",摩托车服务,摩托车服务相关,摩托车服务相关,,118.826568,31.91646,118.82145650032982,31.918554945292136
935931d9-afe7-3c78-9e9d-f9aade88173d,顺风车行,摩托车服务;摩托车维修;摩托车维修,40200,廷安北路方州广场邮局对面,"118.849121,32.357597",[],320000,江苏省,25,南京市,320116,六合区,4818462722,1354,江北新区,2023-04-29 11:52:00,"{""rating"": [], ""cost"": []}",摩托车服务,摩托车维修,摩托车维修,,118.849121,32.357597,118.8440156845202,32.35980257827674
914f3af4-638c-3700-870b-e0f9f7a6d497,钢城摩配,摩托车服务;摩托车服务相关;摩托车服务相关,40000,凤滨路南钢小区,"118.736125,32.202269",183****3743,320000,江苏省,25,南京市,320116,六合区,4818254802,203,江北新区,2022-11-22 00:56:00,"{""rating"": ""3.7"", ""cost"": []}",摩托车服务,摩托车服务相关,摩托车服务相关,,118.736125,32.202269,118.7308908864306,32.20433693936934
da63dde2-468f-32cf-ba45-cd98a4213cc7,宗申车辆,摩托车服务;摩托车销售;摩托车销售,40100,湖熟镇宝塔南路2号,"118.979360,31.857628",139****2100,320000,江苏省,25,南京市,320115,江宁区,4718672821,668,[],2023-04-27 10:40:00,"{""rating"": ""4.0"", ""cost"": []}",摩托车服务,摩托车销售,摩托车销售,,118.97936,31.857628,118.97420072258296,31.85967799804657
02cea010-b0a3-3b83-8394-5064c150653f,九号智能电动车(寅春路店),摩托车服务;摩托车销售;摩托车销售,40100,进取村157-153号,"118.844331,32.122927",152****1458,320000,江苏省,25,南京市,320113,栖霞区,4818164721,185,[],2023-04-23 08:33:00,"{""rating"": ""4.3"", ""cost"": []}",摩托车服务,摩托车销售,摩托车销售,,118.844331,32.122927,118.83923779968352,32.12510066796854
7c735d19-1990-30c1-94cc-a5aa8e58378f,阿伟机车馆,摩托车服务;摩托车销售;摩托车销售,40100,应天大街77号,"118.806782,32.005989",181****2308,320000,江苏省,25,南京市,320104,秦淮区,4818060421,1345,红花,2023-05-05 10:45:00,"{'rating': '4.7', 'cost': []}",摩托车服务,摩托车销售,摩托车销售,,118.806782,32.005989,118.80162154765276,32.008068405132704
91177bb8-5775-328c-9a54-a9ec9b484d4e,欧车Oche,摩托车服务;摩托车销售;摩托车销售,40100,玉盘东街与明城大道交叉路口南侧,"118.801156,31.972539",186****1000,320000,江苏省,25,南京市,320114,雨花台区,4718766420,66,宁南,2023-04-22 13:26:00,"{""rating"": ""4.5"", ""cost"": []}",摩托车服务,摩托车销售,摩托车销售,,118.801156,31.972539,118.79598804506377,31.974601334314
bc4ac0bf-7655-3791-97b6-15175747ddaf,电动车摩托车修理,摩托车服务;摩托车维修;摩托车维修,40200,金地华城南门东160米,"118.886433,31.335095",[],320000,江苏省,25,南京市,320118,高淳区,4718070002,1772,淳溪,2023-01-09 19:25:00,"{""rating"": ""3.8"", ""cost"": []}",摩托车服务,摩托车维修,摩托车维修,,118.886433,31.335095,118.88147068952894,31.33728998066701
561e7bbf-4ebe-32a8-b0cd-9c7b3eacb7f0,江苏宗申专卖,摩托车服务;摩托车销售;摩托车销售|购物服务;购物相关场所;购物相关场所,040100|060000,龙都镇虹南路179号,"118.933971,31.833333",[],320000,江苏省,25,南京市,320115,江宁区,4718579422,291,[],2023-05-03 01:22:00,"{""rating"": ""3.7"", ""cost"": []}",摩托车服务,摩托车销售,摩托车销售|购物服务,,118.933971,31.833333,118.92893804560832,31.83548022777981
1b4a7d14-7ce8-3cd9-9a25-20b20bbf3334,江北惠强机动车维修中心,摩托车服务;摩托车维修;摩托车维修|生活服务;生活服务场所;生活服务场所|汽车维修;汽车维修;汽车维修,040200|070000|030000,大厂育英路309号百悦家花园南门,"118.757207,32.211746",025-57790455;189****2097,320000,江苏省,25,南京市,320116,六合区,4818265011,1836,西厂门,2023-05-11 18:38:00,"{""rating"": ""3.6"", ""cost"": []}",摩托车服务,摩托车维修,摩托车维修|生活服务,,118.757207,32.211746,118.75196779370754,32.21381225299146
676e1aa6-103e-3948-9193-8b8693c51429,小倪摩配,摩托车服务;摩托车服务相关;摩托车服务相关,40000,高狮线与高旺狮子岭路交叉口东北120米,"118.574811,31.998876",[],320000,江苏省,25,南京市,320111,浦口区,4718749522,490,江北新区,2022-07-18 23:42:00,"{""rating"": ""3.0"", ""cost"": []}",摩托车服务,摩托车服务相关,摩托车服务相关,,118.574811,31.998876,118.56979048191155,32.00107555806367
f4f98bd7-b1ce-3abc-b6c4-953fb156a5a6,建设摩托专卖店,摩托车服务;摩托车销售;摩托车销售,40100,四马线附近,"118.877405,32.560436",[],320000,江苏省,25,南京市,320116,六合区,4818677000,644,江北新区,2022-11-21 23:33:00,"{""rating"": ""2.6"", ""cost"": []}",摩托车服务,摩托车销售,摩托车销售,,118.877405,32.560436,118.8723244769462,32.56264975415422
62266e46-7db6-3107-9ac3-85e2bfd6ed57,雅马哈,摩托车服务;摩托车销售;摩托车销售,40100,永宁西街111附近,"119.159207,31.367512",[],320000,江苏省,25,南京市,320118,高淳区,4719014202,1713,桠溪,2022-11-21 23:55:00,"{""rating"": ""3.5"", ""cost"": []}",摩托车服务,摩托车销售,摩托车销售,,119.159207,31.367512,119.15386861145733,31.369394064515536
2aa27ac4-76d6-35bc-bfea-7a34cedb4146,铃木豪爵摩托车,摩托车服务;摩托车销售;摩托车销售,40100,乐家家工业园东南门东北60米,"118.612982,31.873446",[],320000,江苏省,25,南京市,320115,江宁区,4718644920,1155,[],2023-05-13 09:55:00,"{""rating"": ""3.8"", ""cost"": []}",摩托车服务,摩托车销售,摩托车销售,,118.612982,31.873446,118.60798436829911,31.87562402672729
6ba478f4-31ab-3ac0-96a0-347ec18af8cc,嘉陵摩托,摩托车服务;摩托车销售;摩托车销售,40100,谢村街与江横线交叉口西220米,"118.864801,31.685984",[],320000,江苏省,25,南京市,320115,江宁区,4718462900,1828,[],2023-04-17 12:11:00,"{""rating"": ""2.9"", ""cost"": []}",摩托车服务,摩托车销售,摩托车销售,,118.864801,31.685984,118.85978381270778,31.688108040581827
534b873a-07b6-3475-93b2-3bd3a7715a06,雅迪电动车(汤泉店),摩托车服务;摩托车销售;摩托车销售,40100,银泉路20-1号,"118.515163,32.091723",138****4257,320000,江苏省,25,南京市,320111,浦口区,4818141100,232,江北新区,2023-04-20 20:23:00,"{""rating"": ""4.4"", ""cost"": []}",摩托车服务,摩托车销售,摩托车销售,,118.515163,32.091723,118.50997583199842,32.093816384454364
603d56b7-b94e-3dbb-96fc-8c8bb4fee33a,修理摩托车电动车,摩托车服务;摩托车维修;摩托车维修,40200,汤青路与铜龙省道交叉口南240米,"119.066209,32.057001",[],320000,江苏省,25,南京市,320115,江宁区,4819006520,254,[],2023-04-22 14:12:00,"{'rating': '3.6', 'cost': []}",摩托车服务,摩托车维修,摩托车维修,,119.066209,32.057001,119.06075925358168,32.058870325142685
49fd5558-7244-3443-8562-8773d9bef812,摩托修配,摩托车服务;摩托车维修;摩托车维修,40200,吴家闸路与东升路交叉口南100米,"119.081423,32.201257",[],320000,江苏省,25,南京市,320113,栖霞区,4819204601,532,龙潭,2023-03-20 13:41:00,"{""rating"": [], ""cost"": []}",摩托车服务,摩托车维修,摩托车维修,,119.081423,32.201257,119.07593884999422,32.20313670189127
e17fc0a2-b7a1-3987-b55a-60e94859666d,摩托电动维修,摩托车服务;摩托车维修;摩托车维修,40200,东庐路与韩湖西路交叉口东南100米,"119.077880,31.609015",[],320000,江苏省,25,南京市,320117,溧水区,4719303600,516,[],2023-04-02 11:33:00,"{""rating"": ""3.5"", ""cost"": []}",摩托车服务,摩托车维修,摩托车维修,,119.07788,31.609015,119.0724558148354,31.61080019607937
70647045-6b5b-3e25-b266-18ce48e7c59d,南京瑞祥摩配,摩托车服务;摩托车服务相关;摩托车服务相关,40000,麒麟街道晨光社区金宝汽摩配市场30幢-1号,"118.963002,32.057264",025-84875409;186****9532,320000,江苏省,25,南京市,320115,江宁区,4818076720,313,[],2023-04-23 13:42:00,"{""rating"": ""4.2"", ""cost"": []}",摩托车服务,摩托车服务相关,摩托车服务相关,,118.963002,32.057264,118.95787774355426,32.05940253637721
0da91324-9cc4-3a0d-a8cb-da5aa56a0a7d,天星摩配,摩托车服务;摩托车服务相关;摩托车服务相关,40000,[],"118.962915,32.056835",025-84273066,320000,江苏省,25,南京市,320115,江宁区,4818076720,290,[],2022-11-22 00:39:00,"{""rating"": ""4.2"", ""cost"": []}",摩托车服务,摩托车服务相关,摩托车服务相关,,118.962915,32.056835,118.95779104601,32.058973657912105
448a1366-c601-3277-8d95-28a6f74ea00c,烽机车,摩托车服务;摩托车销售;摩托车销售,40100,内环西线出口与内环西线交叉口东20米,"118.753978,32.078270",[],320000,江苏省,25,南京市,320106,鼓楼区,4818069010,1298,挹江门,2023-01-04 17:07:00,"{""rating"": ""3.5"", ""cost"": []}",摩托车服务,摩托车销售,摩托车销售,,118.753978,32.07827,118.74875057711948,32.080311758531806
d695294b-a72a-38aa-be7e-50782205f1e1,曹记车行,摩托车服务;摩托车销售;摩托车销售,40100,萨家湾39-7号楼附近,"118.759934,32.083023",025-58522226;025-83462226,320000,江苏省,25,南京市,320106,鼓楼区,4818069022,968,挹江门,2023-04-12 21:53:00,"{""rating"": ""4.5"", ""cost"": []}",摩托车服务,摩托车销售,摩托车销售,,118.759934,32.083023,118.75470762639144,32.08506724723451
b8877c8f-dbaa-3aeb-9825-bbb7caa1a91b,劲速摩托,摩托车服务;摩托车销售;摩托车销售,40100,龙津路19号,"118.841994,32.340128",138****6730,320000,江苏省,25,南京市,320116,六合区,4818460721,1343,江北新区,2023-05-13 11:06:00,"{""rating"": ""4.3"", ""cost"": []}",摩托车服务,摩托车销售,摩托车销售,,118.841994,32.340128,118.83687612603067,32.34232119010552
81828cee-cd9c-3aff-84d3-1dad77b0fdef,志强摩配,摩托车服务;摩托车服务相关;摩托车服务相关,40000,康乐路90-6号,"118.869437,31.331143",137****7650,320000,江苏省,25,南京市,320118,高淳区,4618769921,580,淳溪,2023-01-11 17:07:00,"{""rating"": ""4.0"", ""cost"": []}",摩托车服务,摩托车服务相关,摩托车服务相关,,118.869437,31.331143,118.86445794144002,31.33332329309779
dd4a7d1b-43d7-3755-a4e3-ae3808027439,德胜电动摩配车行,摩托车服务;摩托车服务相关;摩托车服务相关,40000,古柏街道花园大道150号(东升农家乐旁),"118.933658,31.352215",[],320000,江苏省,25,南京市,320118,高淳区,4718072402,1680,[],2023-04-06 04:24:00,"{""rating"": ""3.8"", ""cost"": []}",摩托车服务,摩托车服务相关,摩托车服务相关,,118.933658,31.352215,118.92866855626076,31.35438628277466
e61a4b6e-82f1-3fc0-b566-118718f8ae85,KYMCO光阳摩托南京庆鸿,摩托车服务;摩托车销售;摩托车销售,40100,王府大街139号,"118.777377,32.034683",025-86561753,320000,江苏省,25,南京市,320104,秦淮区,4818064200,190,止马营,2022-11-22 13:27:00,"{""rating"": ""4.3"", ""cost"": []}",摩托车服务,摩托车销售,摩托车销售,,118.777377,32.034683,118.77216804642212,32.036728340297245
1d22c6f6-02f7-32b4-b692-3754e1e26049,哈罗摩托名车汇机车生活馆,摩托车服务;摩托车销售;摩托车销售,40100,虎踞南路40-12号附近,"118.767824,32.037964",[],320000,江苏省,25,南京市,320104,秦淮区,4818064111,1144,汉中门,2023-05-07 12:57:00,"{""rating"": ""4.0"", ""cost"": []}",摩托车服务,摩托车销售,摩托车销售,,118.767824,32.037964,118.76260611252292,32.040002317705245
7ce960bb-f90f-32ca-a8a2-c8d13521daae,小昌摩配,摩托车服务;摩托车销售;摩托车销售,40100,山水云房西北侧290米,"118.696634,32.116384",[],320000,江苏省,25,南京市,320111,浦口区,4818153522,489,江北新区,2023-04-20 13:57:00,"{""rating"": ""3.5"", ""cost"": []}",摩托车服务,摩托车销售,摩托车销售,,118.696634,32.116384,118.69146252424213,32.118483402811975
f33bd05a-be2f-3e81-89c3-cb03a85a9a3b,有明电动车行,摩托车服务;摩托车销售;摩托车销售,40100,天河路32号(苏宁易购斜对面)爱玛电动车有明车行,"118.866446,31.319812",137****7761,320000,江苏省,25,南京市,320118,高淳区,4618768910,1774,淳溪,2023-05-10 06:33:00,"{""rating"": ""3.9"", ""cost"": []}",摩托车服务,摩托车销售,摩托车销售,,118.866446,31.319812,118.8614637768912,31.32199258674228
d68be0f1-d5d2-39c6-b215-37228321a1a0,南京包氏摩托车销售有限公司,摩托车服务;摩托车服务相关;摩托车服务相关,40000,大厂杨村一路210号,"118.756473,32.244439",133****0885;137****4868,320000,江苏省,25,南京市,320116,六合区,4818269001,258,江北新区,2023-05-03 13:33:00,"{""rating"": ""4.7"", ""cost"": []}",摩托车服务,摩托车服务相关,摩托车服务相关,,118.756473,32.244439,118.75123056654084,32.24650893809808
58e3fac1-cb21-3276-8e21-2b3531c8639b,摩托车大卖场,摩托车服务;摩托车销售;摩托车销售,40100,秣陵街道诚信大道星光名座广场3栋103,"118.838671,31.909262",138****7734;181****5152,320000,江苏省,25,南京市,320115,江宁区,4718669700,612,[],2023-03-31 11:50:00,"{""rating"": ""3.9"", ""cost"": []}",摩托车服务,摩托车销售,摩托车销售,,118.838671,31.909262,118.8335857099009,31.911378003259745
621c32ec-ff98-3f20-b35c-303c8c8c967a,大厂贝纳利光阳摩托车专卖店,摩托车服务;摩托车服务相关;摩托车服务相关,40000,扬村一路208号,"118.756533,32.244447",133****0885;138****8826,320000,江苏省,25,南京市,320116,六合区,4818269011,258,江北新区,2023-05-04 11:55:00,"{""rating"": ""4.3"", ""cost"": []}",摩托车服务,摩托车服务相关,摩托车服务相关,,118.756533,32.244447,118.75129057964364,32.246516952752074
0508a350-9ba2-32f1-bc07-6d11aa5bb145,梁学林摩托车经营,摩托车服务;摩托车服务相关;摩托车服务相关,40000,桥林街道明因寺社区浦乌大街31号52-1号,"118.534216,31.944076",[],320000,江苏省,25,南京市,320111,浦口区,4718743202,305,江北新区,2022-12-30 20:11:00,"{'rating': '3.5', 'cost': []}",摩托车服务,摩托车服务相关,摩托车服务相关,,118.534216,31.944076,118.52910707644472,31.94618833401872
126ade09-c44f-368d-ae95-ee77eecb3771,小兵摩配,摩托车服务;摩托车服务相关;摩托车服务相关,40000,金城厂斜对面,"118.965624,31.876584",[],320000,江苏省,25,南京市,320115,江宁区,4718675700,1816,[],2023-05-03 08:34:00,"{""rating"": ""3.6"", ""cost"": []}",摩托车服务,摩托车服务相关,摩托车服务相关,,118.965624,31.876584,118.96050822487278,31.87867525267675
41fd60cb-2aca-31fe-9dce-1f83e7b8eead,孙有弟摩托车维修部,摩托车服务;摩托车维修;摩托车维修,40200,东北老贵木业西北侧,"118.685648,31.905278",[],320000,江苏省,25,南京市,320115,江宁区,4718658412,524,[],2023-04-26 13:59:00,"{""rating"": ""3.6"", ""cost"": []}",摩托车服务,摩托车维修,摩托车维修,,118.685648,31.905278,118.68051854883602,31.90734980164402
ad60957b-9472-378f-ab28-8bea5bfa6a97,摩托车电动车修理,摩托车服务;摩托车服务相关;摩托车服务相关,40000,建宁二村东南门旁,"118.703560,31.952742",131****0901,320000,江苏省,25,南京市,320114,雨花台区,4718754600,257,西善桥,2023-02-14 13:34:00,"{""rating"": ""4.0"", ""cost"": []}",摩托车服务,摩托车服务相关,摩托车服务相关,,118.70356,31.952742,118.69839046497948,31.95479386863194
c8f3b69b-8647-3343-ba09-d556bf00f845,摩托车电动车自行车修理,摩托车服务;摩托车服务相关;摩托车服务相关,40000,东庐线与韩湖东路交叉口西20米,"119.074870,31.602351",[],320000,江苏省,25,南京市,320117,溧水区,4719302502,289,[],2023-01-05 22:51:00,"{""rating"": ""3.0"", ""cost"": []}",摩托车服务,摩托车服务相关,摩托车服务相关,,119.07487,31.602351,119.06945009178054,31.6041392955625
7a79b541-0989-375e-9c49-b3a264dc15f1,HONDA,摩托车服务;摩托车销售;摩托车销售,40100,淳化街道湖山路717号,"118.871519,31.938487",025-87133389,320000,江苏省,25,南京市,320115,江宁区,4718762912,496,[],2023-05-12 19:39:00,"{""rating"": ""4.6"", ""cost"": []}",摩托车服务,摩托车销售,摩托车销售,,118.871519,31.938487,118.86648845357225,31.940661019694737
14f2add0-3b58-3dbc-b1ac-9ca6dab8ac04,南京优配智联汽车服务有限公司,摩托车服务;摩托车服务相关;摩托车服务相关,40000,雨花南路11号,"118.775106,31.993554",159****0005,320000,江苏省,25,南京市,320114,雨花台区,4718769200,715,宁南,2023-05-06 13:11:00,"{""rating"": ""3.5"", ""cost"": []}",摩托车服务,摩托车服务相关,摩托车服务相关,,118.775106,31.993554,118.7698984678542,31.995587777243323
01fb8e3d-6730-3d97-aa90-1cb65aaa6a6f,小张车行,摩托车服务;摩托车维修;摩托车维修,40200,浦口区第二中学西南门西北130米,"118.623774,32.052066",158****0041,320000,江苏省,25,南京市,320111,浦口区,4818046902,266,江北新区,2023-05-03 04:43:00,"{""rating"": ""4.3"", ""cost"": []}",摩托车服务,摩托车维修,摩托车维修,,118.623774,32.052066,118.61875042339446,32.05427509071511
110f3a00-efb3-311d-91a7-ed0a4561cc2b,摩托车专卖,摩托车服务;摩托车销售;摩托车销售,40100,航信大厦东门旁,"118.838513,31.909255",[],320000,江苏省,25,南京市,320115,江宁区,4718669700,626,[],2022-11-19 17:24:00,"{""rating"": ""3.8"", ""cost"": []}",摩托车服务,摩托车销售,摩托车销售,,118.838513,31.909255,118.83342738296544,31.911370710885624
05665dfb-1ea4-3e4b-8caa-a8347ff1ab47,疯狂绵羊机车商行,摩托车服务;摩托车销售;摩托车销售,40100,卜凡车业捷达摩托南京总代理东侧,"118.963380,32.057155",137****7881,320000,江苏省,25,南京市,320115,江宁区,4818076720,279,[],2023-04-06 18:02:00,"{""rating"": ""3.4"", ""cost"": []}",摩托车服务,摩托车销售,摩托车销售,,118.96338,32.057155,118.95825460742694,32.059292569767095
c1b332b6-5671-3387-b635-87fb6ca0325a,南京宝昌,摩托车服务;摩托车服务相关;摩托车服务相关,40000,仙林汽配城19栋8号,"118.898036,32.111127",[],320000,江苏省,25,南京市,320113,栖霞区,4818173112,169,尧化,2022-06-24 04:54:00,"{""rating"": [], ""cost"": []}",摩托车服务,摩托车服务相关,摩托车服务相关,,118.898036,32.111127,118.89300860278868,32.11335779186968
dcebcf2d-fd28-3199-9283-31a7a3651273,CFMOTO,摩托车服务;摩托车销售;摩托车销售,40100,高淳大市场北1门旁,"118.866880,31.336642",[],320000,江苏省,25,南京市,320118,高淳区,4718060911,102,淳溪,2022-08-15 22:20:00,"{""rating"": ""2.5"", ""cost"": []}",摩托车服务,摩托车销售,摩托车销售,,118.86688,31.336642,118.8618969148305,31.338817103898663
c6b33792-6827-3317-a426-d94896a0ee99,小陈摩托修理,摩托车服务;摩托车维修;摩托车维修,40200,孔镇北路与西湖路交叉口北100米,"119.002339,31.486159",[],320000,江苏省,25,南京市,320117,溧水区,4719108010,439,[],2023-05-06 02:17:00,"{""rating"": ""0.6"", ""cost"": []}",摩托车服务,摩托车维修,摩托车维修,,119.002339,31.486159,118.99713119716262,31.488125704155166
50bb09f4-99e1-326e-b252-3ee838d5e962,铃木豪爵,摩托车服务;摩托车销售;摩托车销售,40100,双走路与东街交叉口东南140米,"118.997357,31.389215",[],320000,江苏省,25,南京市,320117,溧水区,4718076922,192,和凤,2023-03-20 12:09:00,"{'rating': '3.6', 'cost': []}",摩托车服务,摩托车销售,摩托车销售,,118.997357,31.389215,118.99217613811284,31.39121899841697
28309a03-9cbe-37ea-a19c-1d9d595717fd,新大洲本田(萨家湾店),摩托车服务;摩托车销售;摩托车销售,40100,铁路北街39-2号附近,"118.759981,32.083032",189****2226,320000,江苏省,25,南京市,320106,鼓楼区,4818069022,965,挹江门,2022-11-26 17:30:00,"{""rating"": ""4.0"", ""cost"": []}",摩托车服务,摩托车销售,摩托车销售,,118.759981,32.083032,118.75475464342937,32.08507626606849
b4caa6e4-40e2-3628-86eb-9a3cf5bdec29,大众摩托车电动车修理,摩托车服务;摩托车维修;摩托车维修,40200,秦淮大道东150米金源传媒附近,"119.044643,31.672275",[],320000,江苏省,25,南京市,320117,溧水区,4719400321,269,[],2023-05-08 14:05:00,"{""rating"": ""3.8"", ""cost"": []}",摩托车服务,摩托车维修,摩托车维修,,119.044643,31.672275,119.0392781037766,31.674115015024864
3b463ade-f80b-3323-9a03-5396a714db1a,无极(华航店),摩托车服务;摩托车销售;摩托车销售,40100,文德路33号(文德路地铁站3号口步行270米),"118.624650,32.054854",[],320000,江苏省,25,南京市,320111,浦口区,4818046912,555,江浦,2023-05-08 12:15:00,"{""rating"": ""3.6"", ""cost"": []}",摩托车服务,摩托车销售,摩托车销售,,118.62465,32.054854,118.61962514739773,32.057062784221806
026df56e-c46a-341d-b847-4548ff95dbce,摩托电动车修配,摩托车服务;摩托车维修;摩托车维修,40200,桂园东路与桂园南路交叉口东40米,"119.064973,31.937880",[],320000,江苏省,25,南京市,320115,江宁区,4719702510,988,[],2023-04-23 14:14:00,"{'rating': '3.6', 'cost': []}",摩托车服务,摩托车维修,摩托车维修,,119.064973,31.93788,119.0595367788907,31.93972390398424
c6da0edb-73fb-3b3c-a716-bd50e0cdb21e,YAMAHA,摩托车服务;摩托车销售;摩托车销售,40100,凤凰东路与葛关路交叉口西南160米,"118.765270,32.223193",[],320000,江苏省,25,南京市,320116,六合区,4818266120,356,江北新区,2023-04-23 12:57:00,"{""rating"": ""3.9"", ""cost"": []}",摩托车服务,摩托车销售,摩托车销售,,118.76527,32.223193,118.76003323686908,32.22526399567627
80e81202-cb1a-3745-8a2a-827408c08b64,雅迪电动车(仙鹤门店),摩托车服务;摩托车销售;摩托车销售,40100,鹤鸣路52号仙鹤茗苑4栋门面房,"118.903786,32.087670",136****9393,320000,江苏省,25,南京市,320102,玄武区,4818170210,407,亚东,2023-05-03 04:55:00,"{""rating"": ""4.1"", ""cost"": []}",摩托车服务,摩托车销售,摩托车销售,,118.903786,32.08767,118.89876036827508,32.08989616472032
9d82ef1e-1f82-35b6-9ba8-7971b4c7813b,金盾摩托售后服务中心,摩托车服务;摩托车维修;摩托车维修,40200,天印大道720号,"118.857998,31.958780",138****6802,320000,江苏省,25,南京市,320115,江宁区,4718765801,1533,[],2023-04-08 23:46:00,"{""rating"": ""4.6"", ""cost"": []}",摩托车服务,摩托车维修,摩托车维修,,118.857998,31.95878,118.85294530287491,31.960940251109044
a6e2b56d-5605-380a-b26f-18bf505ec339,助理摩托车电动车,摩托车服务;摩托车服务相关;摩托车服务相关,40000,汤青路与铜龙省道交叉口南240米,"119.066154,32.057079",[],320000,江苏省,25,南京市,320115,江宁区,4819006520,257,[],2023-04-30 11:21:00,"{'rating': '3.2', 'cost': []}",摩托车服务,摩托车服务相关,摩托车服务相关,,119.066154,32.057079,119.060704342241,32.05894842085208
d95121ab-1a76-3d40-bc92-ebd4dc88ff9c,小王电动车修配,摩托车服务;摩托车服务相关;摩托车服务相关,40000,建设新村42幢2单元,"119.074907,32.174030",135****6195,320000,江苏省,25,南京市,320113,栖霞区,4819200522,245,龙潭,2023-05-09 10:31:00,"{""rating"": ""4.1"", ""cost"": []}",摩托车服务,摩托车服务相关,摩托车服务相关,,119.074907,32.17403,119.06943280322804,32.175911453617346
be9d8658-5b60-38e5-a9ff-a55cc6392d99,五羊-本田(大厂店),摩托车服务;摩托车销售;摩托车销售,40100,扬村一路200号,"118.756467,32.244425",[],320000,江苏省,25,南京市,320116,六合区,4818269001,256,江北新区,2023-04-25 13:21:00,"{""rating"": ""3.9"", ""cost"": []}",摩托车服务,摩托车销售,摩托车销售,,118.756467,32.244425,118.75122456647024,32.24649493527679
5cbc2d8f-24f5-3d6a-8eb4-8e0db0582f41,卜凡车业捷达摩托南京总代理,摩托车服务;摩托车服务相关;摩托车服务相关,40000,麒麟门街道晨光社区金宝汽摩配件城28栋一5后门,"118.963074,32.057208",173****4727,320000,江苏省,25,南京市,320115,江宁区,4818076720,304,[],2023-04-29 13:44:00,"{""rating"": ""4.1"", ""cost"": []}",摩托车服务,摩托车服务相关,摩托车服务相关,,118.963074,32.057208,118.95794953074711,32.05934634478778
593b18e7-3a53-32a1-8275-55ce6dfe2f90,文阁电动车摩托车修理,摩托车服务;摩托车维修;摩托车维修,40200,周岗社区长干路6号,"118.953542,31.796119",[],320000,江苏省,25,南京市,320115,江宁区,4718575610,147,[],2022-09-07 13:35:00,"{""rating"": ""3.6"", ""cost"": []}",摩托车服务,摩托车维修,摩托车维修,,118.953542,31.796119,118.94846851746463,31.798224015815247
bac245fb-187b-3ef8-9780-2a822b314d13,小凌快修电动车摩托车,摩托车服务;摩托车维修;摩托车维修,40200,朝阳西苑16栋7号门面房,"118.650748,31.916987",182****2653,320000,江苏省,25,南京市,320114,雨花台区,4718750200,386,[],2023-04-12 20:29:00,"{""rating"": ""4.3"", ""cost"": []}",摩托车服务,摩托车维修,摩托车维修,,118.650748,31.916987,118.64569292588344,31.91912663583772
b7c2bec3-7907-3473-b3bd-c46aed9f4acd,专业维修摩托车,摩托车服务;摩托车维修;摩托车维修,40200,江横路与吴庄路交叉口东北40米,"118.615520,31.824361",135****9702,320000,江苏省,25,南京市,320115,江宁区,4718548920,157,[],2023-04-21 01:50:00,"{'rating': '3.7', 'cost': []}",摩托车服务,摩托车维修,摩托车维修,,118.61552,31.824361,118.6105249031844,31.826527718168443
c912c79c-f0b9-3a1d-b349-f70f117f030a,南京潇童五金机电商城,摩托车服务;摩托车服务相关;摩托车服务相关,40000,板桥红太阳装饰城B8区1幢126号,"118.669737,31.936219",131****3729,320000,江苏省,25,南京市,320114,雨花台区,4718752311,1416,[],2023-05-03 11:51:00,"{'rating': '4.2', 'cost': []}",摩托车服务,摩托车服务相关,摩托车服务相关,,118.669737,31.936219,118.66463971205114,31.938327825620824
66be6218-06e2-3924-9a7c-1af06e534c56,南京宁摩旧摩托车交易市场有限公司,摩托车服务;摩托车销售;摩托车销售,40100,栖霞大道2号,"118.819060,32.114746",[],320000,江苏省,25,南京市,320113,栖霞区,4818163521,1459,迈皋桥,2023-05-03 13:02:00,"{""rating"": ""4.3"", ""cost"": []}",摩托车服务,摩托车销售,摩托车销售,,118.81906,32.114746,118.8139144570332,32.11687111601551
93ba78e4-d4e3-3d59-b033-a969d016bb9c,龙威电瓶摩托车维修部,摩托车服务;摩托车服务相关;摩托车服务相关,40000,G104(浦泗路),"118.656263,32.163369",137****8796;138****2898,320000,江苏省,25,南京市,320111,浦口区,4818159211,254,江北新区,2022-11-22 01:58:00,"{""rating"": ""3.7"", ""cost"": []}",摩托车服务,摩托车服务相关,摩托车服务相关,,118.656263,32.163369,118.6511742726771,32.165551925401104
a6c30bf6-6033-3fb5-a3b5-255a5453f12e,川崎(南京店),摩托车服务;摩托车销售;摩托车销售,40100,南京江宁区清水亭东路1286号,"118.839701,31.886974",025-84155799,320000,江苏省,25,南京市,320115,江宁区,4718666710,612,[],2023-05-04 12:35:00,"{""rating"": ""4.8"", ""cost"": []}",摩托车服务,摩托车销售,摩托车销售,,118.839701,31.886974,118.83461986074312,31.889087079358344
f1aa6422-63a8-3add-82a3-449585ce990c,摩托车电动车修理部,摩托车服务;摩托车维修;摩托车维修,40200,南湖茶亭村玉塘街新大洲专卖店,"118.753587,32.031700",156****1268,320000,江苏省,25,南京市,320105,建邺区,4818063020,1673,茶南,2023-04-24 07:27:00,"{""rating"": ""4.3"", ""cost"": []}",摩托车服务,摩托车维修,摩托车维修,,118.753587,32.0317,118.74836384467058,32.03373139561622
c6b1cbef-e4e2-3914-944e-47bd9624ed5d,本田梦想之翼,摩托车服务;摩托车销售;摩托车销售,40100,天元东路与天元东路辅路交叉口南约80米,"118.871673,31.938455",[],320000,江苏省,25,南京市,320115,江宁区,4718762912,511,[],2023-03-01 21:01:00,"{""rating"": ""4.3"", ""cost"": []}",摩托车服务,摩托车销售,摩托车销售,,118.871673,31.938455,118.86664265190456,31.940629191683616
0c413cde-f9f8-3883-bcf2-607c669e84e4,小海摩配,摩托车服务;摩托车销售;摩托车销售,40100,谷里街道振容路55号,"118.695840,31.867703",153****6777,320000,江苏省,25,南京市,320115,江宁区,4718654502,570,谷里,2023-05-03 07:20:00,"{""rating"": ""3.7"", ""cost"": []}",摩托车服务,摩托车销售,摩托车销售,,118.69584,31.867703,118.69069288082456,31.86974875724024
7029ec4e-9727-3109-9692-57fef44c0b06,南京鑫勇者诚商贸有限公司,摩托车服务;摩托车服务相关;摩托车服务相关,40000,天元东路927号(龙眠大道地铁站1号口步行260米),"118.879643,31.940618",177****2161,320000,江苏省,25,南京市,320115,江宁区,4718772021,1236,[],2023-05-11 17:20:00,"{""rating"": [], ""cost"": []}",摩托车服务,摩托车服务相关,摩托车服务相关,,118.879643,31.940618,118.87462130462802,31.942800886029826
05322c65-f474-3c26-a4cb-e46ec7d4be66,张浩摩配,摩托车服务;摩托车服务相关;摩托车服务相关,40000,来凤街与来凤里交叉口北40米,"118.770405,32.021775",[],320000,江苏省,25,南京市,320104,秦淮区,4818062111,1510,来凤街,2023-05-11 23:14:00,"{""rating"": ""3.7"", ""cost"": []}",摩托车服务,摩托车服务相关,摩托车服务相关,,118.770405,32.021775,118.76519058268524,32.02381142439372
d9ef5c7d-56a9-3409-b320-aa26a550e33a,黑皮摩托电动车维修中心,摩托车服务;摩托车维修;摩托车维修,40200,安德门雨花南路48号,"118.767936,31.995202",150****5409,320000,江苏省,25,南京市,320114,雨花台区,4718769111,37,赛虹桥,2023-03-24 18:52:00,"{""rating"": ""4.1"", ""cost"": []}",摩托车服务,摩托车维修,摩托车维修,,118.767936,31.995202,118.76272214322252,31.99723059197332
4d96cf54-cdfa-35f8-884a-16b39ca24678,摩托车电动车修配,摩托车服务;摩托车服务相关;摩托车服务相关,40000,侍郎路与观音跳路交叉口东南20米,"118.689872,32.513801",[],320000,江苏省,25,南京市,320116,六合区,4818651510,292,江北新区,2023-04-10 00:17:00,"{""rating"": ""3.5"", ""cost"": []}",摩托车服务,摩托车服务相关,摩托车服务相关,,118.689872,32.513801,118.68467746106975,32.515918112366286
b217cbfa-f667-36e1-9650-5f0d509a2d36,太平摩托车电动车维修,摩托车服务;摩托车维修;摩托车维修,40200,太平路与宁海线辅路交叉口南20米,"118.972927,32.319944",[],320000,江苏省,25,南京市,320116,六合区,4818378712,345,江北新区,2022-12-10 17:48:00,"{""rating"": ""3.5"", ""cost"": []}",摩托车服务,摩托车维修,摩托车维修,,118.972927,32.319944,118.96774689066038,32.32209370068482
d5761df2-3e07-39a1-a3cc-cd19aefb293b,摩托车电动车销售维修,摩托车服务;摩托车服务相关;摩托车服务相关,40000,圣竹线与石侯路交叉口北40米,"118.743961,32.554070",[],320000,江苏省,25,南京市,320116,六合区,4818656911,509,江北新区,2023-04-05 20:01:00,"{""rating"": ""3.5"", ""cost"": []}",摩托车服务,摩托车服务相关,摩托车服务相关,,118.743961,32.55407,118.73869008304388,32.556115905746246
bf223c0f-46e1-3559-802e-aa3eecea5718,修理摩托车电动车,摩托车服务;摩托车服务相关;摩托车服务相关,40000,341省道与老水线交叉口西400米,"119.107145,31.609315",[],320000,江苏省,25,南京市,320117,溧水区,4719303801,162,[],2023-05-04 13:14:00,"{""rating"": ""2.8"", ""cost"": []}",摩托车服务,摩托车服务相关,摩托车服务相关,,119.107145,31.609315,119.1017102367858,31.611092567600657
1b5dd773-36d5-3b2a-82ea-b677d95b29ff,标致摩托(萨家湾店),摩托车服务;摩托车销售;摩托车销售,40100,金川雅居西南门东60米,"118.760187,32.083050",[],320000,江苏省,25,南京市,320106,鼓楼区,4818069022,952,挹江门,2022-11-25 21:09:00,"{""rating"": ""3.7"", ""cost"": []}",摩托车服务,摩托车销售,摩托车销售,,118.760187,32.08305,118.75496072121555,32.08509434502888
317db5cf-3c12-3daf-879c-b8eb0df5ed8f,铃木(江宁店),摩托车服务;摩托车销售;摩托车销售,40100,东山镇文靖路478号,"118.853610,31.960090",[],320000,江苏省,25,南京市,320115,江宁区,4718765800,1322,[],2023-03-16 10:16:00,"{""rating"": ""4.2"", ""cost"": []}",摩托车服务,摩托车销售,摩托车销售,,118.85361,31.96009,118.84854943070258,31.96224360146873
77c45326-29bb-395e-8f55-e14ee20ed696,牛摩王机车俱乐部(桥北店),摩托车服务;摩托车维修;摩托车维修,40200,大桥北路24号金盛国际家居辅1层毛纺厂路中段金盛3闸口,"118.732373,32.133407",138****0166,320000,江苏省,25,南京市,320111,浦口区,4818156801,1575,江北新区,2023-03-29 03:51:00,"{""rating"": ""4.8"", ""cost"": []}",摩托车服务,摩托车维修,摩托车维修,,118.732373,32.133407,118.72714803955948,32.13546579097689
f925a290-95e2-3ac6-b448-9b1fc425d8de,航天·神迪精修电动车,摩托车服务;摩托车销售;摩托车销售,40100,真园开园东南2门旁,"118.756501,32.019295",137****9271,320000,江苏省,25,南京市,320105,建邺区,4818062001,266,南苑,2023-04-08 19:59:00,"{""rating"": ""4.3"", ""cost"": []}",摩托车服务,摩托车销售,摩托车销售,,118.756501,32.019295,118.75127947793963,32.021324076810195
2f21b9af-0786-345e-a74e-3ae26dfcc36f,江强强摩托车维修部,摩托车服务;摩托车服务相关;摩托车服务相关,40000,西苓路与青年路交叉口西南60米,"118.650227,31.920310",[],320000,江苏省,25,南京市,320114,雨花台区,4718750210,407,[],2022-11-17 14:57:00,"{""rating"": ""2.9"", ""cost"": []}",摩托车服务,摩托车服务相关,摩托车服务相关,,118.650227,31.92031,118.64517266154628,31.922451279266387
f4a411e6-8450-3676-b21b-0cc09d6a108e,新大洲本田(王府大街店),摩托车服务;摩托车销售;摩托车销售,40100,王府大街与小王府巷交叉口东北40米,"118.777350,32.034674",[],320000,江苏省,25,南京市,320104,秦淮区,4818064200,190,新街口,2023-05-07 11:55:00,"{""rating"": ""3.7"", ""cost"": []}",摩托车服务,摩托车销售,摩托车销售,,118.77735,32.034674,118.77214101786304,32.036719311986815
6ee0b283-d208-3213-b874-43b5ef4c9d40,857名品机车馆,摩托车服务;摩托车销售;摩托车销售,40100,中山东路和淮源街交叉路口,"119.036111,31.647921",139****7800,320000,江苏省,25,南京市,320117,溧水区,4719307222,461,永阳,2023-03-26 09:59:00,"{""rating"": ""4.2"", ""cost"": []}",摩托车服务,摩托车销售,摩托车销售,,119.036111,31.647921,119.03077288839968,31.64978041475793
ea22a091-a6e3-327c-83c1-2755df872a57,维修摩托车电动车,摩托车服务;摩托车维修;摩托车维修,40200,英方路西北侧,"118.936630,32.472769",[],320000,江苏省,25,南京市,320116,六合区,4818576422,388,江北新区,2023-04-15 13:19:00,"{'rating': '3.6', 'cost': []}",摩托车服务,摩托车维修,摩托车维修,,118.93663,32.472769,118.9315337489648,32.47498789546642
c7cddbd4-a3f5-3331-aa62-237646731ffb,张溪摩配,摩托车服务;摩托车服务相关;摩托车服务相关,40000,陆谷路与张彭路交叉口西80米,"118.680579,31.832228",[],320000,江苏省,25,南京市,320115,江宁区,4718559421,243,[],2023-03-14 20:51:00,"{""rating"": ""3.6"", ""cost"": []}",摩托车服务,摩托车服务相关,摩托车服务相关,,118.680579,31.832228,118.67546717909704,31.834294372379187
a6aca9b3-77a0-31ae-8a1f-34ef0a0b5a75,哈雷戴维森南京小行4S店,摩托车服务;摩托车销售;摩托车销售,40100,丁树路9号柒采创智中心1层103室,"118.741979,31.979601",4008851903,320000,江苏省,25,南京市,320114,雨花台区,4718757911,1993,小行,2023-04-18 18:31:00,"{""rating"": ""4.7"", ""cost"": []}",摩托车服务,摩托车销售,摩托车销售,,118.741979,31.979601,118.73676241115616,31.98162156242936
2f37e41d-b2b8-3dbf-b9d0-d557a9500bf3,贝纳利旗舰店Benelli,摩托车服务;摩托车销售;摩托车销售,40100,前庄路299号力通广场2栋1楼,"118.841235,31.905438",025-85300387;138****9045,320000,江苏省,25,南京市,320115,江宁区,4718668710,365,[],2023-04-25 11:00:00,"{""rating"": ""4.5"", ""cost"": []}",摩托车服务,摩托车销售,摩托车销售,,118.841235,31.905438,118.8361553345638,31.907557853841155
ef8fcf86-a641-332a-87cf-8697925dc2f8,摩托修理,摩托车服务;摩托车维修;摩托车维修,40200,四马线与西汇路交叉口东北20米,"118.876972,32.563539",[],320000,江苏省,25,南京市,320116,六合区,4818677010,303,江北新区,2023-02-22 19:40:00,"{""rating"": ""3.8"", ""cost"": []}",摩托车服务,摩托车维修,摩托车维修,,118.876972,32.563539,118.8718907327393,32.56575142506292
78904aa0-fa71-3276-8003-05d5b1ebdac7,南京金循豪爵铃木官方旗舰店,摩托车服务;摩托车销售;摩托车销售,40100,天印大道与上元大街交叉口西北100米,"118.857821,31.958719",[],320000,江苏省,25,南京市,320115,江宁区,4718765801,1516,[],2023-03-18 07:31:00,"{""rating"": ""4.1"", ""cost"": []}",摩托车服务,摩托车销售,摩托车销售,,118.857821,31.958719,118.85276800528824,31.960878964831306
adc4c86e-6f51-3005-a6b8-96e0359b29a5,QJMOTOR南京旗舰店,摩托车服务;摩托车销售;摩托车销售,40100,天印大道1416号,"118.864654,31.941181",137****6732,320000,江苏省,25,南京市,320115,江宁区,4718762920,224,竹山路沿线,2023-03-18 20:20:00,"{""rating"": ""4.4"", ""cost"": []}",摩托车服务,摩托车销售,摩托车销售,,118.864654,31.941181,118.85961363623947,31.943346912206472
f5ba271c-9dab-3d36-a61a-2d15b5b06b2d,摩托车电动车维修,摩托车服务;摩托车维修;摩托车维修,40200,桠阳线,"119.145566,31.367165",[],320000,江苏省,25,南京市,320118,高淳区,4719014101,446,[],2022-11-22 01:26:00,"{""rating"": ""3.6"", ""cost"": []}",摩托车服务,摩托车维修,摩托车维修,,119.145566,31.367165,119.1402003075951,31.36902358427451
45c7acfe-e874-35bd-8cc3-0d9bd8b4e733,99机车机车生活馆,摩托车服务;摩托车销售;摩托车销售,40100,泰山街道华园路8-1号99机车生活馆,"118.728718,32.123407",173****8200,320000,江苏省,25,南京市,320111,浦口区,4818154820,524,江北新区,2023-04-21 15:30:00,"{""rating"": ""4.3"", ""cost"": []}",摩托车服务,摩托车销售,摩托车销售,,118.728718,32.123407,118.72349720744384,32.125466569376066
43a779ad-af45-32b0-a214-53ebec96c4ce,豪爵铃木销售店(马群南路店),摩托车服务;摩托车服务相关;摩托车服务相关,40000,马群南路钟山职业技术学院,"118.888056,32.045696",[],320000,江苏省,25,南京市,320113,栖霞区,4818075110,154,马群,2023-04-15 12:48:00,"{""rating"": ""4.1"", ""cost"": []}",摩托车服务,摩托车服务相关,摩托车服务相关,,118.888056,32.045696,118.88303122678792,32.047909154745746
594cd84d-5677-366e-a07f-2a87ddad9ae9,猫子机车,摩托车服务;摩托车维修;摩托车维修,40200,交通东路69号天益国际汽车城,"119.055174,31.664154",[],320000,江苏省,25,南京市,320117,溧水区,4719309421,1424,永阳,2023-04-19 04:19:00,"{""rating"": ""4.5"", ""cost"": []}",摩托车服务,摩托车维修,摩托车维修,,119.055174,31.664154,119.04978357321546,31.665971857091247
19c55a45-e5ff-3993-9715-9468d144d38b,金刚车行,摩托车服务;摩托车维修;摩托车维修,40200,虎踞北路100号,"118.753901,32.080085",151****5060,320000,江苏省,25,南京市,320106,鼓楼区,4818069010,1337,挹江门,2023-05-04 11:11:00,"{""rating"": ""4.6"", ""cost"": []}",摩托车服务,摩托车维修,摩托车维修,,118.753901,32.080085,118.7486733998036,32.08212713664117
fcb0905a-60a0-37f3-9b96-bf75fe3d099e,尊摩坊机车,摩托车服务;摩托车销售;摩托车销售,40100,中央北路87号,"118.781742,32.103118",152****9588,320000,江苏省,25,南京市,320106,鼓楼区,4818162211,343,小市,2023-05-11 10:16:00,"{""rating"": ""4.0"", ""cost"": []}",摩托车服务,摩托车销售,摩托车销售,,118.781742,32.103118,118.77653182465902,32.1051827304148
41506325-93b5-3768-a77a-de2f4a7a247d,南京新大洲本田(TOP店),摩托车服务;摩托车销售;摩托车销售,40100,虎踞北路100号门面房,"118.753898,32.079889",152****9370,320000,江苏省,25,南京市,320106,鼓楼区,4818069010,1332,挹江门,2023-03-16 14:26:00,"{""rating"": ""4.3"", ""cost"": []}",摩托车服务,摩托车销售,摩托车销售,,118.753898,32.079889,118.74867041761549,32.08193109435885
4ae803f0-2550-36b0-aa27-0bed70df7612,新世纪汽摩城,摩托车服务;摩托车服务相关;摩托车服务相关,40000,汶溪路(鑫盛家居广场),"118.862819,31.335261",[],320000,江苏省,25,南京市,320118,高淳区,4718060900,361,淳溪,2022-12-30 20:38:00,"{""rating"": ""2.8"", ""cost"": []}",摩托车服务,摩托车服务相关,摩托车服务相关,,118.862819,31.335261,118.8578299630854,31.33743105010164
d21b497b-2c58-39ba-b5bc-21bd254b229a,KTMR2R(南京马群南路店),摩托车服务;摩托车销售;摩托车销售,40100,马群南路169号,"118.888099,32.045713",025-52613380,320000,江苏省,25,南京市,320113,栖霞区,4818075110,155,马群,2023-04-15 13:19:00,"{""rating"": ""4.2"", ""cost"": []}",摩托车服务,摩托车销售,摩托车销售,,118.888099,32.045713,118.88307424979249,32.04792618311821
c8950a21-37ec-3196-b069-2d76b5949e4a,宗申摩托(马玉线店),摩托车服务;摩托车销售;摩托车销售,40100,六马线与黄四路交叉口东北140米,"118.809714,32.475422",[],320000,江苏省,25,南京市,320116,六合区,4818567402,339,江北新区,2022-09-07 14:52:00,"{'rating': '3.5', 'cost': []}",摩托车服务,摩托车销售,摩托车销售,,118.809714,32.475422,118.80451583558522,32.477544123859346
2530b2b0-a56a-308c-accc-d06c0de1c55c,标致摩托(凤凰东路店),摩托车服务;摩托车销售;摩托车销售,40100,凤凰东路与葛关路交叉口西南160米,"118.765327,32.223204",[],320000,江苏省,25,南京市,320116,六合区,4818266120,352,江北新区,2022-11-18 16:37:00,"{""rating"": ""3.5"", ""cost"": []}",摩托车服务,摩托车销售,摩托车销售,,118.765327,32.223204,118.76009027051028,32.22527502873231
3b56dbee-1b36-3519-b1a4-50506d2b2e3d,比亚乔机车(乔都会店),摩托车服务;摩托车服务相关;摩托车服务相关,40000,虎踞南路101号-1,"118.770048,32.030741",133****6229,320000,江苏省,25,南京市,320104,秦淮区,4818063121,866,止马营,2023-04-24 08:55:00,"{""rating"": ""4.3"", ""cost"": []}",摩托车服务,摩托车服务相关,摩托车服务相关,,118.770048,32.030741,118.7648324650211,32.0327792077805
2cd8173e-b0ea-3854-be5f-6bba5f3e1d24,小邢摩配,摩托车服务;摩托车服务相关;摩托车服务相关,40000,狮树线与双砖线交叉口东北300米,"118.859447,31.294530",[],320000,江苏省,25,南京市,320118,高淳区,4618765812,475,[],2022-12-30 18:45:00,"{'rating': '2.5', 'cost': []}",摩托车服务,摩托车服务相关,摩托车服务相关,,118.859447,31.29453,118.85445612971684,31.29671036948663
88b5298f-d1ca-37e1-8156-59e291a626e8,三角洲工程部,摩托车服务;摩托车维修;摩托车维修,40200,玉兰里社区东南门旁(莫愁湖地铁站2号口步行430米),"118.754216,32.037712",[],320000,江苏省,25,南京市,320105,建邺区,4818064011,1279,汉中门,2023-02-20 15:32:00,"{""rating"": ""3.7"", ""cost"": []}",摩托车服务,摩托车维修,摩托车维修,,118.754216,32.037712,118.74899236210008,32.03974484102609
bd0962b0-8ad7-3ed9-a9c6-f9a5ac5263b7,福田五星三轮车,摩托车服务;摩托车销售;摩托车销售,40100,诚信路高淳大市场(北岭路店),"118.866850,31.336700",[],320000,江苏省,25,南京市,320118,高淳区,4718060911,108,淳溪,2022-11-21 23:06:00,"{""rating"": ""3.5"", ""cost"": []}",摩托车服务,摩托车销售,摩托车销售,,118.86685,31.3367,118.8618668668249,31.338875044364613
cc006513-3c7b-31e3-8da2-32c868762ba9,宗申车辆溧水·智能体验店,摩托车服务;摩托车销售;摩托车销售,40100,福晟庭院西北门西南100米,"118.994372,31.611527",[],320000,江苏省,25,南京市,320117,溧水区,4718373911,1704,洪蓝,2023-05-10 10:30:00,"{""rating"": ""3.6"", ""cost"": []}",摩托车服务,摩托车销售,摩托车销售,,118.994372,31.611527,118.98918176170788,31.61350654462529
0e52f6c6-b30e-30a2-82d4-66f598ff8a3c,摩托维修,摩托车服务;摩托车维修;摩托车维修,40200,桠阳线与红梅北路交叉口东380米,"119.169259,31.368186",[],320000,江苏省,25,南京市,320118,高淳区,4719014301,578,桠溪,2023-03-13 20:52:00,"{'rating': '3.5', 'cost': []}",摩托车服务,摩托车维修,摩托车维修,,119.169259,31.368186,119.16394230835463,31.37008653195374
46f87ff9-f241-3d8c-885b-43cbedc2e19d,铃木(大厂店),摩托车服务;摩托车销售;摩托车销售,40100,凤凰东路与葛关路交叉口西南180米,"118.765266,32.223045",[],320000,江苏省,25,南京市,320116,六合区,4818266120,369,江北新区,2022-11-21 22:56:00,"{""rating"": ""3.9"", ""cost"": []}",摩托车服务,摩托车销售,摩托车销售,,118.765266,32.223045,118.76002924822792,32.225115975293
3b1b868d-4095-3cfe-a7e5-0b7fd0410859,龙嘉机车,摩托车服务;摩托车销售;摩托车销售,40100,凤凰东路与葛关路交叉口西南160米,"118.765356,32.223269",[],320000,江苏省,25,南京市,320116,六合区,4818266120,344,江北新区,2022-09-09 11:04:00,"{""rating"": ""3.6"", ""cost"": []}",摩托车服务,摩托车销售,摩托车销售,,118.765356,32.223269,118.7601192821448,32.22534005287917
0f867474-8b35-3d3f-b0e9-627bf56a804a,阿浩机车摩托车修理,摩托车服务;摩托车销售;摩托车销售,40100,燕江路199号-59(上元门地铁站3口步行460米),"118.765918,32.113995",139****4455,320000,江苏省,25,南京市,320106,鼓楼区,4818163120,960,[],2023-04-15 17:15:00,"{""rating"": ""4.4"", ""cost"": []}",摩托车服务,摩托车销售,摩托车销售,,118.765918,32.113995,118.76069178890992,32.116048436358454
966dee59-3606-39e5-a5a7-68d2ea51eae7,摩托用品,摩托车服务;摩托车服务相关;摩托车服务相关,40000,双龙大道南方花园-西区,"118.817853,31.961837",[],320000,江苏省,25,南京市,320115,江宁区,4718765511,1289,双龙大道,2022-11-21 23:18:00,"{'rating': '3.6', 'cost': []}",摩托车服务,摩托车服务相关,摩托车服务相关,,118.817853,31.961837,118.8127189486234,31.963925951412136
b9f6599a-0b91-3a2d-9709-f9a67aee96e7,天宇摩配,摩托车服务;摩托车服务相关;摩托车服务相关,40000,希泉新寓南门西90米,"118.780328,31.817461",189****9068,320000,江苏省,25,南京市,320115,江宁区,4718568201,244,[],2023-04-24 13:47:00,"{'rating': '4.1', 'cost': []}",摩托车服务,摩托车服务相关,摩托车服务相关,,118.780328,31.817461,118.77514239459444,31.819462289733856
60ee1236-f825-3ea9-8a94-2905be565f62,安哒社机车服务中心,摩托车服务;摩托车销售;摩托车销售,40100,吉印大道3008号钟山驾校院内,"118.836625,31.892861",151****4409,320000,江苏省,25,南京市,320115,江宁区,4718667602,1749,[],2023-03-27 16:48:00,"{""rating"": ""4.0"", ""cost"": []}",摩托车服务,摩托车销售,摩托车销售,,118.836625,31.892861,118.83153693877424,31.89496966228453
72bb280c-dbc6-392a-94ba-db26a20b0f7c,鑫源摩托(马群南路店),摩托车服务;摩托车销售;摩托车销售,40100,马群南路钟山职业技术学院,"118.888376,32.045610",[],320000,江苏省,25,南京市,320113,栖霞区,4818075110,138,马群,2023-04-15 11:20:00,"{""rating"": ""3.0"", ""cost"": []}",摩托车服务,摩托车销售,摩托车销售,,118.888376,32.04561,118.8833514151405,32.04782331651469
72e92061-98a4-3f96-b73a-86527116bdba,南京鄂之宝汽车配件,摩托车服务;摩托车服务相关;摩托车服务相关,40000,王子楼西108号仙林汽配城13栋12号,"118.895017,32.110798",133****4050,320000,江苏省,25,南京市,320113,栖霞区,4818173101,429,尧化,2023-02-16 12:06:00,"{""rating"": ""3.4"", ""cost"": []}",摩托车服务,摩托车服务相关,摩托车服务相关,,118.895017,32.110798,118.88998914925746,32.11302805350458
d90ca667-1890-33e8-9101-9728f2e81d21,南京英伦凯旋摩托车4S店,摩托车服务;摩托车销售;摩托车销售,40100,爱涛艺术中心东门,"118.800199,31.926831",[],320000,江苏省,25,南京市,320115,江宁区,4718761400,247,开发区,2023-05-09 12:25:00,"{""rating"": ""4.7"", ""cost"": []}",摩托车服务,摩托车销售,摩托车销售,,118.800199,31.926831,118.7950335073364,31.92888136615081
49246466-e8df-37f4-949f-ca4e0ecfe550,KOVE凯越机车(南京店),摩托车服务;摩托车销售;摩托车销售,40100,环陵路99号(马群转盘紫园广场工商银行旁),"118.887747,32.049765",[],320000,江苏省,25,南京市,320113,栖霞区,4818075120,605,马群,2022-12-28 16:56:00,"{""rating"": ""4.4"", ""cost"": []}",摩托车服务,摩托车销售,摩托车销售,,118.887747,32.049765,118.88272167953882,32.051978885679524
81184b16-6c2b-3a44-8cc0-63cb8bda41fa,蓝鲨·智能摩托体验店(南京),摩托车服务;摩托车销售;摩托车销售,40100,中华路491号,"118.782828,32.015647",[],320000,江苏省,25,南京市,320104,秦淮区,4818061221,415,夫子庙,2023-04-26 15:59:00,"{""rating"": ""3.8"", ""cost"": []}",摩托车服务,摩托车销售,摩托车销售,,118.782828,32.015647,118.77762728377688,32.017693774759294
fc29b569-f780-3b13-9037-cbf36d8d3188,豪爵铃木销售店,摩托车服务;摩托车服务相关;摩托车服务相关,40000,百合园西南门西100米,"118.850561,32.349936",189****1618,320000,江苏省,25,南京市,320116,六合区,4818461820,605,江北新区,2023-04-10 20:26:00,"{""rating"": ""3.9"", ""cost"": []}",摩托车服务,摩托车服务相关,摩托车服务相关,,118.850561,32.349936,118.84545914236055,32.352144143580354
5729d479-cb54-3d88-a24a-d7ed0815d6ed,自由骑士机车俱乐部,摩托车服务;摩托车销售;摩托车销售,40100,环陵路99号·紫园(马群广场乐研育儿楼下),"118.887640,32.049857",138****6618,320000,江苏省,25,南京市,320113,栖霞区,4818075120,616,马群,2023-02-28 04:45:00,"{""rating"": ""4.4"", ""cost"": []}",摩托车服务,摩托车销售,摩托车销售,,118.88764,32.049857,118.88261460821306,32.05207084344504
99468873-9526-349d-93b1-584fa8f14fc0,铃木摩托车小刀电动车,摩托车服务;摩托车维修;摩托车维修,40200,通淮街165号,"118.803588,31.935672",152****3199,320000,江苏省,25,南京市,320115,江宁区,4718762400,790,百家湖,2023-05-09 05:36:00,"{""rating"": ""4.3"", ""cost"": []}",摩托车服务,摩托车维修,摩托车维修,,118.803588,31.935672,118.79842791444968,31.93772985648017
671900a9-7b08-325d-ac87-43f4f5508d69,铃木摩托(南京店),摩托车服务;摩托车销售;摩托车销售,40100,应天大街75-77号,"118.806690,32.005989",181****2308,320000,江苏省,25,南京市,320104,秦淮区,4818060421,1342,红花,2023-03-16 12:16:00,"{'rating': '4.2', 'cost': []}",摩托车服务,摩托车销售,摩托车销售,,118.80669,32.005989,118.80152936967048,32.008068247966726
2d0dd63c-5306-3cbb-b963-4e6ce7c1bb85,三阳机车南京旗舰店,摩托车服务;摩托车销售;摩托车销售,40100,应天大街337号(原中华门火车站候车大厅),"118.778645,32.006161",025-86702223;186****6869,320000,江苏省,25,南京市,320104,秦淮区,4818060220,1196,[],2023-05-05 10:14:00,"{""rating"": ""4.7"", ""cost"": []}",摩托车服务,摩托车销售,摩托车销售,,118.778645,32.006161,118.77344009005007,32.00820107492233
5e3ba29b-884a-3bf7-bab1-7d1e96b95abd,修理摩托车电动车,摩托车服务;摩托车服务相关;摩托车服务相关,40000,陶李王巷新苑西南门西北170米,"118.768198,32.039921",[],320000,江苏省,25,南京市,320104,秦淮区,4818064121,1228,汉中门,2023-04-02 19:34:00,"{""rating"": ""3.6"", ""cost"": []}",摩托车服务,摩托车服务相关,摩托车服务相关,,118.768198,32.039921,118.7629802007469,32.0419600039337
fc1b3008-faa4-3fba-9a51-d6c553577dbd,利达摩配,摩托车服务;摩托车服务相关;摩托车服务相关,40000,麒麟门大道金宝麒麟商业广场,"118.963228,32.054242",137****9896,320000,江苏省,25,南京市,320115,江宁区,4818076710,244,[],2023-04-11 13:16:00,"{""rating"": ""3.6"", ""cost"": []}",摩托车服务,摩托车服务相关,摩托车服务相关,,118.963228,32.054242,118.95810333601258,32.05637930431622
59140b9d-7a7a-33fb-bf03-09cf396f6847,修理部摩托车电动车,摩托车服务;摩托车服务相关;摩托车服务相关,40000,延龄巷与淮海路交叉口东北20米,"118.791492,32.036634",[],320000,江苏省,25,南京市,320104,秦淮区,4818064310,1261,大行宫,2023-04-06 20:35:00,"{""rating"": ""4.0"", ""cost"": []}",摩托车服务,摩托车服务相关,摩托车服务相关,,118.791492,32.036634,118.78630173722556,32.038696553263044
a12aff6c-23d4-3a5f-80ec-977ebf9b9097,Crocodile鳄鱼重机工作室,摩托车服务;摩托车维修;摩托车维修,40200,汇康路45号,"118.808826,31.980477",181****1988,320000,江苏省,25,南京市,320104,秦淮区,4718767412,1137,岔路口,2023-04-18 01:36:00,"{""rating"": ""3.9"", ""cost"": []}",摩托车服务,摩托车维修,摩托车维修,,118.808826,31.980477,118.80367188059807,31.98255403585711
5fbae2b0-e587-348a-b6b9-974040c7351d,新大洲本田(双龙大道店),摩托车服务;摩托车服务相关;摩托车服务相关,40000,三色商务楼西门南60米,"118.821123,31.948363",025-51180010,320000,江苏省,25,南京市,320115,江宁区,4718763522,1548,双龙大道,2023-05-10 18:53:00,"{'rating': '4.2', 'cost': []}",摩托车服务,摩托车服务相关,摩托车服务相关,,118.821123,31.948363,118.8159970418982,31.950454924619983
792b5c8a-9c68-36b2-89ae-e2b1f0b55204,宗申车辆,摩托车服务;摩托车销售;摩托车销售,40100,白马桥东街与美玉街交叉口西180米,"119.175215,31.579441",138****7541,320000,江苏省,25,南京市,320117,溧水区,4719219410,402,[],2022-11-30 16:29:00,"{""rating"": ""3.8"", ""cost"": []}",摩托车服务,摩托车销售,摩托车销售,,119.175215,31.579441,119.16989188748632,31.581313968017028
d4bbd618-8ac6-3447-975e-8481cd270927,新大洲本田(浦口店),摩托车服务;摩托车销售;摩托车销售,40100,文德西路与中圣南街交叉口西南160米,"118.624619,32.054826",[],320000,江苏省,25,南京市,320111,浦口区,4818046912,552,江北新区,2023-05-06 10:17:00,"{""rating"": ""2.6"", ""cost"": []}",摩托车服务,摩托车销售,摩托车销售,,118.624619,32.054826,118.61959418671132,32.0570348112316
d01b235c-d6d9-3fc0-b71d-b4efae55cfd2,精修摩托电动车,摩托车服务;摩托车维修;摩托车维修,40200,刘营路与编钟东路交叉口南50米,"118.755037,32.380505",[],320000,江苏省,25,南京市,320116,六合区,4818465011,1971,江北新区,2022-09-07 13:56:00,"{""rating"": ""3.7"", ""cost"": []}",摩托车服务,摩托车维修,摩托车维修,,118.755037,32.380505,118.74978155849227,32.38257885444213
bbd82ae7-4094-3c7b-b586-d985d04fcb7f,MOTO7(机车小店),摩托车服务;摩托车销售;摩托车销售,40100,科宁路289号,"118.851846,31.924950",[],320000,江苏省,25,南京市,320115,江宁区,4718760820,1265,竹山路沿线,2023-04-19 11:44:00,"{""rating"": ""4.8"", ""cost"": []}",摩托车服务,摩托车销售,摩托车销售,,118.851846,31.92495,118.84678536687524,31.92709270860712
e8f791ac-f647-3409-bba8-1993199b4174,维修电动车摩托车,摩托车服务;摩托车维修;摩托车维修,40200,宁芜大道与福兴街交叉口西20米,"118.554030,31.791175",139****9274,320000,江苏省,25,南京市,320115,江宁区,4718544420,469,[],2022-11-22 16:48:00,"{""rating"": ""3.9"", ""cost"": []}",摩托车服务,摩托车维修,摩托车维修,,118.55403,31.791175,118.54898969622904,31.7933008232068
4011861a-be24-31f9-9c2a-6c80bbcdbf61,MV AGUSTA,摩托车服务;摩托车服务相关;摩托车服务相关,40000,天印大道书香名门,"118.864681,31.941270",[],320000,江苏省,25,南京市,320115,江宁区,4718762920,228,[],2022-11-21 22:57:00,"{""rating"": [], ""cost"": []}",摩托车服务,摩托车服务相关,摩托车服务相关,,118.864681,31.94127,118.85964066899464,31.943435969386616
6b48ff95-e3d8-34e3-8b6f-989d32929857,电动车摩托车维修中心,摩托车服务;摩托车维修;摩托车维修,40200,江浦街道城南新村一期八栋14号车库,"118.643393,32.056853",189****2585,320000,江苏省,25,南京市,320111,浦口区,4818056121,1105,江北新区,2023-04-25 12:45:00,"{""rating"": ""4.4"", ""cost"": []}",摩托车服务,摩托车维修,摩托车维修,,118.643393,32.056853,118.63833934154792,32.05903685019538
a81520ab-2be9-3767-b394-1b5600f484d8,摩托修理,摩托车服务;摩托车维修;摩托车维修,40200,G25长深高速与栖霞互通主线桥交叉口北260米,"118.951935,32.144194",[],320000,江苏省,25,南京市,320113,栖霞区,4818177600,260,[],2023-03-09 15:27:00,"{""rating"": ""3.7"", ""cost"": []}",摩托车服务,摩托车维修,摩托车维修,,118.951935,32.144194,118.94683406476182,32.14637589668056
c854d64f-029e-3460-ae58-d82540046aab,铃木(江北店),摩托车服务;摩托车服务相关;摩托车服务相关,40000,浦珠北路2号,"118.726090,32.124480",151****6737,320000,江苏省,25,南京市,320111,浦口区,4818154820,419,江北新区,2023-03-13 20:40:00,"{""rating"": ""4.1"", ""cost"": []}",摩托车服务,摩托车服务相关,摩托车服务相关,,118.72609,32.12448,118.72087176858668,32.12654199807846
f5c5f136-f667-38db-ae43-1025acf355d2,华航摩杰汇机车俱乐部,摩托车服务;摩托车销售;摩托车销售,40100,科健路198号2号楼-1,"118.853920,31.927313",156****6261,320000,江苏省,25,南京市,320115,江宁区,4718761800,1850,竹山路沿线,2023-04-18 05:09:00,"{""rating"": ""4.6"", ""cost"": []}",摩托车服务,摩托车销售,摩托车销售,,118.85392,31.927313,118.84886296328352,31.92945964728957
7d91cb29-5ab5-3960-b80c-f6ff444db7d9,南京追梦机车,摩托车服务;摩托车销售;摩托车销售,40100,康泰路与柴园北路交叉口东80米,"118.815644,31.983265",[],320000,江苏省,25,南京市,320104,秦淮区,4718767520,1821,岔路口,2023-05-11 20:34:00,"{""rating"": ""4.4"", ""cost"": []}",摩托车服务,摩托车销售,摩托车销售,,118.815644,31.983265,118.81050340367956,31.98535484853848
64c011f2-cb64-35b6-8453-1d4a7b22562e,雅马哈(南京新百B座店),摩托车服务;摩托车销售;摩托车销售,40100,中山南路1号南京新百A座F7层(新街口地铁站8号口旁),"118.785174,32.040902",[],320000,江苏省,25,南京市,320104,秦淮区,4818064222,1036,新街口,2023-03-15 13:38:00,"{""rating"": ""3.5"", ""cost"": []}",摩托车服务,摩托车销售,摩托车销售,,118.785174,32.040902,118.7799740657854,32.04295728966525
fad8e283-90ae-3674-ad5f-b05d64d29690,阿普利亚赛科龙摩托车南京工厂店,摩托车服务;摩托车服务相关;摩托车服务相关,40000,科建路198号,"118.853979,31.927313",189****0593,320000,江苏省,25,南京市,320115,江宁区,4718761800,1847,竹山路沿线,2023-05-04 11:20:00,"{""rating"": ""4.4"", ""cost"": []}",摩托车服务,摩托车服务相关,摩托车服务相关,,118.853979,31.927313,118.84892207022364,31.92945974304087
b8e9bf07-1361-3410-a87e-ac92e3498860,南京摩爵会江宁店,摩托车服务;摩托车销售;摩托车销售,40100,淳化街道天印大道1089号,"118.862690,31.950659",199****3638,320000,江苏省,25,南京市,320115,江宁区,4718764900,1241,[],2023-04-04 04:53:00,"{""rating"": ""4.5"", ""cost"": []}",摩托车服务,摩托车销售,摩托车销售,,118.86269,31.950659,118.85764574885222,31.952824333247488
58b00bc6-4810-3c28-aa6a-827e3761842b,小陈摩配精修摩托车电动车,摩托车服务;摩托车服务相关;摩托车服务相关,40000,X021(盘城北街),"118.716872,32.219446",138****3176,320000,江苏省,25,南京市,320111,浦口区,4818256711,394,江北新区,2022-11-30 10:40:00,"{""rating"": ""3.4"", ""cost"": []}",摩托车服务,摩托车服务相关,摩托车服务相关,,118.716872,32.219446,118.71165636908586,32.221532994864525
a05b86a1-3f92-3933-9cfa-92a7c066e74c,小何摩配,摩托车服务;摩托车服务相关;摩托车服务相关,40000,南京嘉瑞保健食品有限公司西南门北70米,"118.793279,32.570311",[],320000,江苏省,25,南京市,320116,六合区,4818668311,372,江北新区,2022-09-07 18:27:00,"{'rating': '3.5', 'cost': []}",摩托车服务,摩托车服务相关,摩托车服务相关,,118.793279,32.570311,118.78804188502384,32.572384096903825
fea25f5e-061a-3634-87a9-45c3e5d0f627,KYMCO,摩托车服务;摩托车销售;摩托车销售,40100,兴民北路与天元东路辅路交叉口西北40米,"118.849552,31.933895",[],320000,江苏省,25,南京市,320115,江宁区,4718762702,1746,竹山路沿线,2023-05-06 12:12:00,"{""rating"": ""3.7"", ""cost"": []}",摩托车服务,摩托车销售,摩托车销售,,118.849552,31.933895,118.8444862321834,31.936035858173284
eaf39d02-7cf0-3306-bc89-5871b379dcb2,中国长江南京曹记,摩托车服务;摩托车销售;摩托车销售,40100,金川雅居西南门东50米,"118.760089,32.083029",[],320000,江苏省,25,南京市,320106,鼓楼区,4818069022,957,挹江门,2023-04-05 06:35:00,"{""rating"": ""4.2"", ""cost"": []}",摩托车服务,摩托车销售,摩托车销售,,118.760089,32.083029,118.75486268513517,32.08507330462493
a355a1e8-1a90-3a76-83de-88dc3b5c3b09,六朝马帮摩托,摩托车服务;摩托车维修;摩托车维修,40200,江边路47-3,"118.744426,32.103418",175****6666,320000,江苏省,25,南京市,320106,鼓楼区,4818152911,1388,宝塔桥,2023-05-09 12:42:00,"{""rating"": ""4.2"", ""cost"": []}",摩托车服务,摩托车维修,摩托车维修,,118.744426,32.103418,118.73919709793353,32.105465461304014
91a17836-b9bb-3f1f-a451-9afbcebb81c4,电动车摩配,摩托车服务;摩托车服务相关;摩托车服务相关,40000,麒麟门大道金宝麒麟商业广场,"118.963087,32.054789",[],320000,江苏省,25,南京市,320115,江宁区,4818076710,232,[],2023-02-01 22:54:00,"{""rating"": ""3.3"", ""cost"": []}",摩托车服务,摩托车服务相关,摩托车服务相关,,118.963087,32.054789,118.9579627132058,32.056926777044275
77d1b9d3-05ea-36ce-a6a9-e43e54b85f55,雅马哈钢琴专卖店(洪武路店),摩托车服务;摩托车销售;摩托车销售,40100,洪武路239号新大都大厦F1层,"118.787280,32.034183",[],320000,江苏省,25,南京市,320104,秦淮区,4818064202,815,新街口,2023-04-22 19:30:00,"{""rating"": ""3.8"", ""cost"": []}",摩托车服务,摩托车销售,摩托车销售,,118.78728,32.034183,118.78208363708448,32.036239391263564
b4b87f19-bd76-3837-a8cc-3bb60a2670d7,金元摩配修理,摩托车服务;摩托车维修;摩托车维修,40200,金牛北路与平安西路交叉口东北220米,"118.989473,31.609245",[],320000,江苏省,25,南京市,320117,溧水区,4718373900,1242,洪蓝,2023-05-02 06:12:00,"{""rating"": ""3.8"", ""cost"": []}",摩托车服务,摩托车维修,摩托车维修,,118.989473,31.609245,118.98430068267857,31.611239324300985
c92a0edb-6db8-37b7-89c8-1d54c0c8a988,HYOSUNG,摩托车服务;摩托车销售;摩托车销售,40100,虎踞北路与内环西线出口交叉口东南40米,"118.753921,32.080047",[],320000,江苏省,25,南京市,320106,鼓楼区,4818069010,1334,虎踞北路,2022-12-29 12:43:00,"{""rating"": ""3.3"", ""cost"": []}",摩托车服务,摩托车销售,摩托车销售,,118.753921,32.080047,118.74869340567216,32.082089131176126
9743332e-f3c6-39f2-a2c8-17b52d4de2c1,华航机车馆,摩托车服务;摩托车销售;摩托车销售,40100,浦珠北路2号,"118.726062,32.124492",151****6737,320000,江苏省,25,南京市,320111,浦口区,4818154820,418,江北新区,2023-04-27 09:53:00,"{""rating"": ""4.7"", ""cost"": []}",摩托车服务,摩托车销售,摩托车销售,,118.726062,32.124492,118.72084379728167,32.12655402532777
108186b6-2db0-3408-8138-da54b8c9f828,摩托吧·南京接待站,摩托车服务;摩托车服务相关;摩托车服务相关,40000,环陵路99号·医院26栋(工商银行马群支行旁),"118.887594,32.049882",[],320000,江苏省,25,南京市,320113,栖霞区,4818075120,619,马群,2022-07-21 13:13:00,"{""rating"": ""3.2"", ""cost"": []}",摩托车服务,摩托车服务相关,摩托车服务相关,,118.887594,32.049882,118.8825685787027,32.05209582190316
89691947-a14e-3eae-9c6c-6b216be966be,YAMAHA,摩托车服务;摩托车销售;摩托车销售,40100,迈尧路18号7幢118,"118.814590,32.106985",025-83337889;133****7731;137****6462,320000,江苏省,25,南京市,320113,栖霞区,4818162520,1831,迈皋桥,2023-05-09 02:43:00,"{""rating"": ""4.4"", ""cost"": []}",摩托车服务,摩托车销售,摩托车销售,,118.81459,32.106985,118.80943587899644,32.10910036665509
62b4c9a2-a0f8-3e65-9d36-c60fce6d2998,QJMOTOR钱江摩托aprilia阿普利亚,摩托车服务;摩托车销售;摩托车销售,40100,白果南路与泰山路交叉口西南180米,"118.850028,32.338938",189****4130,320000,江苏省,25,南京市,320116,六合区,4818460820,1539,江北新区,2023-02-21 08:51:00,"{""rating"": ""4.1"", ""cost"": []}",摩托车服务,摩托车销售,摩托车销售,,118.850028,32.338938,118.8449261413588,32.34114529160484
26f6ad3c-8728-328c-9b15-9b4182151f4a,无极机车(桥北店),摩托车服务;摩托车销售;摩托车销售,40100,浦珠北路2号,"118.726105,32.124489",151****6737,320000,江苏省,25,南京市,320111,浦口区,4818154820,420,江北新区,2022-11-21 15:56:00,"{""rating"": ""4.1"", ""cost"": []}",摩托车服务,摩托车销售,摩托车销售,,118.726105,32.124489,118.72088675179744,32.12655098647464
943a22ce-e997-372a-b20c-0f8c3b07bbc9,光阳摩托(桥北店),摩托车服务;摩托车销售;摩托车销售,40100,浦珠北路2号,"118.726048,32.124488",151****6737,320000,江苏省,25,南京市,320111,浦口区,4818154820,417,江北新区,2022-11-21 16:58:00,"{""rating"": ""4.1"", ""cost"": []}",摩托车服务,摩托车销售,摩托车销售,,118.726048,32.124488,118.72082981256712,32.12655003702885
1466d7d7-d8b0-378d-bccb-ed391046991e,南京飞盾摩托车销售有限公司,摩托车服务;摩托车销售;摩托车销售,40100,凤木西路与集庆门大街交叉口北20米,"118.745313,32.028141",159****5772;189****7173,320000,江苏省,25,南京市,320105,建邺区,4818053911,1649,茶南,2023-04-19 18:57:00,"{""rating"": ""4.3"", ""cost"": []}",摩托车服务,摩托车销售,摩托车销售,,118.745313,32.028141,118.74009082091314,32.03017188776881
70d13cf8-cd9a-370a-b3f1-eb5efa77176b,豪爵(通淮街店),摩托车服务;摩托车销售;摩托车销售,40100,通淮街颐秀居,"118.803699,31.935608",[],320000,江苏省,25,南京市,320115,江宁区,4718762400,788,开发区,2023-04-28 13:27:00,"{""rating"": ""3.7"", ""cost"": []}",摩托车服务,摩托车销售,摩托车销售,,118.803699,31.935608,118.79853912817173,31.937666025742843
